DATASET,DATASET_ACRONYM,RECORD_ID,MUNICIPALITY,STATE,STATE_ACRONYM,COUNTRY,ID_CODLOC,HABITAT,LATITUDE_Y,LONGITUDE_X,PRECISION,REGIONAL_NAME_OF_STUDY_SITE,EPIPHYTE_GROUP,EPIPHYTE_FAMILY,EPIPHYTE_GENUS,EPIPHYTE_EPITHET,EPIPHYTE_SPECIES,EPIPHYTE_HABITAT,FOROPHYTE_FAMILY,FOROPHYTE_GENERA,FOROPHYTE_EPITHET,FOROPYHYTE_SPECIES,YEAR_START,YEAR_FINISH,DATA_TYPE,ALTITUDE,ANNUAL_RAINFALL,ANNUAL_TEMPERATURE,VEGETATION_TYPE,ATLANTIC_FOREST_LIMIT,OBS
KERB_03843,KERB,E3843,SAO JOAQUIM,SANTA CATARINA,SC,Brazil,ABUNDANCE,,-28.482429,-49.832046,Study site,Rio Pelotas,Ferns,Aspleniaceae,Asplenium,gastonis,Asplenium gastonis,facultative,,,,,2014,2014,Abundance,1132,1635,19.7999992370605,Ombrophilous Forest,YES,
MENE2_29625,MENE2,E6051,SAO PAULO,SAO PAULO,SP,Brazil,,,-23.5656,-46.7286,Coordinates given in the herbarium record,Butanta,Angiosperms,Orchidaceae,Capanemia,superflua,Capanemia superflua,holoepiphyte,,,,,,,Presence_only,631,1414,21.6000003814697,Ombrophilous Forest,YES,
KERB_07628,KERB,E7628,FAZENDA RIO GRANDE,PARANA,PR,Brazil,ABUNDANCE,Mixed Ombrophilous Forest,-25.666271,-49.269229,Forest fragment,Fazenda Experimental Gralha Azul 2,Angiosperms,Piperaceae,Peperomia,tetraphylla,Peperomia tetraphylla,holoepiphyte,,,,,2015,2017,Abundance,910,1294,20.5,Ombrophilous Forest,YES,
KERB_02367,KERB,E2367,BOM JESUS,RIO GRANDE DO SUL,RS,Brazil,ABUNDANCE,,-28.464002,-50.157705,Forest fragment,Rio Pelotas,Angiosperms,Piperaceae,Peperomia,catharinae,Peperomia catharinae,holoepiphyte,,,,,2014,2014,Abundance,996,1605,20.6000003814697,Savanna,YES,
KERB_04567,KERB,E4567,ARAUCARIA,PARANA,PR,Brazil,ABUNDANCE,Secondary Forest,-25.600388,-49.410176,Forest fragment,Araucaria,Ferns,Polypodiaceae,Pleopeltis,hirsutissima,Pleopeltis hirsutissima,holoepiphyte,,,,,2002,2006,Abundance,879,1292,21,Ombrophilous Forest,YES,
JABOT_02034,JABOT,403407,ANGRA DOS REIS,RIO DE JANEIRO,RJ,Brazil,,,-22.98333,-44.46667,Coordinates given in the herbarium record,,Ferns,Polypodiaceae,Pecluma,pectinatiformis,Pecluma pectinatiformis,holoepiphyte,,,,,2004,2004,Presence_only,437,1545,25.2000007629395,Ombrophilous Forest,YES,
VAND_00062,VAND,145,POCOS DE CALDAS,MATO GROSSO DO SUL,MS,Brazil,RJ22,Riparian Forest,-21.7854,-46.5619,Municipality,Fazenda de Ricardo Junqueira,Angiosperms,Bromeliaceae,Aechmea,distichantha,Aechmea distichantha,holoepiphyte,Proteaceae,Roupala,montana,Roupala montana,2005,2006,Abundance,1512,1686,20.7000007629395,Seasonal Forest,YES,
CROS_00020,CROS,x11,PEDREGULHO,SAO PAULO,SP,Brazil,1,Urban Area,-20.256516,-47.458778,10,Parque Estadual das Furnas do Bom Jesus,Angiosperms,Bromeliaceae,Tillandsia,loliacea,Tillandsia loliacea,facultative,Anacardiaceae,Tapirira,guianensis,Tapirira guianensis,2016,2016,Abundance,1052,1578,20.8999996185303,Savanna,YES,The plots were circular with the tree hosting most epiphytes on the axis
FUME_01524,FUME,E1532,LIMA DUARTE,MATO GROSSO DO SUL,MS,Brazil,,Cloud Forest,-21.71469,-43.89387,100,"Parque Estadual do Ibitipoca, Ponte de Pedra",Angiosperms,Bromeliaceae,Tillandsia,stricta,Tillandsia stricta,facultative,Thymelaeaceae,Daphnopsis,alpestris,Daphnopsis alpestris,2014,2014,Presence_absence,1576,1649,19.7000007629395,Seasonal Forest,YES,
MENE2_03880,MENE2,E12618,RIO DO CAMPO,SANTA CATARINA,SC,Brazil,,,-26.91,-50.220278,Coordinates given in the herbarium record,Anta Branca -Antigo Alto Rio do Oeste-,Angiosperms,Orchidaceae,Brasiliorchis,picta,Brasiliorchis picta,holoepiphyte,,,,,,,Presence_only,635,1546,20.7000007629395,Ombrophilous Forest,YES,
MENE2_07437,MENE2,E15851,SANTA MARIA MADALENA,RIO DE JANEIRO,RJ,Brazil,,,-21.9553,-42.0081,Coordinates given in the herbarium record,Bifurcacao da estrada que vai para Terras Frias.,Angiosperms,Orchidaceae,Grandiphyllum,auricula,Grandiphyllum auricula,holoepiphyte,,,,,,,Presence_only,634,1432,22.5,Ombrophilous Forest,YES,
FRAL_02289,FRAL,E2289,RIO PRETO,MATO GROSSO DO SUL,MS,Brazil,,Urban Green Area,-22.08972,-43.8275,100,Praca Barao de Santa Clara,Angiosperms,Cactaceae,Rhipsalis,lindbergiana,Rhipsalis lindbergiana,holoepiphyte,,,,,2017,2018,Presence_only,515,1431,24.2000007629395,Seasonal Forest,YES,
NUNE_00780,NUNE,E0326,CACHOEIRAS DE MACACU,RIO DE JANEIRO,RJ,Brazil,,Pasture,-22.428547,-42.751084,10,Guapiacu,Angiosperms,Cactaceae,Lepismium,cruciforme,Lepismium cruciforme,holoepiphyte,Meliaceae,Guarea,guidonia,Guarea guidonia,2017,2018,Abundance,154,1361,26.2000007629395,Ombrophilous Forest,YES,
DGON_00115,DGON,E115,ERVALIA,MATO GROSSO DO SUL,MS,Brazil,1,Secondary Forest,-20.8781,-42.5197,10,Parque Estadual Serra do Brigadeiro,Angiosperms,Cactaceae,Rhipsalis,juengeri,Rhipsalis juengeri,holoepiphyte,,,,,2015,2015,Presence_only,1446,1537,18.6000003814697,Seasonal Forest,YES,D.R. Gonzaga et al. 443
MENE2_31840,MENE2,E8266,UBATUBA,SAO PAULO,SP,Brazil,,,-23.42,-45.1275,Coordinates given in the herbarium record,"Estacao Experimental de Ubatuba, Instituto Agronomico de Campinas",Angiosperms,Orchidaceae,Epidendrum,cristatum,Epidendrum cristatum,holoepiphyte,,,,,,,Presence_only,145,2575,25.3999996185303,Ombrophilous Forest,YES,
KERB_04759,KERB,E4759,CONTENDA,PARANA,PR,Brazil,ABUNDANCE,Secondary Forest,-25.604126,-49.570547,Forest fragment,General Lucio,Angiosperms,Orchidaceae,Capanemia,micromera,Capanemia micromera,holoepiphyte,,,,,2002,2006,Abundance,872,1323,21,Ombrophilous Forest,YES,
MENE2_11081,MENE2,E19164,PAPANDUVA,SANTA CATARINA,SC,Brazil,,,-26.731652,-50.131912,Coordinates given in the herbarium record,Sao Joao do Mirador,Angiosperms,Piperaceae,Peperomia,tetraphylla,Peperomia tetraphylla,holoepiphyte,,,,,,,Presence_only,620,1484,21.6000003814697,Ombrophilous Forest,YES,
GOSI_02025,GOSI,E0219,CRICIUMA,SANTA CATARINA,SC,Brazil,,Secondary Forest,-28.678,-49.37,Municipality,,Angiosperms,Bromeliaceae,Vriesea,carinata,Vriesea carinata,holoepiphyte,,,,,2014,2017,Presence_only,159,1356,24,Ombrophilous Forest,YES,
KESS_00323,KESS,E0323,GUARATUBA,PARANA,PR,Brazil,,,-25.8833,-48.7,Sampled tree,,Angiosperms,Bromeliaceae,Vriesea,rodigasiana,Vriesea rodigasiana,holoepiphyte,,,,,,,Presence_only,60,1914,25.2999992370605,,YES,
CEBA_00079,CEBA,,SAN PEDRO,MISIONES,N,Argentina,,Forest,-26.5,-54.13333,Study site,Parque Provincial La Araucaria,Ferns,Polypodiaceae,Pleopeltis,hirsutissima,Pleopeltis hirsutissima,holoepiphyte,,,,,,2013,Presence_only,534,1786,23.5,,YES,
MENE2_17737,MENE2,E25215,ABAIRA,BAHIA,BA,Brazil,,,-13.2497,-41.6636,Coordinates given in the herbarium record,Distrito de Catoles. mata do Tijuquinho.,Angiosperms,Cactaceae,Rhipsalis,floccosa,Rhipsalis floccosa,holoepiphyte,,,,,,,Presence_only,576,839,23.7000007629395,,NO,
MENE2_02092,MENE2,E10992,PIRAQUARA,PARANA,PR,Brazil,,,-25.4417,-49.0633,Coordinates given in the herbarium record,Base do Morro Anhangava,Angiosperms,Orchidaceae,Lankesterella,caespitosa,Lankesterella caespitosa,holoepiphyte,,,,,,,Presence_only,913,1565,20.8999996185303,Ombrophilous Forest,YES,
CBOE_00642,CBOE,Tree141,SANTA CRUZ DO SUL,RIO GRANDE DO SUL,RS,Brazil,PA3,Araucaria Plantation,-29.44332,-52.402377,Central point in study site,Floresta Nacional de Sao Francisco de Paula.,Angiosperms,Bromeliaceae,Tillandsia,aeranthos,Tillandsia aeranthos,holoepiphyte,Araucariaceae,Araucaria,angustifolia,Araucaria angustifolia,2007,2007,Abundance,611,1359,23.1000003814697,Seasonal Forest,YES,
MENE2_29716,MENE2,E6142,MARAU,BAHIA,BA,Brazil,,,-13.988333,-38.952222,Coordinates given in the herbarium record,Rodovia BR-03 Saquaira/ Campinhos 4 - 8 Km.,Angiosperms,Orchidaceae,Catasetum,discolor,Catasetum discolor,holoepiphyte,,,,,,,Presence_only,36,2414,25.8999996185303,Other,YES,
MECO_00155,MECO,E0155,RIO CLARO,SAO PAULO,SP,Brazil,,Secondary Forest,-22.33176242,-47.56280611,45,,Angiosperms,Bromeliaceae,Aechmea,bromeliifolia,Aechmea bromeliifolia,holoepiphyte,,,,,2016,2018,Presence_absence,594,1301,23.2999992370605,Seasonal Forest,YES,liana
ANNE_01129,ANNE,25700,SAO BENTO DO SUL,SANTA CATARINA,SC,Brazil,,Dense Ombrophilous Forest,-26.35,-49.2333,Municipality,Braco esquerdo,Angiosperms,Cyclanthaceae,Asplundia,brachypus,Asplundia brachypus,hemiepiphyte,,,,,2010,2010,Presence_only,588,1562,20.5,Ombrophilous Forest,YES,
FUME_00851,FUME,E0853,ITAMONTE,MATO GROSSO DO SUL,MS,Brazil,,Cloud Forest,-22.35813,-44.73767,20,"Parque Nacional do Itatiaia, Brejo da Lapa",Angiosperms,Bromeliaceae,Vriesea,itatiaiae,Vriesea itatiaiae,facultative,,,,,2017,2017,Presence_absence,2162,2267,13.8000001907349,Ombrophilous Forest,YES,
ANNE_03617,ANNE,17001,SAO BENTO DO SUL,SANTA CATARINA,SC,Brazil,,Dense Ombrophilous Forest,-26.35,-49.2333,Municipality,Braco esquerdo,Ferns,Polypodiaceae,Pecluma,recurvata,Pecluma recurvata,holoepiphyte,,,,,2009,2009,Presence_only,588,1562,20.5,Ombrophilous Forest,YES,
FUME_02266,FUME,E2280,LIMA DUARTE,MATO GROSSO DO SUL,MS,Brazil,,Cloud Forest,-21.70931,-43.89967,100,"Parque Estadual do Ibitipoca, Gruta das Bromelias",Ferns,Polypodiaceae,Campyloneurum,angustifolium,Campyloneurum angustifolium,holoepiphyte,,,,,2014,2014,Presence_absence,1576,1649,19.7000007629395,Seasonal Forest,YES,
NUNE_01230,NUNE,SFO,ANGRA DOS REIS,RIO DE JANEIRO,RJ,Brazil,,Secondary Forest,-23.133333,-44.275,Central point in study site,Sitio Forte,Angiosperms,Bromeliaceae,Tillandsia,stricta,Tillandsia stricta,facultative,,,,,2001,2004,Abundance,67,1535,25.2999992370605,Ombrophilous Forest,YES,
MENE2_25576,MENE2,E32341,PRAIA GRANDE,SANTA CATARINA,SC,Brazil,,,-29.205,-50.074444,Coordinates given in the herbarium record,Trilha do Rio do Boi,Angiosperms,Bromeliaceae,Vriesea,platynema,Vriesea platynema,facultative,,,,,,,Presence_only,513,1643,21.7999992370605,Savanna,YES,
MENE2_25688,MENE2,E32443,ITACARE,BAHIA,BA,Brazil,,,-14.2775,-38.9967,Coordinates given in the herbarium record,"Ramal a esq. na estrada Ubaitaba/Itacare, a 4Km do Loteamento da Marambaia.",Angiosperms,Bromeliaceae,Vriesea,platynema,Vriesea platynema,facultative,,,,,,,Presence_only,1,2301,25.8999996185303,,YES,
MENE2_33295,MENE2,E9721,ARARANGUA,SANTA CATARINA,SC,Brazil,,,-28.890278,-49.320833,Coordinates given in the herbarium record,,Angiosperms,Orchidaceae,Gomesa,recurva,Gomesa recurva,holoepiphyte,,,,,,,Presence_only,,1325,23.7000007629395,Other,YES,
ANNE_02090,ANNE,27803,JOINVILLE,SANTA CATARINA,SC,Brazil,,Dense Ombrophilous Forest,-26.1,-49.05,Municipality,Cubatao,Ferns,Dryopteridaceae,Elaphoglossum,squamipes,Elaphoglossum squamipes,holoepiphyte,,,,,2010,2010,Presence_only,910,1699,18.7999992370605,Ombrophilous Forest,YES,
KERB_09222,KERB,E9222,LAPA,PARANA,PR,Brazil,ABUNDANCE,Secondary Forest,-25.578059,-49.912969,Forest fragment,Castelhanos,Ferns,Polypodiaceae,Pecluma,sicca,Pecluma sicca,holoepiphyte,Euphorbiaceae,Gymnanthes,klotzschiana,Gymnanthes klotzschiana,2002,2006,Abundance,830,1369,21.5,Other,YES,
MENE2_19339,MENE2,E26671,BOM JARDIM,RIO DE JANEIRO,RJ,Brazil,,,-22.1655,-42.3125,Coordinates given in the herbarium record,Parque Estadual Tres Picos .,Angiosperms,Orchidaceae,Cattleya,cernua,Cattleya cernua,holoepiphyte,,,,,,,Presence_only,627,1524,23.2999992370605,Seasonal Forest,YES,
MENE2_03702,MENE2,E12456,MUCUGE,BAHIA,BA,Brazil,,,-13.0053,-41.3708,Coordinates given in the herbarium record,"Parque Municipal de Mucuge, no topo do Morro Fervido.",Angiosperms,Orchidaceae,Rhetinantha,notylioglossa,Rhetinantha notylioglossa,holoepiphyte,,,,,,,Presence_only,854,932,21.2999992370605,Other,YES,
ANNE_04468,ANNE,14704,PRAIA GRANDE,SANTA CATARINA,SC,Brazil,,Dense Ombrophilous Forest,-29.1667,-50.0167,Municipality,Sol Nascente,Ferns,Polypodiaceae,Pleopeltis,hirsutissima,Pleopeltis hirsutissima,holoepiphyte,,,,,2009,2009,Presence_only,898,1817,20,Savanna,YES,
CBOE_00187,CBOE,Tree32,SAO FRANCISCO DE PAULA,RIO GRANDE DO SUL,RS,Brazil,FO2,Mixed Ombrophilous Forest,-29.408905,-50.38645,Central point in study site,Floresta Nacional de Sao Francisco de Paula.,Angiosperms,Piperaceae,Peperomia,trineura,Peperomia trineura,holoepiphyte,Lauraceae,Cryptocarya,aschersoniana,Cryptocarya aschersoniana,2007,2007,Abundance,917,2088,19.6000003814697,Savanna,YES,
GOSI_01035,GOSI,E1575,ITATIAIA,RIO DE JANEIRO,RJ,Brazil,,Secondary Forest,-22.496,-44.563,Municipality,,Angiosperms,Bromeliaceae,Vriesea,penduliflora,Vriesea penduliflora,holoepiphyte,,,,,2014,2017,Presence_only,407,1501,24.6000003814697,Seasonal Forest,YES,
MENE2_05961,MENE2,E1451,SANTA CRUZ CABRALIA,BAHIA,BA,Brazil,,,-16.283333,-39.06,Coordinates given in the herbarium record,"Ca. 3,5Km na estrada que liga Sta. Cruz/Cabralia/ESPAB -CEPLAC-. Loteamento proximo ao Bairro Geraldao.",Angiosperms,Bromeliaceae,Aechmea,lamarchei,Aechmea lamarchei,holoepiphyte,,,,,,,Presence_only,7,1589,25.7000007629395,Ombrophilous Forest,YES,
MENE2_16150,MENE2,E23772,IPIRANGA,PARANA,PR,Brazil,,,-25.02,-50.58,Coordinates given in the herbarium record,Serra do Mar,Angiosperms,Orchidaceae,Anathallis,ypirangae,Anathallis ypirangae,holoepiphyte,,,,,,,Presence_only,870,1517,21.8999996185303,Ombrophilous Forest,YES,
MENE2_23232,MENE2,E30210,BLUMENAU,SANTA CATARINA,SC,Brazil,,,-26.9194,-49.0661,Coordinates given in the herbarium record,Parque Nacional da Serra do Itajai.,Angiosperms,Orchidaceae,Trichosalpinx,montana,Trichosalpinx montana,holoepiphyte,,,,,,,Presence_only,116,1540,24.7000007629395,Ombrophilous Forest,YES,
KERB_10112,KERB,E10112,MORRETES,PARANA,PR,Brazil,ABUNDANCE,Dense Ombrophilous Forest,-25.447705,-48.929986,Forest fragment,Morro Facaozinho,Angiosperms,Bromeliaceae,Vriesea,platynema,Vriesea platynema,facultative,,,,,2000,2001,Presence_only,1175,1714,22.2000007629395,Ombrophilous Forest,YES,
MENE2_13443,MENE2,E21311,JAGUARIAIVA,PARANA,PR,Brazil,,,-24.25,-49.71,Coordinates given in the herbarium record,,Angiosperms,Orchidaceae,Acianthera,hystrix,Acianthera hystrix,holoepiphyte,,,,,,,Presence_only,824,1347,22.2000007629395,Savanna,YES,
FUME_06262,FUME,E6282,SANTA RITA DE IBITIPOCA,MATO GROSSO DO SUL,MS,Brazil,,Cloud Forest,-21.67837,-43.88229,100,"Parque Estadual do Ibitipoca, Gruta dos Tres Arcos",Angiosperms,Orchidaceae,Stelis,papaquerensis,Stelis papaquerensis,holoepiphyte,Elaeocarpaceae,Sloanea,guianensis,Sloanea guianensis,,,Presence_absence,1714,1772,18,Seasonal Forest,YES,
NUNE_02280,NUNE,AD457,GUAPIMIRIM,RIO DE JANEIRO,RJ,Brazil,16B15,Secondary Forest,-22.47444444,-42.99972222,Study site,Vale do Garrafao,Ferns,Polypodiaceae,Microgramma,squamulosa,Microgramma squamulosa,holoepiphyte,,,,,2007,2008,Abundance,689,1730,22.7000007629395,Ombrophilous Forest,YES,
BREI_00219,BREI,E219,SETE BARRAS,SAO PAULO,SP,Brazil,T.B. BREIER 1087,Primary Forest,-24.168333,-47.936111,5000,Parque Estadual Carlos Botelho,Angiosperms,Bromeliaceae,Vriesea,ensiformis,Vriesea ensiformis,holoepiphyte,,,,,2002,2005,Presence_only,489,1511,22.7000007629395,Ombrophilous Forest,YES,
MENE2_22505,MENE2,E2955,SANTA TERESA,ESPIRITO SANTO,ES,Brazil,,,-19.9075,-40.553056,Coordinates given in the herbarium record,Reserva Biologica Augusto Ruschi - Nova Lombardia,Angiosperms,Araceae,Anthurium,longifolium,Anthurium longifolium,holoepiphyte,,,,,,,Presence_only,702,1316,22.7999992370605,Ombrophilous Forest,YES,
MENE2_06945,MENE2,E15404,CABACEIRAS DO PARAGUACU,BAHIA,BA,Brazil,,,-12.533333,-39.083333,Coordinates given in the herbarium record,,Angiosperms,Orchidaceae,Trichocentrum,cebolleta,Trichocentrum cebolleta,not possible to confirm,,,,,,,Presence_only,107,1069,25.5,,YES,
MENE2_26557,MENE2,E33233,RIBEIRAO GRANDE,SAO PAULO,SP,Brazil,,,-24.0992,-48.3653,Coordinates given in the herbarium record,Bairro do Carioca,Angiosperms,Bromeliaceae,Wittrockia,cyathiformis,Wittrockia cyathiformis,holoepiphyte,,,,,,,Presence_only,860,1280,22.5,Other,YES,
NUNE_02683,NUNE,AD860,CACHOEIRAS DE MACACU,RIO DE JANEIRO,RJ,Brazil,C800P5A1,Secondary Forest,-22.385,-42.74583333,5,Reserva Ecologica de Guapiacu -Trilha Vermelha-,Angiosperms,Araceae,Philodendron,propinquum,Philodendron propinquum,hemiepiphyte,,,,,2012,2016,Presence_only,814,1526,22.5,Ombrophilous Forest,YES,507
MENE2_21441,MENE2,E28582,CONSELHEIRO PENA,MATO GROSSO DO SUL,MS,Brazil,,,-19.1722,-41.4722,Coordinates given in the herbarium record,Vale do Rio Doce,Angiosperms,Bromeliaceae,Tillandsia,recurvata,Tillandsia recurvata,facultative,,,,,,,Presence_only,175,1124,27.2999992370605,Seasonal Forest,YES,
SARA_00019,SARA,E0019,CAMACAN,BAHIA,BA,Brazil,16,Dense Ombrophilous Forest,-15.391667,-39.565278,Study site,RPPN Serra Bonita,Ferns,Aspleniaceae,Asplenium,angustum,Asplenium angustum,holoepiphyte,,,,,2010,2010,Abundance,152,1105,22.2000007629395,Ombrophilous Forest,YES,
FUME_02528,FUME,E2546,LIMA DUARTE,MATO GROSSO DO SUL,MS,Brazil,,Cloud Forest,-21.70188,-43.88374,100,"Parque Estadual do Ibitipoca, Gruta do Monjolinho",Angiosperms,Bromeliaceae,Tillandsia,gardneri,Tillandsia gardneri,facultative,Asteraceae,Eremanthus,erythropappus,Eremanthus erythropappus,2014,2014,Presence_absence,1576,1692,19.1000003814697,Seasonal Forest,YES,
MENE2_13008,MENE2,E20916,PARATY,RIO DE JANEIRO,RJ,Brazil,,,-23.3430555,-44.71,Coordinates given in the herbarium record,Estrada do Patrimonio para Praia de Trindade.,Angiosperms,Araceae,Philodendron,propinquum,Philodendron propinquum,hemiepiphyte,,,,,,,Presence_only,,,,,YES,
NUNE_03042,NUNE,AD1219,TERESOPOLIS,RIO DE JANEIRO,RJ,Brazil,C1600P5A2,Secondary Forest,-22.45083333,-43.01333333,20,Parque Nacional da Serra dos Orgaos -Trilha Pedra do Sino-,Ferns,Polypodiaceae,Campyloneurum,nitidum,Campyloneurum nitidum,facultative,,,,,2012,2016,Presence_only,1801,1806,17.2999992370605,Ombrophilous Forest,YES,507
FRAL_00651,FRAL,E0651,JUIZ DE FORA,MATO GROSSO DO SUL,MS,Brazil,,Urban Green Area,-21.76083,-43.35027,100,Parque Halfeld,Angiosperms,Bromeliaceae,Tillandsia,recurvata,Tillandsia recurvata,facultative,,,,,2015,2016,Presence_only,686,1504,23.2999992370605,Seasonal Forest,YES,
MENE2_19328,MENE2,E26661,CARRANCAS,MATO GROSSO DO SUL,MS,Brazil,,,-21.4875,-44.6425,Coordinates given in the herbarium record,Cachoeira da Zilda,Angiosperms,Orchidaceae,Cattleya,cernua,Cattleya cernua,holoepiphyte,,,,,,,Presence_only,1206,1580,21.2999992370605,Savanna,YES,
KAES_00375,KAES,E0375,MAR DE ESPANHA,MATO GROSSO DO SUL,MS,Brazil,1,Urban Green Area,-21.8666,-43.01059,100,Praca Barao de Ayuruoca,Angiosperms,Bromeliaceae,Tillandsia,recurvata,Tillandsia recurvata,facultative,,,,,2017,2018,Presence_only,596,1486,23.7999992370605,Seasonal Forest,YES,
SARA_00572,SARA,E0572,CAMACAN,BAHIA,BA,Brazil,16,Dense Ombrophilous Forest,-15.391667,-39.565278,Study site,RPPN Serra Bonita,Ferns,Hymenophyllaceae,Trichomanes,polypodioides,Trichomanes polypodioides,holoepiphyte,,,,,2010,2010,Abundance,152,1105,22.2000007629395,Ombrophilous Forest,YES,
FUME_00336,FUME,E0336,ARAPONGA,MATO GROSSO DO SUL,MS,Brazil,,Cloud Forest,-20.72175,-42.48216,20,"Parque Estadual Serra do Brigadeiro, Pico do Grama",Angiosperms,Orchidaceae,Gomesa,recurva,Gomesa recurva,holoepiphyte,,,,,2017,2017,Presence_absence,1524,1515,18.7999992370605,Seasonal Forest,YES,
MENE2_15373,MENE2,E23066,SAO PAULO,SAO PAULO,SP,Brazil,,,-23.5475,-46.6361,Coordinates given in the herbarium record,Bosque da Saude,Angiosperms,Orchidaceae,Pabstiella,quadridentata,Pabstiella quadridentata,holoepiphyte,,,,,,,Presence_only,634,1341,21.6000003814697,Savanna,YES,
MENE2_33468,MENE2,E9894,IGRAPIUNA,BAHIA,BA,Brazil,,,-13.820833,-39.203889,Coordinates given in the herbarium record,Michelin.Vila 5,Angiosperms,Bromeliaceae,Guzmania,lingulata,Guzmania lingulata,holoepiphyte,,,,,,,Presence_only,105,1987,24.7000007629395,Ombrophilous Forest,YES,
NUNE_00484,NUNE,E0030,CACHOEIRAS DE MACACU,RIO DE JANEIRO,RJ,Brazil,,Pasture,-22.432617,-42.752183,10,Guapiacu,Angiosperms,Bromeliaceae,Neoregelia,concentrica,Neoregelia concentrica,holoepiphyte,Meliaceae,Guarea,guidonia,Guarea guidonia,2017,2018,Abundance,154,1361,26.2000007629395,Ombrophilous Forest,YES,
KERB_01979,KERB,E1979,ANTONINA,PARANA,PR,Brazil,ABUNDANCE,Secondary Forest,-25.378213,-48.800209,Forest fragment,RPPN Morro da mina,Angiosperms,Bromeliaceae,Edmundoa,lindenii,Edmundoa lindenii,holoepiphyte,,,,,2006,2009,Presence_only,79,2008,26.1000003814697,Ombrophilous Forest,YES,
MENE2_24061,MENE2,E30964,RIO DE JANEIRO,RIO DE JANEIRO,RJ,Brazil,,,-22.9028,-43.2075,Coordinates given in the herbarium record,"Alto da Boa Vista, propriedade do Sr. Frans Iken.",Angiosperms,Bromeliaceae,Vriesea,corcovadensis,Vriesea corcovadensis,holoepiphyte,,,,,,,Presence_only,14,1257,26.2000007629395,Ombrophilous Forest,YES,
ANNE_05107,ANNE,23066,FLORIANOPOLIS,SANTA CATARINA,SC,Brazil,,Dense Ombrophilous Forest,-27.7167,-48.5333,Municipality,Parque Municipal da Lagoa do Peri,Angiosperms,Cactaceae,Rhipsalis,pachyptera,Rhipsalis pachyptera,holoepiphyte,,,,,2010,2010,Presence_only,63,1514,23.2000007629395,Ombrophilous Forest,YES,
ANNE_02648,ANNE,28867,SAO BENTO DO SUL,SANTA CATARINA,SC,Brazil,,Dense Ombrophilous Forest,-26.35,-49.2333,Municipality,Braco esquerdo,Ferns,Hymenophyllaceae,Hymenophyllum,hirsutum,Hymenophyllum hirsutum,holoepiphyte,,,,,2010,2010,Presence_only,588,1562,20.5,Ombrophilous Forest,YES,
ANNE_01339,ANNE,21269,IMARUI,SANTA CATARINA,SC,Brazil,,Dense Ombrophilous Forest,-28.15,-48.8667,Municipality,Forquilinha,Ferns,Blechnaceae,Lomaridium,acutum,Lomaridium acutum,hemiepiphyte,,,,,2010,2010,Presence_only,608,1590,21.7000007629395,Ombrophilous Forest,YES,
KERB_03705,KERB,E3705,SAO JOAQUIM,SANTA CATARINA,SC,Brazil,ABUNDANCE,,-28.482429,-49.832046,Study site,Rio Pelotas,Ferns,Polypodiaceae,Microgramma,squamulosa,Microgramma squamulosa,holoepiphyte,,,,,2014,2014,Abundance,1132,1635,19.7999992370605,Ombrophilous Forest,YES,
FEMA_00402,FEMA,E402,PETROPOLIS,RIO DE JANEIRO,RJ,Brazil,3,Primary Forest,-22.505,-43.178889,Municipality,,Ferns,Polypodiaceae,Campyloneurum,herbaceum,Campyloneurum herbaceum,holoepiphyte,,,,,2017,2017,Presence_only,895,1902,21.7999992370605,Ombrophilous Forest,YES,"The specimens examined for this study were compiled from the following herbaria: MBM, MO, NY, P, and UPCB Goes 141 -RB-"
PTEO_00398,PTEO,E0398,GRAO PARA,SANTA CATARINA,SC,Brazil,,Secondary Forest,-28.188787,-49.389457,5,Parque Estadual da Serra Furada,Ferns,Polypodiaceae,Pleopeltis,pleopeltifolia,Pleopeltis pleopeltifolia,holoepiphyte,,,,,2011,2012,Presence_absence,399,1518,22.3999996185303,Ombrophilous Forest,YES,
KERB_08704,KERB,E8704,GUARAPUAVA,PARANA,PR,Brazil,ABUNDANCE,Flooded Forest,-25.521863,-51.416667,Forest fragment,Rio Sao Jeronimo,Angiosperms,Orchidaceae,Acianthera,sonderiana,Acianthera sonderiana,holoepiphyte,Podocarpaceae,Podocarpus,lambertii,Podocarpus lambertii,2003,2003,Abundance,984,1735,19.7000007629395,Savanna,YES,
KERB_11906,KERB,E11906,PARANAGUA,PARANA,PR,Brazil,ABUNDANCE,Low Restinga Forest,-25.521936,-48.316041,Forest fragment,Low height restinga forest,Angiosperms,Orchidaceae,Stelis,fraterna,Stelis fraterna,holoepiphyte,Clusiaceae,Clusia,criuva,Clusia criuva,1997,1999,Presence_only,,,,Ombrophilous Forest,YES,
FUME_06859,FUME,E6879,BAEPENDI,MATO GROSSO DO SUL,MS,Brazil,,Mixed Ombrophilous Forest,-22.142,-44.7328,2000,Parque Estadual da Serra do Papagaio,Ferns,Polypodiaceae,Serpocaulon,catharinae,Serpocaulon catharinae,holoepiphyte,Podocarpaceae,Podocarpus,lambertii,Podocarpus lambertii,2012,2013,Presence_absence,1798,1890,17.1000003814697,Other,YES,
MENE2_05652,MENE2,E14229,RIBEIRAO GRANDE,SAO PAULO,SP,Brazil,,,-24.283333,-48.35,Coordinates given in the herbarium record,Parque Estadual de Intervales,Angiosperms,Gesneriaceae,Nematanthus,tessmannii,Nematanthus tessmannii,holoepiphyte,,,,,,,Presence_only,915,1418,21.1000003814697,Other,YES,
CEBA_00700,CEBA,,CANDELARIA,MISIONES,N,Argentina,VAN DE VENNE S.N6,Forest,-27.06666,-55.06666,,Bonpland,Angiosperms,Orchidaceae,Campylocentrum,grisebachii,Campylocentrum grisebachii,holoepiphyte,,,,,,,Presence_only,213,1553,25.2000007629395,,YES,En el bosque
MENE2_16317,MENE2,E23924,MORRETES,PARANA,PR,Brazil,,,-25.4769,-48.8344,Coordinates given in the herbarium record,,Angiosperms,Orchidaceae,Promenaea,rollissonii,Promenaea rollissonii,holoepiphyte,,,,,,,Presence_only,143,1974,25.8999996185303,Ombrophilous Forest,YES,
KERB_00553,KERB,E0553,ANTONINA,PARANA,PR,Brazil,ABUNDANCE,Secondary Forest,-25.378213,-48.800209,Forest fragment,RPPN Morro da mina,Angiosperms,Orchidaceae,Epidendrum,latilabrum,Epidendrum latilabrum,holoepiphyte,,,,,2006,2009,Presence_only,79,2008,26.1000003814697,Ombrophilous Forest,YES,
ANNE_00910,ANNE,30550,FLORIANOPOLIS,SANTA CATARINA,SC,Brazil,,Dense Ombrophilous Forest,-27.4667,-48.4167,Municipality,Vargem Grande,Ferns,Aspleniaceae,Asplenium,mucronatum,Asplenium mucronatum,holoepiphyte,,,,,2010,2010,Presence_only,11,1521,24.3999996185303,Ombrophilous Forest,YES,
MENE2_00460,MENE2,E0460,RIO DE CONTAS,BAHIA,BA,Brazil,,,-13.533333,-41.766667,Coordinates given in the herbarium record,"9-11Km ao N da cidade, na estrada para o povoado de Mato Grosso.",Angiosperms,Bromeliaceae,Aechmea,bromeliifolia,Aechmea bromeliifolia,holoepiphyte,,,,,,,Presence_only,569,741,23.1000003814697,Seasonal Forest,YES,
MENE_00433,MENE,E0441,JUIZ DE FORA,MATO GROSSO DO SUL,MS,Brazil,,Urban Green Area,-21.7467,-43.3606,100,Museu Mariano Procopio,Ferns,Polypodiaceae,Pleopeltis,astrolepis,Pleopeltis astrolepis,holoepiphyte,Strelitziaceae,Ravenala,madagascariensis,Ravenala madagascariensis,2015,2016,Presence_only,686,1503,23.6000003814697,Seasonal Forest,YES,
MENE2_18110,MENE2,E25554,ELDORADO,SAO PAULO,SP,Brazil,,,-24.630556,-48.403611,Coordinates given in the herbarium record,"Parque Estadual de Jacupiranga, Nucleo da Caverna do Diabo.  do alojamento e da Caverna do Diabo.",Angiosperms,Cactaceae,Rhipsalis,pilocarpa,Rhipsalis pilocarpa,holoepiphyte,,,,,,,Presence_only,521,1524,24,Ombrophilous Forest,YES,
KERB_04818,KERB,E4818,CONTENDA,PARANA,PR,Brazil,ABUNDANCE,Secondary Forest,-25.604126,-49.570547,Forest fragment,General Lucio,Angiosperms,Piperaceae,Peperomia,catharinae,Peperomia catharinae,holoepiphyte,,,,,2002,2006,Abundance,872,1323,21,Ombrophilous Forest,YES,
MENE_01190,MENE,E1204,JUIZ DE FORA,MATO GROSSO DO SUL,MS,Brazil,,Urban Green Area,-21.7467,-43.3606,100,Museu Mariano Procopio,Angiosperms,Bromeliaceae,Tillandsia,tricholepis,Tillandsia tricholepis,holoepiphyte,Myrtaceae,Syzygium,jambos,Syzygium jambos,2015,2016,Presence_only,686,1503,23.6000003814697,Seasonal Forest,YES,
KERB_07654,KERB,E7654,FAZENDA RIO GRANDE,PARANA,PR,Brazil,ABUNDANCE,Mixed Ombrophilous Forest,-25.666271,-49.269229,Forest fragment,Fazenda Experimental Gralha Azul 2,Angiosperms,Piperaceae,Peperomia,trineura,Peperomia trineura,holoepiphyte,,,,,2015,2017,Abundance,910,1294,20.5,Ombrophilous Forest,YES,
MENE2_13100,MENE2,E2100,RIO DAS OSTRAS,RIO DE JANEIRO,RJ,Brazil,,,-22.5269,-41.945,Coordinates given in the herbarium record,area proxima ao Lago da Fazenda Margarita.,Angiosperms,Bromeliaceae,Aechmea,patentissima,Aechmea patentissima,holoepiphyte,,,,,,,Presence_only,,,,,YES,
FUME_01023,FUME,E1029,ITAMONTE,MATO GROSSO DO SUL,MS,Brazil,,Cloud Forest,-22.36364,-44.74142,20,"Parque Nacional do Itatiaia, Casa de Pedra",Angiosperms,Orchidaceae,Cattleya,mantiqueirae,Cattleya mantiqueirae,holoepiphyte,,,,,2017,2017,Presence_absence,2162,2220,14.1999998092651,Ombrophilous Forest,YES,
MENE2_09696,MENE2,E17905,BOCAINA DE MINAS,MATO GROSSO DO SUL,MS,Brazil,,,-22.25,-44.5666667,Coordinates given in the herbarium record,"Taquaral, encosta a direita -descendo- do rio Campo Belo.",Angiosperms,Piperaceae,Peperomia,glazioui,Peperomia glazioui,holoepiphyte,,,,,,,Presence_only,1554,1930,16.6000003814697,Ombrophilous Forest,YES,
ANNE_03932,ANNE,23880,MIRIM DOCE,SANTA CATARINA,SC,Brazil,,Dense Ombrophilous Forest,-27.1667,-50.1167,Municipality,,Angiosperms,Piperaceae,Peperomia,glazioui,Peperomia glazioui,holoepiphyte,,,,,2010,2010,Presence_only,610,1518,22.1000003814697,Ombrophilous Forest,YES,
MENE2_14579,MENE2,E22344,CACHOEIRAS DE MACACU,RIO DE JANEIRO,RJ,Brazil,,,-22.4625,-42.6531,Coordinates given in the herbarium record,Reserva Ecologica de Guapiacu. UTM Corrego Alegre.,Angiosperms,Orchidaceae,Pabstiella,fusca,Pabstiella fusca,holoepiphyte,,,,,,,Presence_only,179,1307,26,Ombrophilous Forest,YES,
MENE2_19484,MENE2,E26803,RIO POMBA,MATO GROSSO DO SUL,MS,Brazil,,,-21.2747,-43.1792,Coordinates given in the herbarium record,Fazenda de Bocaiu,Angiosperms,Orchidaceae,Stelis,aprica,Stelis aprica,holoepiphyte,,,,,,,Presence_only,529,1385,25.2999992370605,Seasonal Forest,YES,
MENE2_22435,MENE2,E29486,SANTA CRUZ DO SUL,RIO GRANDE DO SUL,RS,Brazil,,,-29.691983,-52.436367,Coordinates given in the herbarium record,Trombudo,Angiosperms,Bromeliaceae,Tillandsia,tenuifolia,Tillandsia tenuifolia,facultative,,,,,,,Presence_only,149,1309,25.1000003814697,Seasonal Forest,YES,
CBOE_00761,CBOE,Tree228,SAO FRANCISCO DE PAULA,RIO GRANDE DO SUL,RS,Brazil,PP1,Pinus Plantation,-29.440487,-50.375758,Central point in study site,Floresta Nacional de Sao Francisco de Paula.,Angiosperms,Bromeliaceae,Tillandsia,aeranthos,Tillandsia aeranthos,holoepiphyte,Pinaceae,Pinus,sp.,Pinus sp.,2007,2007,Abundance,917,2043,19.8999996185303,Savanna,YES,
KESS_00750,KESS,E0750,SANTA MARIA MADALENA,RIO DE JANEIRO,RJ,Brazil,,Forest Fragment,-21.955,-42.0078,Municipality,,Angiosperms,Bromeliaceae,Vriesea,gradata,Vriesea gradata,holoepiphyte,,,,,,,Presence_only,634,1432,22.5,Ombrophilous Forest,YES,
KERB_02244,KERB,E2244,BOM JESUS,RIO GRANDE DO SUL,RS,Brazil,ABUNDANCE,,-28.464002,-50.157705,Forest fragment,Rio Pelotas,Angiosperms,Bromeliaceae,Aechmea,recurvata,Aechmea recurvata,holoepiphyte,,,,,2014,2014,Abundance,996,1605,20.6000003814697,Savanna,YES,
JABOT_04715,JABOT,6848,TERESOPOLIS,RIO DE JANEIRO,RJ,Brazil,,,-22.41,-42.96,Municipality,,Ferns,Polypodiaceae,Moranopteris,achilleifolia,Moranopteris achilleifolia,holoepiphyte,,,,,1918,1918,Presence_only,911,1702,21.8999996185303,Ombrophilous Forest,YES,
MENE2_09419,MENE2,E17653,PRAIA GRANDE,SANTA CATARINA,SC,Brazil,,,-29.205,-50.074444,Coordinates given in the herbarium record,Trilha do Rio do Boi,Angiosperms,Piperaceae,Peperomia,glabella,Peperomia glabella,holoepiphyte,,,,,,,Presence_only,513,1643,21.7999992370605,Savanna,YES,
JABOT_02461,JABOT,146741,CASIMIRO DE ABREU,RIO DE JANEIRO,RJ,Brazil,,,-22.48,-42.2,Municipality,,Angiosperms,Orchidaceae,Epidendrum,secundum,Epidendrum secundum,holoepiphyte,,,,,1970,1970,Presence_only,110,1117,25.7999992370605,Ombrophilous Forest,YES,
SARA_00130,SARA,E0130,CAMACAN,BAHIA,BA,Brazil,11,Dense Ombrophilous Forest,-15.391667,-39.565278,Study site,RPPN Serra Bonita,Ferns,Polypodiaceae,Campyloneurum,crispum,Campyloneurum crispum,holoepiphyte,,,,,2010,2010,Abundance,152,1105,22.2000007629395,Ombrophilous Forest,YES,
SARA_00514,SARA,E0514,CAMACAN,BAHIA,BA,Brazil,28,Dense Ombrophilous Forest,-15.391667,-39.565278,Study site,RPPN Serra Bonita,Ferns,Hymenophyllaceae,Polyphlebium,diaphanum,Polyphlebium diaphanum,holoepiphyte,,,,,2010,2010,Abundance,152,1105,22.2000007629395,Ombrophilous Forest,YES,
CBUZ_00137,CBUZ,E0137,VITORIA DA CONQUISTA,BAHIA,BA,Brazil,1,,-14.85003,-40.830015,Municipality,,Angiosperms,Orchidaceae,Capanemia,micromera,Capanemia micromera,holoepiphyte,,,,,2007,2017,Presence_only,956,718,21.3999996185303,Seasonal Forest,YES,
MENE2_06556,MENE2,E15050,DESCANSO,SANTA CATARINA,SC,Brazil,,,-26.8261,-53.5017,Coordinates given in the herbarium record,,Angiosperms,Bromeliaceae,Nidularium,procerum,Nidularium procerum,holoepiphyte,,,,,,,Presence_only,606,1917,23.5,Seasonal Forest,YES,
NUNE_02463,NUNE,AD640,CACHOEIRAS DE MACACU,RIO DE JANEIRO,RJ,Brazil,C200P8A3,Secondary Forest,-22.40805556,-42.7375,5,Reserva Ecologica de Guapiacu -inicio Trilha Verde/cinza-,Ferns,Polypodiaceae,Pleopeltis,pleopeltifolia,Pleopeltis pleopeltifolia,holoepiphyte,,,,,2012,2016,Presence_only,226,1518,24.5,Ombrophilous Forest,YES,507
ANNE_00743,ANNE,20161,JOINVILLE,SANTA CATARINA,SC,Brazil,,Dense Ombrophilous Forest,-26.2667,-49.1333,Municipality,Rio Manso,Angiosperms,Araceae,Anthurium,sellowianum,Anthurium sellowianum,holoepiphyte,,,,,2010,2010,Presence_only,564,1593,20.8999996185303,Other,YES,
KERB_07826,KERB,E7826,FAZENDA RIO GRANDE,PARANA,PR,Brazil,ABUNDANCE,Mixed Ombrophilous Forest,-25.666271,-49.269229,Forest fragment,Fazenda Experimental Gralha Azul 2,Angiosperms,Bromeliaceae,Vriesea,platynema,Vriesea platynema,facultative,,,,,2015,2017,Abundance,910,1294,20.5,Ombrophilous Forest,YES,
SIQU_00079,SIQU,S089,SOORETAMA,ESPIRITO SANTO,ES,Brazil,,Mucununga,-19.18495,-40.069308,Study site,Reserva Natural Vale,Angiosperms,Orchidaceae,Stelis,intermedia,Stelis intermedia,holoepiphyte,,,,,2006,2006,Presence_only,48,1205,26.3999996185303,Ombrophilous Forest,YES,
MENE2_02398,MENE2,E11270,ITARARE,SAO PAULO,SP,Brazil,,,-24.1125,-49.3317,Coordinates given in the herbarium record,Estrada itarare - Bom Sucesso de Itarare. Fazenda Ibiti -Ripasa-.,Angiosperms,Cactaceae,Lepismium,houlletianum,Lepismium houlletianum,holoepiphyte,,,,,,,Presence_only,774,1309,22.5,Savanna,YES,
MENE2_32266,MENE2,E8692,ANGRA DOS REIS,RIO DE JANEIRO,RJ,Brazil,,,-23.1666667,-44.2833333,Coordinates given in the herbarium record,"Mun. Angra dos Reis, Ilha Grande, Vila Dois Rios, mata da Jaca. Em cultivo no Orquidario do JB n 4487. Flores esverdeadas em Julho 2011.",Angiosperms,Orchidaceae,Epidendrum,nutans,Epidendrum nutans,holoepiphyte,,,,,,,Presence_only,241,1685,26.7999992370605,,YES,
ANNE_03571,ANNE,25740,JOINVILLE,SANTA CATARINA,SC,Brazil,,Dense Ombrophilous Forest,-26.1833,-49.0333,Municipality,Serra Dona Francisca,Angiosperms,Araliaceae,Oreopanax,capitatus,Oreopanax capitatus,hemiepiphyte,,,,,2010,2010,Presence_only,897,1646,20.7999992370605,Ombrophilous Forest,YES,
MENE2_07755,MENE2,E16140,MORRETES,PARANA,PR,Brazil,,,-25.4769,-48.8344,Coordinates given in the herbarium record,,Angiosperms,Orchidaceae,Gomesa,paranensoides,Gomesa paranensoides,holoepiphyte,,,,,,,Presence_only,143,1974,25.8999996185303,Ombrophilous Forest,YES,
MENE2_29616,MENE2,E6042,TELEMACO BORBA,PARANA,PR,Brazil,,,-24.35,-50.583333,Coordinates given in the herbarium record,Area de alagamento da UHE Maua,Angiosperms,Orchidaceae,Capanemia,superflua,Capanemia superflua,holoepiphyte,,,,,,,Presence_only,683,1366,22.1000003814697,Other,YES,
MENE2_32758,MENE2,E9184,MIMOSO DO SUL,ESPIRITO SANTO,ES,Brazil,,,-21.0642,-41.3664,Coordinates given in the herbarium record,Pedra dos Pontoes,Angiosperms,Orchidaceae,Epidendrum,tridactylum,Epidendrum tridactylum,holoepiphyte,,,,,,,Presence_only,227,1054,26.6000003814697,Seasonal Forest,YES,
MENE2_28834,MENE2,E5260,SANTO AMARO DA IMPERATRIZ,SANTA CATARINA,SC,Brazil,,,-27.734722,-48.696111,Coordinates given in the herbarium record,Morro do Cambirela,Angiosperms,Orchidaceae,Bulbophyllum,napellii,Bulbophyllum napellii,holoepiphyte,,,,,,,Presence_only,601,1584,22.8999996185303,Ombrophilous Forest,YES,
FEMA_00275,FEMA,E275,BLUMENAU,SANTA CATARINA,SC,Brazil,3,,-27.056668,-49.087778,Study site,Parque Nacional da Serra do Itajai - Area Virgem,Ferns,Polypodiaceae,Campyloneurum,atlanticum,Campyloneurum atlanticum,not possible to confirm,,,,,2017,2017,Presence_only,522,1644,23.2000007629395,Ombrophilous Forest,YES,"The specimens examined for this study were compiled from the following herbaria: MBM, MO, NY, P, and UPCB Sevegnani s.n. -FURB-"
MENE2_28747,MENE2,E5173,CAMPO LARGO,PARANA,PR,Brazil,,,-25.45,-49.666667,Coordinates given in the herbarium record,,Angiosperms,Orchidaceae,Bulbophyllum,granulosum,Bulbophyllum granulosum,holoepiphyte,,,,,,,Presence_only,931,1498,20.6000003814697,Savanna,YES,
KERB_06231,KERB,E6231,CAMPINA GRANDE DO SUL,PARANA,PR,Brazil,ABUNDANCE,,-25.240888,-48.830907,Forest fragment,Morro Caratuva,Ferns,Polypodiaceae,Leucotrichum,organense,Leucotrichum organense,holoepiphyte,,,,,2009,2011,Abundance,1714,1907,16.7999992370605,Ombrophilous Forest,YES,
KERC_00044,KERC,E0044,TORRES,RIO GRANDE DO SUL,RS,Brazil,,Subtropical Restinga,-29.342087,-49.68663,Forest fragment,Torres,Angiosperms,Orchidaceae,Campylocentrum,aromaticum,Campylocentrum aromaticum,holoepiphyte,,,,,1992,1992,Presence_only,,,,,NO,
GOSI_00232,GOSI,E1912,LINHARES,ESPIRITO SANTO,ES,Brazil,,Secondary Forest,-19.391,-40.072,Municipality,,Angiosperms,Bromeliaceae,Vriesea,procera,Vriesea procera,facultative,,,,,2014,2017,Presence_only,19,1202,26.7999992370605,Ombrophilous Forest,YES,
JABOT_04718,JABOT,43412,TERESOPOLIS,RIO DE JANEIRO,RJ,Brazil,,,-22.41,-42.96,Municipality,,Angiosperms,Onagraceae,Fuchsia,regia,Fuchsia regia,holoepiphyte,,,,,1940,1940,Presence_only,911,1702,21.8999996185303,Ombrophilous Forest,YES,
MENE2_08383,MENE2,E16711,ARAPONGA,MATO GROSSO DO SUL,MS,Brazil,,,-20.716667,-42.483333,Coordinates given in the herbarium record,"Serra da Araponga. Fazenda Neblina, cascata da trilha triste.",Angiosperms,Piperaceae,Peperomia,alata,Peperomia alata,holoepiphyte,,,,,,,Presence_only,1524,1515,18.7999992370605,Seasonal Forest,YES,
FRAN_00484,FRAN,E0487,MIMOSO DO SUL,ESPIRITO SANTO,ES,Brazil,1,Inselberg,-20.938706,-41.544262,Study site,Pontoes de Mimoso do Sul: afloramento do Toti,Angiosperms,Bromeliaceae,Tillandsia,recurvata,Tillandsia recurvata,facultative,Myrtaceae,Eugenia,longipedunculata,Eugenia longipedunculata,2015,2015,Abundance,634,1317,21.7999992370605,Seasonal Forest,YES,
MENE2_02683,MENE2,E1153,URUCUCA,BAHIA,BA,Brazil,,,-14.5931,-39.2844,Coordinates given in the herbarium record,,Angiosperms,Bromeliaceae,Aechmea,froesii,Aechmea froesii,holoepiphyte,,,,,,,Presence_only,85,1585,25.3999996185303,Ombrophilous Forest,YES,
MENE2_18030,MENE2,E25481,MANGARATIBA,RIO DE JANEIRO,RJ,Brazil,,,-23.0636111,-43.9669445,Coordinates given in the herbarium record,"Marambaia, Campo de Tiro do Exercito, estrada da orla maritima da  de Marambaia.",Angiosperms,Cactaceae,Rhipsalis,pachyptera,Rhipsalis pachyptera,holoepiphyte,,,,,,,Presence_only,133,1383,25.1000003814697,Ombrophilous Forest,YES,
FRAL_00575,FRAL,E0575,JUIZ DE FORA,MATO GROSSO DO SUL,MS,Brazil,,Urban Green Area,-21.76083,-43.35027,100,Parque Halfeld,Angiosperms,Bromeliaceae,Tillandsia,recurvata,Tillandsia recurvata,facultative,Oleaceae,Ligustrum,lucidum,Ligustrum lucidum,2015,2016,Presence_only,686,1504,23.2999992370605,Seasonal Forest,YES,
MENE2_15814,MENE2,E23467,SANTA TERESA,ESPIRITO SANTO,ES,Brazil,,,-19.931111,-40.620556,Coordinates given in the herbarium record,Sao Lourenco,Angiosperms,Orchidaceae,Anathallis,sclerophylla,Anathallis sclerophylla,holoepiphyte,,,,,,,Presence_only,801,1296,23.2000007629395,Ombrophilous Forest,YES,
JABOT_01858,JABOT,593993,ITAMONTE,MATO GROSSO DO SUL,MS,Brazil,,,-22.37389,-44.75194,Coordinates given in the herbarium record,,Ferns,Aspleniaceae,Asplenium,serra,Asplenium serra,facultative,,,,,2014,2014,Presence_only,1902,1971,16.2000007629395,Ombrophilous Forest,YES,
GOSI_00878,GOSI,E1956,PATY DO ALFERES,RIO DE JANEIRO,RJ,Brazil,,Secondary Forest,-22.429,-43.419,Municipality,,Angiosperms,Bromeliaceae,Vriesea,psittacina,Vriesea psittacina,holoepiphyte,,,,,2014,2017,Presence_only,831,1637,23.2000007629395,Ombrophilous Forest,YES,
MENE_01344,MENE,E1361,JUIZ DE FORA,MATO GROSSO DO SUL,MS,Brazil,,Urban Green Area,-21.7925,-43.3669,100,Parque Natural Municipal da Lajinha,Ferns,Polypodiaceae,Pleopeltis,astrolepis,Pleopeltis astrolepis,holoepiphyte,Anacardiaceae,Mangifera,indica,Mangifera indica,2015,2016,Presence_only,774,1503,22.7000007629395,Seasonal Forest,YES,
FUME_05218,FUME,E5237,LIMA DUARTE,MATO GROSSO DO SUL,MS,Brazil,,Cloud Forest,-21.7086,-43.87404,100,"Parque Estadual do Ibitipoca, Gruta dos Viajantes",Ferns,Polypodiaceae,Serpocaulon,catharinae,Serpocaulon catharinae,holoepiphyte,Nyctaginaceae,Guapira,opposita,Guapira opposita,2014,2014,Presence_absence,1301,1667,19.5,Seasonal Forest,YES,
MENE2_22048,MENE2,E29134,TUBARAO,SANTA CATARINA,SC,Brazil,,,-28.464444,-49.007222,Coordinates given in the herbarium record,,Angiosperms,Bromeliaceae,Tillandsia,stricta,Tillandsia stricta,facultative,,,,,,,Presence_only,91,1413,24.3999996185303,Ombrophilous Forest,YES,
FRAL_01284,FRAL,E1284,JUIZ DE FORA,MATO GROSSO DO SUL,MS,Brazil,,Urban Green Area,-21.7769,-43.34305,100,Praca Garrastazu Medici,Angiosperms,Bromeliaceae,Tillandsia,recurvata,Tillandsia recurvata,facultative,Lythraceae,Lagerstroemia,indica,Lagerstroemia indica,2015,2016,Presence_only,692,1498,23.2999992370605,Seasonal Forest,YES,
JABOT_03887,JABOT,505105,PRAIA GRANDE,SAO PAULO,SP,Brazil,,,-24,-46.4,Municipality,,Angiosperms,Cactaceae,Rhipsalis,teres,Rhipsalis teres,holoepiphyte,,,,,2010,2010,Presence_only,24,2590,25.1000003814697,Ombrophilous Forest,YES,
PERE_01326,PERE,FD00835,RIBEIRAO GRANDE,SAO PAULO,SP,Brazil,,Forest Interior,-24.266802,-48.396496,10,PE Intervales,Angiosperms,Moraceae,Ficus,luschnathiana,Ficus luschnathiana,hemiepiphyte,,,,,2007,2011,Presence_only,941,1399,21.2000007629395,Other,YES,amostragem assistematica habito terricola:NA
GUAR_00162,GUAR,E0162,CANANEIA,SAO PAULO,SP,Brazil,,Forest,-25.092639,-47.926389,Study site,PE Ilha do Cardoso,Angiosperms,Cactaceae,Rhipsalis,teres,Rhipsalis teres,holoepiphyte,,,,,2006,2008,Presence_only,19,2490,26.5,Ombrophilous Forest,YES,Johannson zones: Johansson D R -1974- Ecology of vascular epiphytes in West African rain forest. Acta Phytogeog Suecica 59:1-136.
KERB_02588,KERB,E2588,SAO JOSE DOS AUSENTES,RIO GRANDE DO SUL,RS,Brazil,ABUNDANCE,,-28.47165,-49.981568,Forest fragment,Rio Pelotas,Angiosperms,Orchidaceae,Capanemia,micromera,Capanemia micromera,holoepiphyte,,,,,2014,2014,Abundance,1094,1662,19.2999992370605,Ombrophilous Forest,YES,
MENE2_09001,MENE2,E17273,PETROPOLIS,RIO DE JANEIRO,RJ,Brazil,,,-22.3656,-43.1242,Coordinates given in the herbarium record,Itaipava,Angiosperms,Piperaceae,Peperomia,corcovadensis,Peperomia corcovadensis,holoepiphyte,,,,,,,Presence_only,861,1734,22.5,Ombrophilous Forest,YES,
KERA_00463,KERA,E0463,CURITIBA,PARANA,PR,Brazil,,Mixed Ombrophilous Forest,-25.397537,-49.249458,Forest fragment,Bosque do Boa Vista,Angiosperms,Bromeliaceae,Aechmea,distichantha,Aechmea distichantha,holoepiphyte,,,,,2001,2002,Presence_only,914,1442,20.8999996185303,Ombrophilous Forest,YES,
KERB_00203,KERB,E0203,ANTONINA,PARANA,PR,Brazil,ABUNDANCE,Secondary Forest,-25.378213,-48.800209,Forest fragment,RPPN Morro da mina,Ferns,Polypodiaceae,Pleopeltis,pleopeltifolia,Pleopeltis pleopeltifolia,holoepiphyte,,,,,2006,2009,Presence_only,79,2008,26.1000003814697,Ombrophilous Forest,YES,
KERB_04771,KERB,E4771,CONTENDA,PARANA,PR,Brazil,ABUNDANCE,Secondary Forest,-25.604126,-49.570547,Forest fragment,General Lucio,Angiosperms,Cactaceae,Lepismium,lumbricoides,Lepismium lumbricoides,holoepiphyte,,,,,2002,2006,Abundance,872,1323,21,Ombrophilous Forest,YES,
MENE2_16865,MENE2,E24422,SAO MIGUEL ARCANJO,SAO PAULO,SP,Brazil,,,-23.8783,-47.9972,Coordinates given in the herbarium record,,Angiosperms,Bromeliaceae,Quesnelia,humilis,Quesnelia humilis,holoepiphyte,,,,,,,Presence_only,713,1196,21.8999996185303,Other,YES,
SIQU_00362,SIQU,S311,SOORETAMA,ESPIRITO SANTO,ES,Brazil,,Mucununga,-19.18495,-40.069308,Study site,Reserva Natural Vale,Angiosperms,Orchidaceae,Ponera,striata,Ponera striata,holoepiphyte,,,,,2006,2006,Presence_only,48,1205,26.3999996185303,Ombrophilous Forest,YES,
MESI_00079,MESI,E0079,MAMANGUAPE,PARAIBA,PB,Brazil,1,Forest,-6.742,-35.1419,Forest fragment,Reserva Biologica Guaribas,Mosses,Hypnaceae,Isopterygium,tenerum,Isopterygium tenerum,facultative,,,,,2009,2009,Presence_only,153,1261,26,Seasonal Forest,YES,
MENE2_10865,MENE2,E18968,IBIRATAIA,BAHIA,BA,Brazil,,,-14.0669,-39.6406,Coordinates given in the herbarium record,"Fazenda Rancho Alegre. Ca. 4 km na estrada da BR 101 para Ibirataia, ca. 2 km ramal adentro. Regiao da mata Higrofila Sul Baiana.",Angiosperms,Piperaceae,Peperomia,serpens,Peperomia serpens,holoepiphyte,,,,,,,Presence_only,244,1269,24.8999996185303,Ombrophilous Forest,YES,
MENE2_06258,MENE2,E1478,CARUARU,PERNAMBUCO,PE,Brazil,,,-8.395277778,-35.9925,Coordinates given in the herbarium record,"Agreste Pernambucano, entre os Municipios de Caruaru e Agrstina, Serra da Quiteria, Sitio Flecheira",Angiosperms,Bromeliaceae,Aechmea,leptantha,Aechmea leptantha,holoepiphyte,,,,,,,Presence_only,520,621,23.2999992370605,Other,NO,
NUNE_03063,NUNE,AD1240,TERESOPOLIS,RIO DE JANEIRO,RJ,Brazil,C1600P7A4,Secondary Forest,-22.45083333,-43.01333333,20,Parque Nacional da Serra dos Orgaos -Trilha Pedra do Sino-,Angiosperms,Piperaceae,Peperomia,catharinae,Peperomia catharinae,holoepiphyte,,,,,2012,2016,Presence_only,1801,1806,17.2999992370605,Ombrophilous Forest,YES,507
KERB_01778,KERB,E1778,QUITANDINHA,PARANA,PR,Brazil,ABUNDANCE,Secondary Forest,-25.835085,-49.419007,Forest fragment,Fragment,Angiosperms,Orchidaceae,Leptotes,unicolor,Leptotes unicolor,holoepiphyte,,,,,2004,2004,Presence_only,914,1310,20.5,Ombrophilous Forest,YES,
KERB_09115,KERB,E9115,LAPA,PARANA,PR,Brazil,ABUNDANCE,Secondary Forest,-25.578059,-49.912969,Forest fragment,Castelhanos,Angiosperms,Cactaceae,Lepismium,houlletianum,Lepismium houlletianum,holoepiphyte,Euphorbiaceae,Gymnanthes,klotzschiana,Gymnanthes klotzschiana,2002,2006,Abundance,830,1369,21.5,Other,YES,
MENE2_01881,MENE2,E10800,PORTO ALEGRE,RIO GRANDE DO SUL,RS,Brazil,,,-30.019167,-51.2375,Coordinates given in the herbarium record,,Angiosperms,Orchidaceae,Isochilus,linearis,Isochilus linearis,holoepiphyte,,,,,,,Presence_only,1,1393,24.7999992370605,,YES,
MENE2_20074,MENE2,E2734,VIDAL RAMOS,SANTA CATARINA,SC,Brazil,,,-27.360556,-49.410556,Coordinates given in the herbarium record,Aguas Frias,Angiosperms,Araceae,Anthurium,gaudichaudianum,Anthurium gaudichaudianum,holoepiphyte,,,,,,,Presence_only,735,1618,20.3999996185303,Ombrophilous Forest,YES,
ANNE_04322,ANNE,17927,PRAIA GRANDE,SANTA CATARINA,SC,Brazil,,Dense Ombrophilous Forest,-29.1667,-50.0167,Municipality,Canudos,Angiosperms,Araceae,Philodendron,propinquum,Philodendron propinquum,hemiepiphyte,,,,,2009,2009,Presence_only,898,1817,20,Savanna,YES,
KERB_05858,KERB,E5858,BALSA NOVA,PARANA,PR,Brazil,ABUNDANCE,Secondary Forest,-25.553261,-49.808853,Forest fragment,Ponte dos Arcos,Ferns,Polypodiaceae,Microgramma,squamulosa,Microgramma squamulosa,holoepiphyte,,,,,2002,2006,Abundance,882,1364,21.2000007629395,Other,YES,
PERB_00943,PERB,E1033,NOVA FRIBURGO,RIO DE JANEIRO,RJ,Brazil,,,-22.28190041,-42.53110123,20,Reserva Ecologica Municipal de Macae de Cima. Sitio Sophronites.,Angiosperms,Gesneriaceae,Nematanthus,crassifolius,Nematanthus crassifolius,holoepiphyte,,,,,1989,1989,Presence_only,922,1372,21.7999992370605,Ombrophilous Forest,YES,Example
KERB_01305,KERB,E1305,PIRAQUARA,PARANA,PR,Brazil,ABUNDANCE,Mixed Ombrophilous Forest,-25.528984,-49.012214,Forest fragment,Haras Santo Antonio,Ferns,Polypodiaceae,Alansmia,reclinata,Alansmia reclinata,holoepiphyte,Myrtaceae,Myrcia,splendens,Myrcia splendens,2002,2006,Abundance,1015,1701,20.3999996185303,Ombrophilous Forest,YES,
NEVS_00034,NEVS,34,CARAA,RIO GRANDE DO SUL,RS,Brazil,,Secondary Forest,-29.706944,-50.291056,Forest fragment,Nascente do Rio dos Sinos,Angiosperms,Bromeliaceae,Vriesea,incurvata,Vriesea incurvata,holoepiphyte,,,,,,,Presence_only,570,1885,20.2000007629395,Ombrophilous Forest,YES,
KERB_06910,KERB,E6910,FAZENDA RIO GRANDE,PARANA,PR,Brazil,ABUNDANCE,Mixed Ombrophilous Forest,-25.661593,-49.277089,Forest fragment,Fazenda Experimental Gralha Azul,Angiosperms,Piperaceae,Peperomia,tetraphylla,Peperomia tetraphylla,holoepiphyte,,,,,2008,2015,Abundance,910,1304,20.3999996185303,Ombrophilous Forest,YES,
KERB_07399,KERB,E7399,FAZENDA RIO GRANDE,PARANA,PR,Brazil,ABUNDANCE,Mixed Ombrophilous Forest,-25.666271,-49.269229,Forest fragment,Fazenda Experimental Gralha Azul 2,Ferns,Polypodiaceae,Campyloneurum,nitidum,Campyloneurum nitidum,facultative,,,,,2015,2017,Abundance,910,1294,20.5,Ombrophilous Forest,YES,
MARQ_00358,MARQ,E0006,TERRA DE AREIA,RIO GRANDE DO SUL,RS,Brazil,6,Restinga,-29.626037,-50.017987,Municipality,,Angiosperms,Orchidaceae,Barbosella,dusenii,Barbosella dusenii,holoepiphyte,,,,,1998,1999,Abundance,31,1475,23.2000007629395,Ombrophilous Forest,YES,
FOUN_00409,FOUN,409,URUCUCA,BAHIA,BA,Brazil,7,Dense Ombrophilous Forest,-14.495,-39.135,Plot,Sede-Parque Estadual da Serra do Conduru,Angiosperms,Bromeliaceae,Vriesea,duvaliana,Vriesea duvaliana,holoepiphyte,,,,,2011,2012,Abundance,292,1813,24.7999992370605,Ombrophilous Forest,YES,
NUNE_00391,NUNE,EA62,CACHOEIRAS DE MACACU,RIO DE JANEIRO,RJ,Brazil,,Secondary Forest,-22.43358861,-42.76686917,10,Guapiacu,Angiosperms,Bromeliaceae,Quesnelia,quesneliana,Quesnelia quesneliana,holoepiphyte,Meliaceae,Guarea,guidonia,Guarea guidonia,2017,2017,Abundance,151,1368,26.1000003814697,Ombrophilous Forest,YES,
MENE2_26833,MENE2,E33484,JEQUIE,BAHIA,BA,Brazil,,,-13.944722,-40.109444,Coordinates given in the herbarium record,"Fazenda Brejo Novo, a 10,5 Km da Av. otavio Mangabeira pela Exuperio Miranda no bairro Mandacaru.",Angiosperms,Orchidaceae,Zygostates,cornuta,Zygostates cornuta,holoepiphyte,,,,,,,Presence_only,551,860,22.7999992370605,Seasonal Forest,YES,
MENE2_05384,MENE2,E13985,UBATUBA,SAO PAULO,SP,Brazil,,,-23.42,-45.1275,Coordinates given in the herbarium record,Estrada Sao Luis-Paraitinga,Angiosperms,Gesneriaceae,Nematanthus,gregarius,Nematanthus gregarius,holoepiphyte,,,,,,,Presence_only,145,2575,25.3999996185303,Ombrophilous Forest,YES,
MENE2_04675,MENE2,E13340,CASIMIRO DE ABREU,RIO DE JANEIRO,RJ,Brazil,,,-22.5,-42.25,Coordinates given in the herbarium record,Area da parcela 9.,Angiosperms,Araceae,Monstera,adansonii,Monstera adansonii,hemiepiphyte,,,,,,,Presence_only,69,1114,25.8999996185303,Ombrophilous Forest,YES,
CROS_00239,CROS,x384,ITIRAPINA,SAO PAULO,SP,Brazil,12,Urban Area,-22.249008,-47.824131,10,Estacao Ecologica e Experimental de Itirapina,Angiosperms,Bromeliaceae,Tillandsia,tricholepis,Tillandsia tricholepis,holoepiphyte,Celastraceae,Maytenus,aquifolia,Maytenus aquifolia,2017,2017,Abundance,890,1372,22.1000003814697,Savanna,YES,The plots were circular with the tree hosting most epiphytes on the axis
KERB_11613,KERB,E11613,PARANAGUA,PARANA,PR,Brazil,ABUNDANCE,Low Restinga Forest,-25.521936,-48.316041,Forest fragment,Low height restinga forest,Angiosperms,Orchidaceae,Epidendrum,latilabrum,Epidendrum latilabrum,holoepiphyte,Fabaceae,Andira,fraxinifolia,Andira fraxinifolia,1997,1999,Presence_only,,,,Ombrophilous Forest,YES,
GOSI_02071,GOSI,E0651,SIDEROPOLIS,SANTA CATARINA,SC,Brazil,,Secondary Forest,-28.598,-49.424,Municipality,,Angiosperms,Bromeliaceae,Vriesea,flammea,Vriesea flammea,facultative,,,,,2014,2017,Presence_only,155,1392,23.7000007629395,Ombrophilous Forest,YES,
ANNE_02799,ANNE,16548,ANTONIO CARLOS,SANTA CATARINA,SC,Brazil,,Dense Ombrophilous Forest,-27.45,-48.8667,Municipality,RPPN Caraguata,Ferns,Polypodiaceae,Leucotrichum,schenckii,Leucotrichum schenckii,holoepiphyte,,,,,2009,2009,Presence_only,598,1690,21.2000007629395,Ombrophilous Forest,YES,
KERB_10608,KERB,E10608,PARANAGUA,PARANA,PR,Brazil,ABUNDANCE,Dense Ombrophilous Forest,-25.509754,-48.336076,Study site,Estacao Ecologica da Ilha do Mel,Angiosperms,Gesneriaceae,Codonanthe,gracilis,Codonanthe gracilis,holoepiphyte,,,,,1990,2002,Presence_only,1,2184,25.2000007629395,,YES,
MENE2_14891,MENE2,E22628,PIRAI DO SUL,PARANA,PR,Brazil,,,-24.5261,-49.9486,Coordinates given in the herbarium record,,Angiosperms,Orchidaceae,Specklinia,marginalis,Specklinia marginalis,holoepiphyte,,,,,,,Presence_only,1136,1470,21.1000003814697,Ombrophilous Forest,YES,
MENE2_18603,MENE2,E26002,MOGI GUACU,SAO PAULO,SP,Brazil,,,-22.2583,-47.1667,Coordinates given in the herbarium record,"Bairro Martinho Prado, Fazenda Campininha",Angiosperms,Orchidaceae,Rodriguezia,decora,Rodriguezia decora,holoepiphyte,,,,,,,Presence_only,617,1297,22.7999992370605,Other,YES,
BREI_00088,BREI,E088,SETE BARRAS,SAO PAULO,SP,Brazil,T.B. BREIER 0593,Primary Forest,-24.168333,-47.936111,5000,Parque Estadual Carlos Botelho,Ferns,Aspleniaceae,Asplenium,mucronatum,Asplenium mucronatum,holoepiphyte,,,,,2002,2005,Presence_only,489,1511,22.7000007629395,Ombrophilous Forest,YES,
MANI_00155,MANI,E0155,SETE BARRAS,SAO PAULO,SP,Brazil,1,Dense Ombrophilous Forest,-24.133333,-47.966667,Forest fragment,Parque Estadual Carlos Botelho,Ferns,Hymenophyllaceae,Polyphlebium,angustatum,Polyphlebium angustatum,holoepiphyte,,,,,2010,2011,Presence_only,711,1429,21.7000007629395,Ombrophilous Forest,YES,
ANNE_01567,ANNE,21853,SCHROEDER,SANTA CATARINA,SC,Brazil,,Dense Ombrophilous Forest,-26.3667,-49.0333,Municipality,Rancho Bom,Ferns,Polypodiaceae,Campyloneurum,atlanticum,Campyloneurum atlanticum,not possible to confirm,,,,,2010,2010,Presence_only,264,1635,23.5,Ombrophilous Forest,YES,
FRAN_00779,FRAN,E0782,MIMOSO DO SUL,ESPIRITO SANTO,ES,Brazil,1,Primary Forest,-20.936667,-41.553333,Forest fragment,Pedra dos Pontoes:primeira mata nebular,Angiosperms,Araceae,Anthurium,scandens,Anthurium scandens,holoepiphyte,Nyctaginaceae,Guapira,opposita,Guapira opposita,2016,2016,Abundance,634,1391,20.3999996185303,Seasonal Forest,YES,
FUME_06530,FUME,E6550,BAEPENDI,MATO GROSSO DO SUL,MS,Brazil,,Cloud Forest,-22.1225,-44.7443,500,"Parque Estadual da Serra do Papagaio, Chapadao",Angiosperms,Piperaceae,Peperomia,mandioccana,Peperomia mandioccana,holoepiphyte,,,,,2012,2013,Presence_absence,1849,2026,16,Other,YES,
MENE2_12475,MENE2,E20431,SANTA TERESA,ESPIRITO SANTO,ES,Brazil,,,-19.935,-40.555833,Coordinates given in the herbarium record,"Penha, Sitio do R. Pizziolo",Angiosperms,Araceae,Philodendron,hatschbachii,Philodendron hatschbachii,hemiepiphyte,,,,,,,Presence_only,690,1296,23.2000007629395,Ombrophilous Forest,YES,
PERB_01221,PERB,E1364,IGUAPE,SAO PAULO,SP,Brazil,,,-24.4428,-47.3224,Municipality,,Angiosperms,Gesneriaceae,Codonanthe,gracilis,Codonanthe gracilis,holoepiphyte,,,,,2009,2009,Presence_only,95,1821,25.6000003814697,Ombrophilous Forest,YES,Example
MENE2_10949,MENE2,E19044,IUNA,ESPIRITO SANTO,ES,Brazil,,,-20.419167,-41.507833,Coordinates given in the herbarium record,"Parque Nacional do Caparao, Borda de curso dagua na estrada a direita de quem vai para o Vale Verde.",Angiosperms,Piperaceae,Peperomia,tenella,Peperomia tenella,holoepiphyte,,,,,,,Presence_only,821,1268,23,Ombrophilous Forest,YES,
ANNE_01952,ANNE,20293,PRESIDENTE GETULIO,SANTA CATARINA,SC,Brazil,,Ecotone between Mixed Ombrophilous and Dense Ombrophilous Forest,-27.0833,-49.5833,Municipality,Fazenda Mirador,Angiosperms,Orchidaceae,Dryadella,edwallii,Dryadella edwallii,holoepiphyte,,,,,2010,2010,Presence_only,397,1549,22.2999992370605,Ombrophilous Forest,YES,
ANNE_01680,ANNE,30506,JOINVILLE,SANTA CATARINA,SC,Brazil,,Dense Ombrophilous Forest,-26.2667,-49.05,Municipality,Barragem do 8 Salto - Serra do Pirai,Ferns,Polypodiaceae,Campyloneurum,nitidum,Campyloneurum nitidum,facultative,,,,,2010,2010,Presence_only,537,1644,20.6000003814697,Ombrophilous Forest,YES,
ANNE_01100,ANNE,31488,AGUAS MORNAS,SANTA CATARINA,SC,Brazil,,Dense Ombrophilous Forest,-27.7167,-48.95,Municipality,Rio Miguel,Ferns,Aspleniaceae,Asplenium,scandicinum,Asplenium scandicinum,holoepiphyte,,,,,2010,2010,Presence_only,456,1637,21.7999992370605,Ombrophilous Forest,YES,
MENE2_23570,MENE2,E30518,BELMONTE,BAHIA,BA,Brazil,,,-15.8631,-38.8828,Coordinates given in the herbarium record,26Km S cidade.,Angiosperms,Orchidaceae,Vanilla,palmarum,Vanilla palmarum,hemiepiphyte,,,,,,,Presence_only,1,1588,25.6000003814697,,YES,
FUME_04623,FUME,E4642,LIMA DUARTE,MATO GROSSO DO SUL,MS,Brazil,,Cloud Forest,-21.70193,-43.87246,100,"Parque Estadual do Ibitipoca, Gruta do Piao",Ferns,Polypodiaceae,Serpocaulon,catharinae,Serpocaulon catharinae,holoepiphyte,,,,,2014,2014,Presence_absence,1301,1770,18,Seasonal Forest,YES,
MENE2_29588,MENE2,E6014,SAO PAULO,SAO PAULO,SP,Brazil,,,-23.65,-46.7,Coordinates given in the herbarium record,Santo Amaro,Angiosperms,Orchidaceae,Capanemia,micromera,Capanemia micromera,holoepiphyte,,,,,,,Presence_only,665,1477,21.1000003814697,Ombrophilous Forest,YES,
MENE2_32367,MENE2,E8793,ABAIRA,BAHIA,BA,Brazil,,,-13.25,-41.916667,Coordinates given in the herbarium record,Abaira: mata do Cigano.,Angiosperms,Orchidaceae,Epidendrum,paranaense,Epidendrum paranaense,holoepiphyte,,,,,,,Presence_only,1093,990,17.7000007629395,Other,YES,
MENE2_27408,MENE2,E3834,CARATINGA,MATO GROSSO DO SUL,MS,Brazil,,,-19.79,-42.139167,Coordinates given in the herbarium record,Est. Biol. de Caratinga,Angiosperms,Orchidaceae,Aspasia,lunata,Aspasia lunata,holoepiphyte,,,,,,,Presence_only,912,1150,24.2000007629395,Seasonal Forest,YES,
MAZZ_00039,MAZZ,E0039,IPORANGA,SAO PAULO,SP,Brazil,,Dense Ombrophilous Forest,-24.504722,-48.66,Forest fragment,Parque Estadual Turistico do Alto Ribeira,Ferns,Hymenophyllaceae,Crepidomanes,pyxidiferum,Crepidomanes pyxidiferum,holoepiphyte,,,,,2011,2012,Presence_only,749,1402,22.3999996185303,Other,YES,
BREI_00092,BREI,E092,SETE BARRAS,SAO PAULO,SP,Brazil,T.B. BREIER 0795,Primary Forest,-24.168333,-47.936111,5000,Parque Estadual Carlos Botelho,Ferns,Aspleniaceae,Asplenium,pteropus,Asplenium pteropus,holoepiphyte,,,,,2002,2005,Presence_only,489,1511,22.7000007629395,Ombrophilous Forest,YES,
KERB_09090,KERB,E9090,LAPA,PARANA,PR,Brazil,ABUNDANCE,Secondary Forest,-25.578059,-49.912969,Forest fragment,Castelhanos,Angiosperms,Orchidaceae,Eurystyles,cotyledon,Eurystyles cotyledon,holoepiphyte,Euphorbiaceae,Gymnanthes,klotzschiana,Gymnanthes klotzschiana,2002,2006,Abundance,830,1369,21.5,Other,YES,
MENE2_31730,MENE2,E8156,MUCUGE,BAHIA,BA,Brazil,,,-13.2902777,-41.2922222,Coordinates given in the herbarium record,"13KM DE IBICOARA, PROX. CASCAVEL.",Angiosperms,Orchidaceae,Epidendrum,avicula,Epidendrum avicula,holoepiphyte,,,,,,,Presence_only,1104,1005,19.7999992370605,Other,YES,
FUME_07211,FUME,E7231,BAEPENDI,MATO GROSSO DO SUL,MS,Brazil,,Mixed Ombrophilous Forest,-22.142,-44.7328,2000,Parque Estadual da Serra do Papagaio,Angiosperms,Piperaceae,Peperomia,tetraphylla,Peperomia tetraphylla,holoepiphyte,Podocarpaceae,Podocarpus,lambertii,Podocarpus lambertii,2012,2013,Presence_absence,1798,1890,17.1000003814697,Other,YES,
JABOT_04237,JABOT,69760,RIO DE JANEIRO,RIO DE JANEIRO,RJ,Brazil,,,-22.9,-43.2,Municipality,,Angiosperms,Begoniaceae,Begonia,herbacea,Begonia herbacea,not possible to confirm,,,,,1932,1932,Presence_only,14,1249,26.2999992370605,Ombrophilous Forest,YES,
MENE2_20746,MENE2,E27950,FREI PAULO,SERGIPE,SE,Brazil,,,-10.5494,-37.5344,Coordinates given in the herbarium record,a margem da rodovia estadual Pov. Mocambo,Angiosperms,Bromeliaceae,Tillandsia,juncea,Tillandsia juncea,holoepiphyte,,,,,,,Presence_only,308,788,25,,YES,
PERB_01725,PERB,E1868,SANTO ANDRE,SAO PAULO,SP,Brazil,,,-23.783333,-46.316667,Study site,E.B. do Alto da Serra de Paranapiacaba,Angiosperms,Gesneriaceae,Nematanthus,bradei,Nematanthus bradei,holoepiphyte,,,,,1983,1983,Presence_only,606,2946,19.7999992370605,Ombrophilous Forest,YES,Example
KERB_03535,KERB,E3535,SAO JOAQUIM,SANTA CATARINA,SC,Brazil,ABUNDANCE,,-28.471217,-49.83173,Study site,Rio Pelotas,Angiosperms,Bromeliaceae,Tillandsia,usneoides,Tillandsia usneoides,holoepiphyte,,,,,2014,2014,Abundance,1132,1638,19.6000003814697,Ombrophilous Forest,YES,
NUNE_02669,NUNE,AD846,GUAPIMIRIM,RIO DE JANEIRO,RJ,Brazil,C800P3A2,Secondary Forest,-22.46694444,-42.99722222,5,Parque Nacional da Serra dos Orgaos -estrada acesso teresopolis-,Angiosperms,Piperaceae,Peperomia,catharinae,Peperomia catharinae,holoepiphyte,,,,,2012,2016,Presence_only,1079,1730,22.7000007629395,Ombrophilous Forest,YES,507
ANNE_02513,ANNE,15394,PRESIDENTE NEREU,SANTA CATARINA,SC,Brazil,,Dense Ombrophilous Forest,-27.1667,-49.2167,Municipality,Braco do Salao - Fazenda Sabia,Lycophytes,Lycopodiaceae,Phlegmariurus,heterocarpon,Phlegmariurus heterocarpon,holoepiphyte,,,,,2009,2009,Presence_only,622,1638,21.6000003814697,Ombrophilous Forest,YES,
MENE2_12759,MENE2,E2069,ANTONINA,PARANA,PR,Brazil,,,-25.4311,-48.7401,Coordinates given in the herbarium record,,Angiosperms,Bromeliaceae,Aechmea,ornata,Aechmea ornata,holoepiphyte,,,,,,,Presence_only,86,2085,25.7999992370605,Ombrophilous Forest,YES,
MENE2_13366,MENE2,E21241,ELDORADO,SAO PAULO,SP,Brazil,,,-24.646667,-48.392222,Coordinates given in the herbarium record,Parque Estadual de Jacupiranga-Proximo a Caverna do Diabo.,Angiosperms,Orchidaceae,Phymatidium,falcifolium,Phymatidium falcifolium,holoepiphyte,,,,,,,Presence_only,691,1538,23.7999992370605,Ombrophilous Forest,YES,
MENE2_23801,MENE2,E30728,TROMBUDO CENTRAL,SANTA CATARINA,SC,Brazil,,,-27.270278,-49.770833,Coordinates given in the herbarium record,,Angiosperms,Bromeliaceae,Vriesea,carinata,Vriesea carinata,holoepiphyte,,,,,,,Presence_only,597,1519,22.7999992370605,Ombrophilous Forest,YES,
KERB_06380,KERB,E6380,CAMPO LARGO,PARANA,PR,Brazil,ABUNDANCE,Secondary Forest,-25.453826,-49.635363,Forest fragment,Sao Luiz do Puruna,Angiosperms,Piperaceae,Peperomia,hispidula,Peperomia hispidula,facultative,,,,,2002,2006,Presence_only,917,1574,19.3999996185303,Savanna,YES,
PTEO_00362,PTEO,E0362,GRAO PARA,SANTA CATARINA,SC,Brazil,,Secondary Forest,-28.190964,-49.391176,5,Parque Estadual da Serra Furada,Ferns,Polypodiaceae,Pleopeltis,hirsutissima,Pleopeltis hirsutissima,holoepiphyte,,,,,2011,2012,Presence_absence,399,1518,22.3999996185303,Ombrophilous Forest,YES,
KERB_00394,KERB,E0394,ANTONINA,PARANA,PR,Brazil,ABUNDANCE,Secondary Forest,-25.378213,-48.800209,Forest fragment,RPPN Morro da mina,Angiosperms,Bromeliaceae,Aechmea,nudicaulis,Aechmea nudicaulis,holoepiphyte,,,,,2006,2009,Presence_only,79,2008,26.1000003814697,Ombrophilous Forest,YES,
ANNE_01351,ANNE,24268,TIJUCAS,SANTA CATARINA,SC,Brazil,,Dense Ombrophilous Forest,-27.35,-48.7667,Municipality,Amancio,Ferns,Blechnaceae,Lomaridium,acutum,Lomaridium acutum,hemiepiphyte,,,,,2010,2010,Presence_only,339,1669,22.3999996185303,Ombrophilous Forest,YES,
KERB_10356,KERB,E10356,MORRETES,PARANA,PR,Brazil,ABUNDANCE,Secondary Forest,-25.440958,-48.920598,Forest fragment,Vila dos Marumbinistas,Angiosperms,Bromeliaceae,Nidularium,procerum,Nidularium procerum,holoepiphyte,,,,,2008,2009,Presence_only,339,1807,24,Ombrophilous Forest,YES,
FUME_06459,FUME,E6479,BAEPENDI,MATO GROSSO DO SUL,MS,Brazil,,Cloud Forest,-22.1225,-44.7443,500,"Parque Estadual da Serra do Papagaio, Chapadao",Ferns,Polypodiaceae,Leucotrichum,organense,Leucotrichum organense,holoepiphyte,,,,,2012,2013,Presence_absence,1849,2026,16,Other,YES,
MENE2_14217,MENE2,E22015,CASTELO,ESPIRITO SANTO,ES,Brazil,,,-20.6036,-41.1847,Coordinates given in the herbarium record,,Angiosperms,Orchidaceae,Pabstiella,granulosa,Pabstiella granulosa,holoepiphyte,,,,,,,Presence_only,152,1100,27.1000003814697,Ombrophilous Forest,YES,
SARA_00144,SARA,E0144,CAMACAN,BAHIA,BA,Brazil,28,Dense Ombrophilous Forest,-15.391667,-39.565278,Study site,RPPN Serra Bonita,Ferns,Polypodiaceae,Campyloneurum,angustifolium,Campyloneurum angustifolium,holoepiphyte,,,,,2010,2010,Abundance,152,1105,22.2000007629395,Ombrophilous Forest,YES,
FRAN_00101,FRAN,E0104,MIMOSO DO SUL,ESPIRITO SANTO,ES,Brazil,1,Inselberg,-20.938611,-41.544167,Study site,Pontoes de Mimoso do Sul: afloramento do Toti,Angiosperms,Orchidaceae,Bulbophyllum,cantagallense,Bulbophyllum cantagallense,holoepiphyte,,,,,2015,2015,Abundance,634,1317,21.7999992370605,Seasonal Forest,YES,
ANNE_04713,ANNE,30358,JOSE BOITEUX,SANTA CATARINA,SC,Brazil,,Dense Ombrophilous Forest,-26.8167,-49.6667,Municipality,Rio Plate,Ferns,Polypodiaceae,Pleopeltis,pleopeltifolia,Pleopeltis pleopeltifolia,holoepiphyte,,,,,2010,2010,Presence_only,486,1505,22.2999992370605,Ombrophilous Forest,YES,
MENE2_25797,MENE2,E32542,AGUA DOCE DO NORTE,ESPIRITO SANTO,ES,Brazil,,,-18.566111,-40.985,Coordinates given in the herbarium record,Pedra da Torre.,Angiosperms,Bromeliaceae,Vriesea,procera,Vriesea procera,facultative,,,,,,,Presence_only,312,1102,26.2000007629395,Seasonal Forest,YES,
MENE2_15565,MENE2,E23240,BROTAS,SAO PAULO,SP,Brazil,,,-22.283333,-48.116667,Coordinates given in the herbarium record,,Angiosperms,Orchidaceae,Acianthera,bragae,Acianthera bragae,holoepiphyte,,,,,,,Presence_only,663,1338,22.6000003814697,Savanna,YES,
FRAL_01725,FRAL,E1725,JUIZ DE FORA,MATO GROSSO DO SUL,MS,Brazil,,Urban Green Area,-21.757778,-43.353056,50,Praca Menelick de Carvalho,Angiosperms,Bromeliaceae,Tillandsia,tricholepis,Tillandsia tricholepis,holoepiphyte,Magnoliacee,Magnolia,champaca,Magnolia champaca,2015,2016,Presence_only,686,1501,23.6000003814697,Seasonal Forest,YES,
FEMA_00788,FEMA,E788,TERESOPOLIS,RIO DE JANEIRO,RJ,Brazil,4,Primary Forest,-22.458611,-43.005,Coordinates given in the herbarium record,"Parque Nacional da Serra dos Orgaos, near plot 11",Ferns,Dryopteridaceae,Elaphoglossum,mollissimum,Elaphoglossum mollissimum,holoepiphyte,,,,,2014,2018,Presence_only,1079,1750,19.7999992370605,Ombrophilous Forest,YES,"The specimens examined for this study were compiled from the following herbaria: B, BHCB, BM, CEPEC, CESJ, F, FLOR, FURB, GH, HB, HBR, INPA, K, M, MBM, MBML, MO, NY, R, RB, P, PH, S, SP, SPF, UC, UPCB, and US Engelmann 229 -BHCB, RB, UPCB-"
FRAN_01100,FRAN,E1103,MIMOSO DO SUL,ESPIRITO SANTO,ES,Brazil,1,Primary Forest,-20.936667,-41.553333,Forest fragment,Pedra dos Pontoes:primeira mata nebular,Ferns,Polypodiaceae,Microgramma,squamulosa,Microgramma squamulosa,holoepiphyte,Nyctaginaceae,Guapira,opposita,Guapira opposita,2016,2016,Abundance,634,1391,20.3999996185303,Seasonal Forest,YES,
JABOT_02723,JABOT,358603,IGUAPE,SAO PAULO,SP,Brazil,,,-24.7,-47.55,Municipality,,Angiosperms,Bromeliaceae,Vriesea,carinata,Vriesea carinata,holoepiphyte,,,,,1988,1988,Presence_only,1,1769,25.2000007629395,Ombrophilous Forest,YES,
MENE2_15813,MENE2,E23466,SANTA TERESA,ESPIRITO SANTO,ES,Brazil,,,-19.925556,-40.635556,Coordinates given in the herbarium record,Country Club,Angiosperms,Orchidaceae,Anathallis,sclerophylla,Anathallis sclerophylla,holoepiphyte,,,,,,,Presence_only,822,1302,23,Ombrophilous Forest,YES,
NEVS_00070,NEVS,70,MORRETES,PARANA,PR,Brazil,,Secondary Forest,-25.352778,-48.887222,Study site,Estrada da Graciosa -Rodovia PR-410-,Angiosperms,Bromeliaceae,Vriesea,incurvata,Vriesea incurvata,holoepiphyte,,,,,,,Presence_only,218,1806,23.7999992370605,Ombrophilous Forest,YES,
JABOT_00124,JABOT,684198,CEU AZUL,PARANA,PR,Brazil,,,-25.24111,-53.85,Coordinates given in the herbarium record,,Angiosperms,Piperaceae,Peperomia,urocarpa,Peperomia urocarpa,holoepiphyte,,,,,2015,2015,Presence_only,498,1843,23,Seasonal Forest,YES,
NUNE_02744,NUNE,AD921,CACHOEIRAS DE MACACU,RIO DE JANEIRO,RJ,Brazil,C800P8A3,Secondary Forest,-22.385,-42.74583333,60,Reserva Ecologica de Guapiacu -Trilha Vermelha-,Angiosperms,Araceae,Monstera,adansonii,Monstera adansonii,hemiepiphyte,,,,,2012,2016,Presence_only,814,1526,22.5,Ombrophilous Forest,YES,507
FUME_05345,FUME,E5364,LIMA DUARTE,MATO GROSSO DO SUL,MS,Brazil,,Cloud Forest,-21.7086,-43.87404,100,"Parque Estadual do Ibitipoca, Gruta dos Viajantes",Ferns,Polypodiaceae,Moranopteris,achilleifolia,Moranopteris achilleifolia,holoepiphyte,,,,,2014,2014,Presence_absence,1301,1667,19.5,Seasonal Forest,YES,
PERE_01061,PERE,RP216-1-,RIBEIRAO PRETO,SAO PAULO,SP,Brazil,,Forest Edge,-21.33374397,-47.87432807,10,Fragmento entre o rio da onca e a EEMST,Angiosperms,Moraceae,Ficus,obtusifolia,Ficus obtusifolia,hemiepiphyte,,,,,2007,2011,Presence_only,610,1448,23.2999992370605,Other,YES,"habito hemiepifitico; amostragem assistematica em uma area de ~ 50.000 ha entre as coordenadas -47,983 dd -21,409 dd e -47,835 dd -21,161 dd. habito terricola:nao"
MARQ_00254,MARQ,E0004,ARROIO DO SAL,RIO GRANDE DO SUL,RS,Brazil,4,Sandy Coastal Forest,-29.489711,-49.844411,Forest fragment,Parque Natural Municipal Tupancy,Angiosperms,Bromeliaceae,Aechmea,nudicaulis,Aechmea nudicaulis,holoepiphyte,,,,,,,Abundance,,,,Other,YES,
MENE2_02742,MENE2,E11583,QUATRO BARRAS,PARANA,PR,Brazil,,,-25.3656,-49.0769,Coordinates given in the herbarium record,,Angiosperms,Orchidaceae,Loefgrenianthus,blanche-amesii,Loefgrenianthus blanche-amesii,holoepiphyte,,,,,,,Presence_only,908,1590,21,Ombrophilous Forest,YES,
CBOE_00087,CBOE,Tree14,SAO FRANCISCO DE PAULA,RIO GRANDE DO SUL,RS,Brazil,FO1,Mixed Ombrophilous Forest,-29.405985,-50.389234,Central point in study site,Floresta Nacional de Sao Francisco de Paula.,Ferns,Polypodiaceae,Microgramma,squamulosa,Microgramma squamulosa,holoepiphyte,Myrtaceae,Blepharocalyx,salicifolius,Blepharocalyx salicifolius,2007,2007,Abundance,917,2086,19.6000003814697,Savanna,YES,
MENE2_16151,MENE2,E23773,PIRAQUARA,PARANA,PR,Brazil,,,-25.4417,-49.0633,Coordinates given in the herbarium record,,Angiosperms,Orchidaceae,Anathallis,ypirangae,Anathallis ypirangae,holoepiphyte,,,,,,,Presence_only,913,1565,20.8999996185303,Ombrophilous Forest,YES,
KERB_02256,KERB,E2256,BOM JESUS,RIO GRANDE DO SUL,RS,Brazil,ABUNDANCE,,-28.464002,-50.157705,Forest fragment,Rio Pelotas,Angiosperms,Orchidaceae,Acianthera,langeana,Acianthera langeana,holoepiphyte,,,,,2014,2014,Abundance,996,1605,20.6000003814697,Savanna,YES,
NUNE_02433,NUNE,AD610,CACHOEIRAS DE MACACU,RIO DE JANEIRO,RJ,Brazil,C0P12A2,Secondary Forest,-22.49194444,-42.8644444,5,Poco do Anil,Angiosperms,Araceae,Monstera,adansonii,Monstera adansonii,hemiepiphyte,,,,,2012,2016,Presence_only,260,1423,26.1000003814697,Ombrophilous Forest,YES,507
MENE2_00228,MENE2,E0228,SALVADOR,BAHIA,BA,Brazil,,,-12.933333,-38.35,Coordinates given in the herbarium record,Arembepe. Condominio Laguna.,Angiosperms,Bromeliaceae,Aechmea,aquilega,Aechmea aquilega,holoepiphyte,,,,,,,Presence_only,2,1349,26.2999992370605,Ombrophilous Forest,YES,
MENE2_08546,MENE2,E1686,MARAU,BAHIA,BA,Brazil,,,-14.1031,-39.0147,Coordinates given in the herbarium record,"Rod BR-030, trecho Ubaitaba/Marau, a 45Km de Ubaitaba.",Angiosperms,Bromeliaceae,Aechmea,miniata,Aechmea miniata,holoepiphyte,,,,,,,Presence_only,3,2327,25.8999996185303,Ombrophilous Forest,YES,
PERE_01077,PERE,RP239,CRAVINHOS,SAO PAULO,SP,Brazil,,Forest Edge,-21.39585728,-47.85057687,10,fragmento proximo a fazenda canto da mata,Angiosperms,Moraceae,Ficus,citrifolia,Ficus citrifolia,hemiepiphyte,,,,,2007,2011,Presence_only,605,1430,23.5,Other,YES,"habito terricola; amostragem assistematica em uma area de ~ 50.000 ha entre as coordenadas -47,983 dd -21,409 dd e -47,835 dd -21,161 dd. habito terricola:sim"
MENE2_31135,MENE2,E7561,MURICI,ALAGOAS,AL,Brazil,,,-9.229722222,-35.88833333,Coordinates given in the herbarium record,Bananeiras.,Angiosperms,Gesneriaceae,Drymonia,coccinea,Drymonia coccinea,hemiepiphyte,,,,,,,Presence_only,377,1762,23.8999996185303,Ombrophilous Forest,YES,
BARB_00281,BARB,E0281,SANTANA DE CATAGUASES,MATO GROSSO DO SUL,MS,Brazil,,Montane Seasonal Semideciduous Forest,-21.2276,-42.5609,Forest fragment,Serra do Relogio,Ferns,Polypodiaceae,Cochlidium,serrulatum,Cochlidium serrulatum,holoepiphyte,,,,,2016,2018,Presence_only,461,1289,25.7999992370605,Seasonal Forest,YES,
KERB_04493,KERB,E4493,ARAUCARIA,PARANA,PR,Brazil,ABUNDANCE,Secondary Forest,-25.600388,-49.410176,Forest fragment,Araucaria,Angiosperms,Piperaceae,Peperomia,catharinae,Peperomia catharinae,holoepiphyte,,,,,2002,2006,Abundance,879,1292,21,Ombrophilous Forest,YES,
MENE2_07941,MENE2,E1631,MAMANGUAPE,PARAIBA,PB,Brazil,,,-6.838888889,-35.12583333,Coordinates given in the herbarium record,Cabeca de Boi. Sema II,Angiosperms,Bromeliaceae,Aechmea,mertensii,Aechmea mertensii,holoepiphyte,,,,,,,Presence_only,35,1278,26.7999992370605,Other,YES,
MENE2_08254,MENE2,E16594,XAMBRE,PARANA,PR,Brazil,,,-23.7361,-53.49,Coordinates given in the herbarium record,,Angiosperms,Piperaceae,Peperomia,alata,Peperomia alata,holoepiphyte,,,,,,,Presence_only,303,1430,24.2999992370605,Seasonal Forest,YES,
KERB_09489,KERB,E9489,LONDRINA,PARANA,PR,Brazil,ABUNDANCE,Secondary Forest,-23.445244,-51.244324,Forest fragment,PE Mata dos Godoy,Angiosperms,Bromeliaceae,Acanthostachys,strobilacea,Acanthostachys strobilacea,holoepiphyte,,,,,,,Presence_only,611,1501,23.5,Seasonal Forest,YES,
KERB_04955,KERB,E4955,ARAUCARIA,PARANA,PR,Brazil,ABUNDANCE,Secondary Forest,-25.598863,-49.519503,Forest fragment,Guajuvira,Angiosperms,Orchidaceae,Campylocentrum,grisebachii,Campylocentrum grisebachii,holoepiphyte,,,,,2002,2006,Abundance,884,1332,20.8999996185303,Ombrophilous Forest,YES,
ANNE_03050,ANNE,20022,PAULO LOPES,SANTA CATARINA,SC,Brazil,,Dense Ombrophilous Forest,-27.8667,-48.75,Municipality,Sertao do Campo,Ferns,Polypodiaceae,Microgramma,vacciniifolia,Microgramma vacciniifolia,holoepiphyte,,,,,2010,2010,Presence_only,380,1603,22.2000007629395,Ombrophilous Forest,YES,
MENE2_05364,MENE2,E13967,QUATRO BARRAS,PARANA,PR,Brazil,,,-25.3656,-49.0769,Coordinates given in the herbarium record,,Angiosperms,Gesneriaceae,Nematanthus,gregarius,Nematanthus gregarius,holoepiphyte,,,,,,,Presence_only,908,1590,21,Ombrophilous Forest,YES,
ANNE_05248,ANNE,29262,PAULO LOPES,SANTA CATARINA,SC,Brazil,,Dense Ombrophilous Forest,-28.0667,-48.8667,Municipality,Chicao - Vargem do Cedro/Parque Estadual da Serra do Tabuleiro,Ferns,Dryopteridaceae,Rumohra,adiantiformis,Rumohra adiantiformis,facultative,,,,,2010,2010,Presence_only,690,1616,21.2999992370605,Ombrophilous Forest,YES,
KERB_10680,KERB,E10680,PARANAGUA,PARANA,PR,Brazil,ABUNDANCE,High Restinga Forest,-25.521936,-48.316041,Forest fragment,High height restinga forest,Angiosperms,Araceae,Anthurium,pentaphyllum,Anthurium pentaphyllum,hemiepiphyte,Anacardiaceae,Tapirira,guianensis,Tapirira guianensis,2000,2002,Presence_only,,,,Ombrophilous Forest,YES,
FEMA_00859,FEMA,E859,CACHOEIRAS DE MACACU,RIO DE JANEIRO,RJ,Brazil,4,Primary Forest,-22.433333,-42.833333,Coordinates given in the herbarium record,"Estacao Ecologica Estadual de Paraiso, caminho para o Morro do Pirulito, vale do rio Falcao",Ferns,Dryopteridaceae,Elaphoglossum,scolopendrifolium,Elaphoglossum scolopendrifolium,holoepiphyte,,,,,2010,2014,Presence_only,582,1569,24.3999996185303,Ombrophilous Forest,YES,"The specimens examined for this study were compiled from the following herbaria: AAU, B, BHCB, BM, BR, CEPEC, F, FLOR, FURB, GH, HB, HBR, HUEFS, INPA, K, M, MBM, MBML, MO, NY, R, RB, P, PH, PI, S, SP, SPF, UC, UPCB, and US Sylvestre 679 -RB-"
ANNE_03741,ANNE,25582,DOUTOR PEDRINHO,SANTA CATARINA,SC,Brazil,,Dense Ombrophilous Forest,-26.7167,-49.4833,Municipality,Ribeirao Rigo,Ferns,Polypodiaceae,Pecluma,truncorum,Pecluma truncorum,holoepiphyte,,,,,2010,2010,Presence_only,644,1525,22.7000007629395,Ombrophilous Forest,YES,
MENE2_27821,MENE2,E4247,OLARIA,MATO GROSSO DO SUL,MS,Brazil,,,-21.8916,-44.0722,Coordinates given in the herbarium record,Serra do Cruz,Angiosperms,Bromeliaceae,Billbergia,distachia,Billbergia distachia,holoepiphyte,,,,,,,Presence_only,1372,1652,19.7000007629395,Seasonal Forest,YES,
KERB_06690,KERB,E6690,FAZENDA RIO GRANDE,PARANA,PR,Brazil,ABUNDANCE,Mixed Ombrophilous Forest,-25.661593,-49.277089,Forest fragment,Fazenda Experimental Gralha Azul,Angiosperms,Piperaceae,Peperomia,catharinae,Peperomia catharinae,holoepiphyte,,,,,2008,2015,Abundance,910,1304,20.3999996185303,Ombrophilous Forest,YES,
MARQ_00154,MARQ,E0002,PARANAGUA,PARANA,PR,Brazil,2,Restinga,-25.52501,-48.318042,Study site,Ilha do Mel,Angiosperms,Moraceae,Ficus,luschnathiana,Ficus luschnathiana,hemiepiphyte,,,,,1986,2002,Presence_only,,2192,25.2000007629395,Ombrophilous Forest,YES,
FUME_00626,FUME,E0626,ARAPONGA,MATO GROSSO DO SUL,MS,Brazil,,Cloud Forest,-20.6795,-42.44466,20,"Parque Estadual Serra do Brigadeiro, Pico do Bone",Angiosperms,Orchidaceae,Elleanthus,brasiliensis,Elleanthus brasiliensis,holoepiphyte,,,,,2017,2017,Presence_absence,1509,1591,17.5,Seasonal Forest,YES,
KERB_05071,KERB,E5071,ARAUCARIA,PARANA,PR,Brazil,ABUNDANCE,Secondary Forest,-25.598863,-49.519503,Forest fragment,Guajuvira,Ferns,Polypodiaceae,Pleopeltis,pleopeltifolia,Pleopeltis pleopeltifolia,holoepiphyte,,,,,2002,2006,Abundance,884,1332,20.8999996185303,Ombrophilous Forest,YES,
JABOT_01516,JABOT,400754,NOVA FRIBURGO,RIO DE JANEIRO,RJ,Brazil,,,-22.35361,-42.58694,Coordinates given in the herbarium record,,Angiosperms,Piperaceae,Peperomia,galioides,Peperomia galioides,holoepiphyte,,,,,2004,2004,Presence_only,1566,1836,14.5,Ombrophilous Forest,YES,
KESS_00880,KESS,E0880,JOINVILLE,SANTA CATARINA,SC,Brazil,,Forest Fragment,-26.1925,-49.0478,Sampled tree,,Angiosperms,Bromeliaceae,Vriesea,flava,Vriesea flava,holoepiphyte,,,,,,,Presence_only,897,1629,21.5,Other,YES,
MOZI_00014,MOZI,14,SETE BARRAS,SAO PAULO,SP,Brazil,,Forest,-24.1408,-48.0442,Forest fragment,"Base Saibadela, Parque Estadual Intervales",Angiosperms,Araceae,Philodendron,appendiculatum,Philodendron appendiculatum,hemiepiphyte,,,,,1994,2004,Presence_only,726,1430,20.7000007629395,Ombrophilous Forest,YES,
MENE2_26082,MENE2,E32801,IPORANGA,SAO PAULO,SP,Brazil,,,-24.4588889,-48.6475,Coordinates given in the herbarium record,"Parque Estadual Intervales, estrada para Barra Grande.",Angiosperms,Bromeliaceae,Vriesea,rodigasiana,Vriesea rodigasiana,holoepiphyte,,,,,,,Presence_only,743,1412,21.6000003814697,Ombrophilous Forest,YES,
MENE2_11590,MENE2,E19627,RONCADOR,PARANA,PR,Brazil,,,-24.533306,-52.434222,Coordinates given in the herbarium record,Estacao Ecologica Luiziana,Angiosperms,Piperaceae,Peperomia,urocarpa,Peperomia urocarpa,holoepiphyte,,,,,,,Presence_only,636,1677,22.6000003814697,Ombrophilous Forest,YES,
KERB_03146,KERB,E3146,ITAPOA,SANTA CATARINA,SC,Brazil,ABUNDANCE,Forest Fragment,-26.176814,-48.600791,Study site,Balneario Figueira do Pontal,Ferns,Hymenophyllaceae,Hymenophyllum,polyanthos,Hymenophyllum polyanthos,holoepiphyte,,,,,2017,2017,Presence_only,,,,Ombrophilous Forest,YES,
MENE2_12927,MENE2,E20842,CAPELA,ALAGOAS,AL,Brazil,,,-9.3813889,-36.0152778,Coordinates given in the herbarium record,"Serra das Aguas Belas. 18.5 Km N of jct. BR 101 and road to Maceio, then 2-3 Km W on cobblestone road. Coastal rainforest, partially, disturbed.",Angiosperms,Araceae,Philodendron,pedatum,Philodendron pedatum,hemiepiphyte,,,,,,,Presence_only,161,1497,25.5,Ombrophilous Forest,YES,
SARA_00456,SARA,E0456,CAMACAN,BAHIA,BA,Brazil,28,Dense Ombrophilous Forest,-15.391667,-39.565278,Study site,RPPN Serra Bonita,Ferns,Polypodiaceae,Pecluma,pilosa,Pecluma pilosa,holoepiphyte,,,,,2010,2010,Abundance,152,1105,22.2000007629395,Ombrophilous Forest,YES,
KERB_05996,KERB,E5996,CAMPINA GRANDE DO SUL,PARANA,PR,Brazil,ABUNDANCE,,-25.240888,-48.830907,Forest fragment,Morro Caratuva,Lycophytes,Lycopodiaceae,Phlegmariurus,quadrifariatus,Phlegmariurus quadrifariatus,holoepiphyte,Winteraceae,Drimys,angustifolia,Drimys angustifolia,2009,2011,Abundance,1714,1907,16.7999992370605,Ombrophilous Forest,YES,
MENE2_04352,MENE2,E13047,LAVRAS,MATO GROSSO DO SUL,MS,Brazil,,,-21.2453,-44.9997,Coordinates given in the herbarium record,,Angiosperms,Orchidaceae,Cattleya,lundii,Cattleya lundii,holoepiphyte,,,,,,,Presence_only,948,1463,22.8999996185303,Seasonal Forest,YES,
JABOT_00890,JABOT,733078,MIRIM DOCE,SANTA CATARINA,SC,Brazil,,,-27.275,-50.1325,Coordinates given in the herbarium record,,Angiosperms,Piperaceae,Peperomia,rizzinii,Peperomia rizzinii,holoepiphyte,,,,,2015,2015,Presence_only,937,1568,19.7000007629395,Ombrophilous Forest,YES,
MARC_00168,MARC,E0168,BOTUCATU,SAO PAULO,SP,Brazil,3,Riparian Forest,-22.836667,-48.540556,Forest fragment,Margem corrego da divisa,Angiosperms,Orchidaceae,Ornithocephalus,myrticola,Ornithocephalus myrticola,holoepiphyte,,,,,2013,2013,Presence_only,802,1336,21.7999992370605,Savanna,YES,
MENE2_29219,MENE2,E5645,MIMOSO DO SUL,ESPIRITO SANTO,ES,Brazil,,,-21.0642,-41.3664,Coordinates given in the herbarium record,Pedra dos Pontoes,Angiosperms,Orchidaceae,Campylocentrum,parahybunense,Campylocentrum parahybunense,holoepiphyte,,,,,,,Presence_only,227,1054,26.6000003814697,Seasonal Forest,YES,
JABOT_04808,JABOT,207443,URUCUCA,BAHIA,BA,Brazil,,,-14.59,-39.28,Municipality,,Angiosperms,Bromeliaceae,Araeococcus,nigropurpureus,Araeococcus nigropurpureus,holoepiphyte,,,,,1978,1978,Presence_only,85,1599,25.3999996185303,Ombrophilous Forest,YES,
MENE2_28395,MENE2,E4821,RIO PRETO,MATO GROSSO DO SUL,MS,Brazil,,,-22.0892,-43.8278,Coordinates given in the herbarium record,Visconde de Maua.,Angiosperms,Bromeliaceae,Billbergia,vittata,Billbergia vittata,holoepiphyte,,,,,,,Presence_only,515,1431,24.2000007629395,Seasonal Forest,YES,
MENE2_26725,MENE2,E33386,CAMPINA GRANDE DO SUL,PARANA,PR,Brazil,,,-25.3056,-49.0553,Coordinates given in the herbarium record,,Angiosperms,Orchidaceae,Zygopetalum,crinitum,Zygopetalum crinitum,holoepiphyte,,,,,,,Presence_only,904,1611,21.2000007629395,Ombrophilous Forest,YES,
ANNE_00355,ANNE,28211,PRAIA GRANDE,SANTA CATARINA,SC,Brazil,,Dense Ombrophilous Forest,-29.2,-50.0667,Municipality,Trilha do Rio do Boi,Angiosperms,Bromeliaceae,Aechmea,gamosepala,Aechmea gamosepala,holoepiphyte,,,,,2010,2010,Presence_only,513,1643,21.7999992370605,Savanna,YES,
FUME_02339,FUME,E2353,LIMA DUARTE,MATO GROSSO DO SUL,MS,Brazil,,Cloud Forest,-21.70931,-43.89967,100,"Parque Estadual do Ibitipoca, Gruta das Bromelias",Angiosperms,Bromeliaceae,Vriesea,friburgensis,Vriesea friburgensis,holoepiphyte,,,,,2014,2014,Presence_absence,1576,1649,19.7000007629395,Seasonal Forest,YES,
ANNE_02985,ANNE,28967,SAO BENTO DO SUL,SANTA CATARINA,SC,Brazil,,Dense Ombrophilous Forest,-26.35,-49.2333,Municipality,Braco esquerdo,Ferns,Polypodiaceae,Microgramma,squamulosa,Microgramma squamulosa,holoepiphyte,,,,,2010,2010,Presence_only,588,1562,20.5,Ombrophilous Forest,YES,
PERB_00705,PERB,E0751,NOVA FRIBURGO,RIO DE JANEIRO,RJ,Brazil,,,-22.28190041,-42.53110123,20,"Macae de Cima, cumieira dos Pirineus, mata nebular proximo a divisa com o Parque Estadual dos Tres Picos. Floresta Atlantica de Encosta.",Angiosperms,Gesneriaceae,Codonanthe,cordifolia,Codonanthe cordifolia,holoepiphyte,,,,,2010,2010,Presence_only,922,1372,21.7999992370605,Ombrophilous Forest,YES,Example
MENE2_15805,MENE2,E23459,PALMEIRAS,BAHIA,BA,Brazil,,,-12.45,-41.466667,Coordinates given in the herbarium record,"Pai Inacio. Fenda do Morro do Pai Inacio, trilha para  grotao.",Angiosperms,Orchidaceae,Anathallis,sclerophylla,Anathallis sclerophylla,holoepiphyte,,,,,,,Presence_only,796,857,21.5,Other,YES,
FUME_02151,FUME,E2165,LIMA DUARTE,MATO GROSSO DO SUL,MS,Brazil,,Cloud Forest,-21.70931,-43.89967,100,"Parque Estadual do Ibitipoca, Gruta das Bromelias",Angiosperms,Bromeliaceae,Vriesea,friburgensis,Vriesea friburgensis,holoepiphyte,Asteraceae,Eremanthus,erythropappus,Eremanthus erythropappus,2014,2014,Presence_absence,1576,1649,19.7000007629395,Seasonal Forest,YES,
MENE2_14813,MENE2,E22557,IBIUNA,SAO PAULO,SP,Brazil,,,-23.6333,-47.35,Coordinates given in the herbarium record,.,Angiosperms,Orchidaceae,Acianthera,luteola,Acianthera luteola,holoepiphyte,,,,,,,Presence_only,864,1415,20.2999992370605,Ombrophilous Forest,YES,
AAMO_00450,AAMO,E0450,ALMADINA,BAHIA,BA,Brazil,3,Dense Ombrophilous Forest,-14.7,-39.6,Study site,Reserva Particular da Serra do Corcovado,Angiosperms,Gesneriaceae,Codonanthe,gracilis,Codonanthe gracilis,holoepiphyte,,,,,2011,2015,Presence_only,252,1223,22.3999996185303,Ombrophilous Forest,YES,
FRAL_01325,FRAL,E1325,JUIZ DE FORA,MATO GROSSO DO SUL,MS,Brazil,,Urban Green Area,-21.7769,-43.34305,100,Praca Garrastazu Medici,Angiosperms,Bromeliaceae,Tillandsia,tricholepis,Tillandsia tricholepis,holoepiphyte,Bignoniaceae,Spathodea,campanulata,Spathodea campanulata,2015,2016,Presence_only,692,1498,23.2999992370605,Seasonal Forest,YES,
MENE2_16637,MENE2,E24215,GUARAQUECABA,PARANA,PR,Brazil,,,-25.3067,-48.3289,Coordinates given in the herbarium record,"Reserva Natural Salto Morato, Centro de Visitantes",Angiosperms,Orchidaceae,Prosthechea,fragrans,Prosthechea fragrans,holoepiphyte,,,,,,,Presence_only,1,2198,26.1000003814697,,YES,
MENE2_20425,MENE2,E27659,JACINTO MACHADO,SANTA CATARINA,SC,Brazil,,,-29.081944,-49.864722,Coordinates given in the herbarium record,Tenente,Angiosperms,Bromeliaceae,Tillandsia,geminiflora,Tillandsia geminiflora,holoepiphyte,,,,,,,Presence_only,109,1390,23.7000007629395,Ombrophilous Forest,YES,
GOSI_00202,GOSI,E0400,ALMADINA,BAHIA,BA,Brazil,,Secondary Forest,-14.705,-39.637,Municipality,,Angiosperms,Bromeliaceae,Vriesea,duvaliana,Vriesea duvaliana,holoepiphyte,,,,,2014,2017,Presence_only,276,1189,24.2999992370605,Ombrophilous Forest,YES,
MENE_01113,MENE,E1127,JUIZ DE FORA,MATO GROSSO DO SUL,MS,Brazil,,Urban Green Area,-21.7467,-43.3606,100,Museu Mariano Procopio,Angiosperms,Bromeliaceae,Tillandsia,stricta,Tillandsia stricta,facultative,Meliaceae,Cedrela,fissilis,Cedrela fissilis,2015,2016,Presence_only,686,1503,23.6000003814697,Seasonal Forest,YES,
ANNE_00024,ANNE,18462,ORLEANS,SANTA CATARINA,SC,Brazil,,Dense Ombrophilous Forest,-28.1667,-49.4,Municipality,Rio Minador,Ferns,Polypodiaceae,Pleopeltis,pleopeltidis,Pleopeltis pleopeltidis,holoepiphyte,,,,,2009,2009,Presence_only,530,1583,20.8999996185303,Savanna,YES,
MENE2_18968,MENE2,E26334,ILHOTA,SANTA CATARINA,SC,Brazil,,,-26.9,-48.83,Coordinates given in the herbarium record,Morro do Bau,Angiosperms,Marcgraviaceae,Schwartzia,brasiliensis,Schwartzia brasiliensis,facultative,,,,,,,Presence_only,115,1601,24.5,Ombrophilous Forest,YES,
MENE2_01377,MENE2,E10342,JAGUARIAIVA,PARANA,PR,Brazil,,,-24.25,-49.71,Coordinates given in the herbarium record,Jacarehy,Angiosperms,Araceae,Heteropsis,rigidifolia,Heteropsis rigidifolia,hemiepiphyte,,,,,,,Presence_only,824,1347,22.2000007629395,Savanna,YES,
KERB_05928,KERB,E5928,BALSA NOVA,PARANA,PR,Brazil,ABUNDANCE,Secondary Forest,-25.553261,-49.808853,Forest fragment,Ponte dos Arcos,Angiosperms,Bromeliaceae,Tillandsia,usneoides,Tillandsia usneoides,holoepiphyte,,,,,2002,2006,Abundance,882,1364,21.2000007629395,Other,YES,
SARA_00511,SARA,E0511,CAMACAN,BAHIA,BA,Brazil,25,Dense Ombrophilous Forest,-15.391667,-39.565278,Study site,RPPN Serra Bonita,Ferns,Hymenophyllaceae,Polyphlebium,diaphanum,Polyphlebium diaphanum,holoepiphyte,,,,,2010,2010,Abundance,152,1105,22.2000007629395,Ombrophilous Forest,YES,
KERB_04710,KERB,E4710,ARAUCARIA,PARANA,PR,Brazil,ABUNDANCE,Secondary Forest,-25.587389,-49.449341,Forest fragment,Campina das Pedras,Ferns,Polypodiaceae,Pleopeltis,hirsutissima,Pleopeltis hirsutissima,holoepiphyte,,,,,2002,2006,Abundance,880,1310,20.8999996185303,Ombrophilous Forest,YES,
KERB_05900,KERB,E5900,BALSA NOVA,PARANA,PR,Brazil,ABUNDANCE,Secondary Forest,-25.553261,-49.808853,Forest fragment,Ponte dos Arcos,Angiosperms,Cactaceae,Rhipsalis,cereuscula,Rhipsalis cereuscula,holoepiphyte,Euphorbiaceae,Gymnanthes,klotzschiana,Gymnanthes klotzschiana,2002,2006,Abundance,882,1364,21.2000007629395,Other,YES,
JABOT_01291,JABOT,614200,PIRAQUARA,PARANA,PR,Brazil,,,-25.4475,-49.01556,Coordinates given in the herbarium record,,Ferns,Polypodiaceae,Pleopeltis,hirsutissima,Pleopeltis hirsutissima,holoepiphyte,,,,,2014,2014,Presence_only,1143,1787,20.2999992370605,Ombrophilous Forest,YES,
KERB_08735,KERB,E8735,GUARAPUAVA,PARANA,PR,Brazil,ABUNDANCE,Flooded Forest,-25.521863,-51.416667,Forest fragment,Rio Sao Jeronimo,Ferns,Polypodiaceae,Pleopeltis,hirsutissima,Pleopeltis hirsutissima,holoepiphyte,Euphorbiaceae,Gymnanthes,klotzschiana,Gymnanthes klotzschiana,2003,2003,Abundance,984,1735,19.7000007629395,Savanna,YES,
CEBA_00184,CEBA,,GUARANI,MISIONES,N,Argentina,KELLER 1082 -CTES-,,-26.85,-53.76667,,Reserva Antropologica Papel Misionero,Ferns,Polypodiaceae,Pecluma,filicula,Pecluma filicula,holoepiphyte,,,,,,,Presence_only,389,1873,23.5,,YES,"a 2 km de la ruta 15, hacia arroyo Soberbio y a 1 km del predio de la UNaM, en area anegada, epifita, 23 -VII- 2001"
FOUN_00468,FOUN,468,JUSSARI,BAHIA,BA,Brazil,10,Lower Mountain Forest,-15.155,-39.526944,Google Earth,Serra do Teimoso,Angiosperms,Bromeliaceae,Lymania,spiculata,Lymania spiculata,holoepiphyte,,,,,2002,2007,Presence_only,152,1147,24.7999992370605,Ombrophilous Forest,YES,coleta aleatoria
FOUN_00215,FOUN,215,ILHEUS,BAHIA,BA,Brazil,3,Cocoa Plantation,-14.989529,-39.142453,20,Reserva Biologica de Una,Angiosperms,Bromeliaceae,Aechmea,marauensis,Aechmea marauensis,holoepiphyte,,,,,1998,2000,Abundance,42,1535,25.2000007629395,Ombrophilous Forest,YES,Total plot effort is related to 2 plots of cocoa plantation in a patch vegetation of aprox 800ha herein named Block-A
MENE2_04611,MENE2,E13282,JUQUIA,SAO PAULO,SP,Brazil,,,-24.180222,-47.644528,Coordinates given in the herbarium record,"Fazenda Primavera. 24*1750,1S, 47*4431,2W. .",Angiosperms,Araceae,Monstera,adansonii,Monstera adansonii,hemiepiphyte,,,,,,,Presence_only,153,1617,25.3999996185303,Ombrophilous Forest,YES,
MENE2_12791,MENE2,E20719,SANTA TERESA,ESPIRITO SANTO,ES,Brazil,,,-19.9075,-40.553056,Coordinates given in the herbarium record,Reserva Biologica Augusto Ruschi - Nova Lombardia,Angiosperms,Araceae,Philodendron,ornatum,Philodendron ornatum,hemiepiphyte,,,,,,,Presence_only,702,1316,22.7999992370605,Ombrophilous Forest,YES,
MENE2_26928,MENE2,E33570,QUATRO BARRAS,PARANA,PR,Brazil,,,-25.3656,-49.0769,Coordinates given in the herbarium record,,Angiosperms,Orchidaceae,Zygostates,pustulata,Zygostates pustulata,holoepiphyte,,,,,,,Presence_only,908,1590,21,Ombrophilous Forest,YES,
FEMA_00447,FEMA,E447,PEDRO DE TOLEDO,SAO PAULO,SP,Brazil,3,Primary Forest,-24.333333,-47.25,Study site,"Estacao Ecologica Jureia-Itatins, trilha na margem do Rio Verde",Ferns,Polypodiaceae,Campyloneurum,herbaceum,Campyloneurum herbaceum,holoepiphyte,,,,,2017,2017,Presence_only,425,2040,23.1000003814697,Ombrophilous Forest,YES,"The specimens examined for this study were compiled from the following herbaria: MBM, MO, NY, P, and UPCB Prado 339 -MBM-"
MENE2_00134,MENE2,E0134,PORTO SEGURO,BAHIA,BA,Brazil,,,-16.8858333,-39.4027778,Coordinates given in the herbarium record,Parque Nacional do Monte Pacoal; alto do Monte Pascoal.,Angiosperms,Bromeliaceae,Aechmea,alba,Aechmea alba,holoepiphyte,,,,,,,Presence_only,82,1242,26,Ombrophilous Forest,YES,
MENE2_07662,MENE2,E16056,PARANAGUA,PARANA,PR,Brazil,,,-25.52,-48.5092,Coordinates given in the herbarium record,"Ilha do Mel, Estacao Ecologica, Trilha dos Postes",Angiosperms,Orchidaceae,Gomesa,uniflora,Gomesa uniflora,holoepiphyte,,,,,,,Presence_only,1,2036,24.8999996185303,,YES,
JABOT_01572,JABOT,420123,ERICO CARDOSO,BAHIA,BA,Brazil,,,-13.49361,-41.96889,Coordinates given in the herbarium record,,Angiosperms,Clusiaceae,Clusia,criuva,Clusia criuva,hemiepiphyte,,,,,2005,2005,Presence_only,1073,974,18.7000007629395,Seasonal Forest,YES,
PERE_00154,PERE,TS468,TEODORO SAMPAIO,SAO PAULO,SP,Brazil,,Forest Interior,-22.528635,-52.377733,2000,Fragmento no assentamento Ribeirao Bonito,Angiosperms,Moraceae,Ficus,citrifolia,Ficus citrifolia,hemiepiphyte,,,,,2007,2011,Abundance,312,1190,25.2000007629395,Seasonal Forest,YES,Fragmento de 129 ha; Forofito morto; habito hemiepifitico habito terricola:nao
MENE2_26227,MENE2,E32933,SANTA TERESA,ESPIRITO SANTO,ES,Brazil,,,-19.925556,-40.635556,Coordinates given in the herbarium record,Country Club,Angiosperms,Bromeliaceae,Vriesea,seideliana,Vriesea seideliana,holoepiphyte,,,,,,,Presence_only,822,1302,23,Ombrophilous Forest,YES,
GOSI_01773,GOSI,E0025,BRUSQUE,SANTA CATARINA,SC,Brazil,,Secondary Forest,-27.098,-48.918,Municipality,,Angiosperms,Bromeliaceae,Vriesea,altodaserrae,Vriesea altodaserrae,holoepiphyte,,,,,2014,2017,Presence_only,115,1687,24.1000003814697,Ombrophilous Forest,YES,
NUNE_02302,NUNE,AD479,GUAPIMIRIM,RIO DE JANEIRO,RJ,Brazil,27B3,Secondary Forest,-22.47444444,-42.99972222,Study site,Vale do Garrafao,Angiosperms,Araceae,Anthurium,longifolium,Anthurium longifolium,holoepiphyte,,,,,2007,2008,Abundance,689,1730,22.7000007629395,Ombrophilous Forest,YES,
MENE2_20505,MENE2,E27731,IMARUI,SANTA CATARINA,SC,Brazil,,,-28.164742,-48.869731,Coordinates given in the herbarium record,Forquilinha,Angiosperms,Bromeliaceae,Tillandsia,geminiflora,Tillandsia geminiflora,holoepiphyte,,,,,,,Presence_only,534,1625,20.7999992370605,Ombrophilous Forest,YES,
KERB_05589,KERB,E5589,ARAUCARIA,PARANA,PR,Brazil,ABUNDANCE,Secondary Forest,-25.588749,-49.347156,Forest fragment,REPAR,Ferns,Polypodiaceae,Pleopeltis,hirsutissima,Pleopeltis hirsutissima,holoepiphyte,,,,,2000,2002,Abundance,914,1284,20.8999996185303,Ombrophilous Forest,YES,
FUME_00380,FUME,E0380,ARAPONGA,MATO GROSSO DO SUL,MS,Brazil,,Cloud Forest,-20.72175,-42.48216,20,"Parque Estadual Serra do Brigadeiro, Pico do Grama",Ferns,Polypodiaceae,Lellingeria,apiculata,Lellingeria apiculata,holoepiphyte,,,,,2017,2017,Presence_absence,1524,1515,18.7999992370605,Seasonal Forest,YES,
MENE2_18658,MENE2,E26052,NATIVIDADE,RIO DE JANEIRO,RJ,Brazil,,,-21.0422,-41.9733,Coordinates given in the herbarium record,,Angiosperms,Orchidaceae,Rodriguezia,sticta,Rodriguezia sticta,holoepiphyte,,,,,,,Presence_only,287,1181,25.7000007629395,Seasonal Forest,YES,
NUNE_02581,NUNE,AD758,CACHOEIRAS DE MACACU,RIO DE JANEIRO,RJ,Brazil,C600P2A2,Secondary Forest,-22.38527778,-42.72944444,5,Reserva Ecologica de Guapiacu -Trilha Verde-,Angiosperms,Piperaceae,Peperomia,catharinae,Peperomia catharinae,holoepiphyte,,,,,2012,2016,Presence_only,926,1530,23.2999992370605,Ombrophilous Forest,YES,507
FRAN_00152,FRAN,E0155,MIMOSO DO SUL,ESPIRITO SANTO,ES,Brazil,1,Inselberg,-20.938611,-41.544167,Study site,Pontoes de Mimoso do Sul: afloramento do Toti,Angiosperms,Orchidaceae,Encyclia,patens,Encyclia patens,holoepiphyte,Nyctaginaceae,Guapira,opposita,Guapira opposita,2015,2015,Abundance,634,1317,21.7999992370605,Seasonal Forest,YES,
MENE2_26168,MENE2,E3288,ARROIO DO SAL,RIO GRANDE DO SUL,RS,Brazil,,,-29.5514,-49.8889,Coordinates given in the herbarium record,Parque Tupancy,Angiosperms,Araceae,Anthurium,scandens,Anthurium scandens,holoepiphyte,,,,,,,Presence_only,,,,Other,YES,
NUNE_01206,NUNE,BLM,ANGRA DOS REIS,RIO DE JANEIRO,RJ,Brazil,,Flooded Forest,-23.166667,-44.125,Central point in study site,Brejo de Lopes Mendes,Angiosperms,Bromeliaceae,Tillandsia,stricta,Tillandsia stricta,facultative,,,,,2001,2004,Abundance,1,1465,26.1000003814697,,YES,
ANNE_01478,ANNE,20791,FLORIANOPOLIS,SANTA CATARINA,SC,Brazil,,Dense Ombrophilous Forest,-27.5667,-48.4667,Municipality,Morro da Lagoa,Angiosperms,Orchidaceae,Campylocentrum,sellowii,Campylocentrum sellowii,holoepiphyte,,,,,2010,2010,Presence_only,122,1556,23.2000007629395,Ombrophilous Forest,YES,
MENE2_12050,MENE2,E20045,SETE BARRAS,SAO PAULO,SP,Brazil,,,-24.166667,-47.916667,Coordinates given in the herbarium record,Ilha do Cardoso,Angiosperms,Araceae,Philodendron,appendiculatum,Philodendron appendiculatum,hemiepiphyte,,,,,,,Presence_only,488,1515,22.3999996185303,Ombrophilous Forest,YES,
FUME_00159,FUME,E0159,ARAPONGA,MATO GROSSO DO SUL,MS,Brazil,,Cloud Forest,-20.74142,-42.47723,20,"Parque Estadual Serra do Brigadeiro, Pico do Pato",Angiosperms,Orchidaceae,Gomesa,ranifera,Gomesa ranifera,holoepiphyte,,,,,2017,2017,Presence_absence,1697,1589,17.6000003814697,Seasonal Forest,YES,
MENE2_28950,MENE2,E5376,SAO PAULO,SAO PAULO,SP,Brazil,,,-23.5475,-46.6361,Coordinates given in the herbarium record,Cidade Jardim,Angiosperms,Orchidaceae,Camaridium,carinatum,Camaridium carinatum,holoepiphyte,,,,,,,Presence_only,634,1341,21.6000003814697,Savanna,YES,
ANNE_00643,ANNE,23191,RODEIO,SANTA CATARINA,SC,Brazil,,Dense Ombrophilous Forest,-26.9,-49.4,Municipality,Sao Pedro,Angiosperms,Araceae,Anthurium,pentaphyllum,Anthurium pentaphyllum,hemiepiphyte,,,,,2010,2010,Presence_only,276,1574,22.2999992370605,Ombrophilous Forest,YES,
PTEO_00983,PTEO,E0983,GRAO PARA,SANTA CATARINA,SC,Brazil,,Primary Forest,-28.174505,-49.392082,5,Parque Estadual da Serra Furada,Angiosperms,Piperaceae,Peperomia,catharinae,Peperomia catharinae,holoepiphyte,,,,,2011,2012,Presence_absence,530,1583,20.8999996185303,Savanna,YES,
CBOE_00424,CBOE,Tree71,SAO FRANCISCO DE PAULA,RIO GRANDE DO SUL,RS,Brazil,FO3,Mixed Ombrophilous Forest,-29.422903,-50.388865,Central point in study site,Floresta Nacional de Sao Francisco de Paula.,Ferns,Polypodiaceae,Pleopeltis,pleopeltidis,Pleopeltis pleopeltidis,holoepiphyte,Myrtaceae,Siphoneugena,reitzii,Siphoneugena reitzii,2007,2007,Abundance,917,2084,19.6000003814697,Savanna,YES,
SARA_00457,SARA,E0457,CAMACAN,BAHIA,BA,Brazil,4,Dense Ombrophilous Forest,-15.391667,-39.565278,Study site,RPPN Serra Bonita,Ferns,Polypodiaceae,Pecluma,plumula,Pecluma plumula,holoepiphyte,,,,,2010,2010,Abundance,152,1105,22.2000007629395,Ombrophilous Forest,YES,
KERB_04585,KERB,E4585,ARAUCARIA,PARANA,PR,Brazil,ABUNDANCE,Secondary Forest,-25.600388,-49.410176,Forest fragment,Araucaria,Angiosperms,Bromeliaceae,Tillandsia,tenuifolia,Tillandsia tenuifolia,facultative,,,,,2002,2006,Abundance,879,1292,21,Ombrophilous Forest,YES,
JABOT_02783,JABOT,56270,NAVEGANTES,SANTA CATARINA,SC,Brazil,,,-26.9,-48.66,Municipality,,Ferns,Hymenophyllaceae,Polyphlebium,angustatum,Polyphlebium angustatum,holoepiphyte,,,,,1941,1941,Presence_only,45,1597,24.3999996185303,Ombrophilous Forest,YES,
FRAN_00581,FRAN,E0584,MIMOSO DO SUL,ESPIRITO SANTO,ES,Brazil,1,Inselberg,-20.938817,-41.544373,Study site,Pontoes de Mimoso do Sul: afloramento do Toti,Angiosperms,Bromeliaceae,Tillandsia,usneoides,Tillandsia usneoides,holoepiphyte,Nyctaginaceae,Guapira,opposita,Guapira opposita,2015,2015,Presence_only,634,1317,21.7999992370605,Seasonal Forest,YES,
MENE2_24229,MENE2,E31117,SANTA MARIA DE JETIBA,ESPIRITO SANTO,ES,Brazil,,,-20.043333,-40.697222,Coordinates given in the herbarium record,Belem,Angiosperms,Bromeliaceae,Vriesea,ensiformis,Vriesea ensiformis,holoepiphyte,,,,,,,Presence_only,774,1301,23,Ombrophilous Forest,YES,
FUME_06910,FUME,E6930,BAEPENDI,MATO GROSSO DO SUL,MS,Brazil,,Mixed Ombrophilous Forest,-22.142,-44.7328,2000,Parque Estadual da Serra do Papagaio,Ferns,Polypodiaceae,Pecluma,pectinatiformis,Pecluma pectinatiformis,holoepiphyte,Podocarpaceae,Podocarpus,lambertii,Podocarpus lambertii,2012,2013,Presence_absence,1798,1890,17.1000003814697,Other,YES,
NUNE_02983,NUNE,AD1160,TERESOPOLIS,RIO DE JANEIRO,RJ,Brazil,C1400P9A1,Secondary Forest,-22.45777778,-43.00166667,80,Parque Nacional da Serra dos Orgaos -Trilha Pedra do Sino-,Angiosperms,Araceae,Philodendron,propinquum,Philodendron propinquum,hemiepiphyte,,,,,2012,2016,Presence_only,1079,1747,20,Ombrophilous Forest,YES,507
MENE_01297,MENE,E1314,JUIZ DE FORA,MATO GROSSO DO SUL,MS,Brazil,,Urban Green Area,-21.7925,-43.3669,100,Parque Natural Municipal da Lajinha,Ferns,Polypodiaceae,Microgramma,squamulosa,Microgramma squamulosa,holoepiphyte,Anacardiaceae,Mangifera,indica,Mangifera indica,2015,2016,Presence_only,774,1503,22.7000007629395,Seasonal Forest,YES,
PERB_00209,PERB,E0238,ALTO CAPARAO,MATO GROSSO DO SUL,MS,Brazil,,,-20.419722,-41.845556,20,Parque Nacional do Caparao,Angiosperms,Gesneriaceae,Sinningia,douglasii,Sinningia douglasii,holoepiphyte,,,,,1922,1922,Presence_only,1522,1469,19,Seasonal Forest,YES,Example
MENE2_26941,MENE2,E3367,FLORIANOPOLIS,SANTA CATARINA,SC,Brazil,,,-27.576667,-48.475556,Coordinates given in the herbarium record,Morro da Lagoa,Angiosperms,Araceae,Anthurium,scandens,Anthurium scandens,holoepiphyte,,,,,,,Presence_only,50,1633,22,Ombrophilous Forest,YES,
MENE2_26258,MENE2,E32961,RIO DO PIRES,BAHIA,BA,Brazil,,,-13.3,-41.95,Coordinates given in the herbarium record,,Angiosperms,Bromeliaceae,Vriesea,simplex,Vriesea simplex,holoepiphyte,,,,,,,Presence_only,1199,974,20.3999996185303,Other,YES,
MENE2_31995,MENE2,E8421,MANGARATIBA,RIO DE JANEIRO,RJ,Brazil,,,-23.0636111,-43.9669445,Coordinates given in the herbarium record,DA MARAMBAIA.,Angiosperms,Orchidaceae,Epidendrum,miserrimum,Epidendrum miserrimum,holoepiphyte,,,,,,,Presence_only,133,1383,25.1000003814697,Ombrophilous Forest,YES,
FRAL_01783,FRAL,E1783,JUIZ DE FORA,MATO GROSSO DO SUL,MS,Brazil,,Urban Green Area,-21.758333,-43.355833,50,Praca Pedro Marques,Angiosperms,Bromeliaceae,Tillandsia,tricholepis,Tillandsia tricholepis,holoepiphyte,Bignoniaceae,Spathodea,campanulata,Spathodea campanulata,2015,2016,Presence_only,686,1501,23.6000003814697,Seasonal Forest,YES,
MENE2_25467,MENE2,E32242,LIMA DUARTE,MATO GROSSO DO SUL,MS,Brazil,,,-21.735,-43.8783334,Coordinates given in the herbarium record,Distrito de Conceicao do Ibitipoca. Parque Estadual do Ibitipoca. Morro da Gruta dos 3 Arcos.,Angiosperms,Bromeliaceae,Vriesea,penduliflora,Vriesea penduliflora,holoepiphyte,,,,,,,Presence_only,1306,1590,20.7000007629395,Seasonal Forest,YES,
FUME_02336,FUME,E2350,LIMA DUARTE,MATO GROSSO DO SUL,MS,Brazil,,Cloud Forest,-21.70931,-43.89967,100,"Parque Estadual do Ibitipoca, Gruta das Bromelias",Angiosperms,Bromeliaceae,Vriesea,friburgensis,Vriesea friburgensis,holoepiphyte,,,,,2014,2014,Presence_absence,1576,1649,19.7000007629395,Seasonal Forest,YES,
MENE2_12432,MENE2,E20392,ILHEUS,BAHIA,BA,Brazil,,,-14.9875,-39.001389,Coordinates given in the herbarium record,"Olivenca, 4,2Km na estrada para Una, BA-001. Margem de um corrego.",Angiosperms,Araceae,Philodendron,fragrantissimum,Philodendron fragrantissimum,hemiepiphyte,,,,,,,Presence_only,,,,,YES,
