DATASET,DATASET_ACRONYM,RECORD_ID,MUNICIPALITY,STATE,STATE_ACRONYM,COUNTRY,ID_CODLOC,HABITAT,LATITUDE_Y,LONGITUDE_X,PRECISION,REGIONAL_NAME_OF_STUDY_SITE,EPIPHYTE_GROUP,EPIPHYTE_FAMILY,EPIPHYTE_GENUS,EPIPHYTE_EPITHET,EPIPHYTE_SPECIES,EPIPHYTE_HABITAT,FOROPHYTE_FAMILY,FOROPHYTE_GENERA,FOROPHYTE_EPITHET,FOROPYHYTE_SPECIES,YEAR_START,YEAR_FINISH,DATA_TYPE,ALTITUDE,ANNUAL_RAINFALL,ANNUAL_TEMPERATURE,VEGETATION_TYPE,ATLANTIC_FOREST_LIMIT,OBS
KESS_01264,KESS,E1264,SANTA TERESA,ESPIRITO SANTO,ES,Brazil,,Forest Fragment,-19.9358,-40.6003,Municipality,,Angiosperms,Bromeliaceae,Vriesea,ensiformis,Vriesea ensiformis,holoepiphyte,,,,,,,Presence_only,801,1284,23.6000003814697,Ombrophilous Forest,YES,
MENE2_23547,MENE2,E30497,AMARGOSA,BAHIA,BA,Brazil,,,-13.016667,-39.6,Coordinates given in the herbarium record,,Angiosperms,Orchidaceae,Vanilla,palmarum,Vanilla palmarum,hemiepiphyte,,,,,,,Presence_only,387,972,23.3999996185303,Seasonal Forest,YES,
PERE_00045,PERE,EEC571,GALIA,SAO PAULO,SP,Brazil,,Forest Interior,-22.34161,-49.61017,2000,Fragmento no interior da Fazenda Tibirica,Angiosperms,Moraceae,Ficus,citrifolia,Ficus citrifolia,hemiepiphyte,,,,,2007,2011,Abundance,610,1296,23.2999992370605,Seasonal Forest,YES,Fragmento de 38 ha; forofito decomposto; habito hemiepifitico apos alcancar o estaguio de vida livre habito terricola:nao
MENE2_27124,MENE2,E3550,BANANEIRAS,PARAIBA,PB,Brazil,,,-6.75,-35.6333,Coordinates given in the herbarium record,,Angiosperms,Araceae,Anthurium,scandens,Anthurium scandens,holoepiphyte,,,,,,,Presence_only,195,1089,23.2000007629395,,YES,
MENE2_28090,MENE2,E4516,JUSSARI,BAHIA,BA,Brazil,,,-15.158056,-39.528611,Coordinates given in the herbarium record,"Estrada Jussari/Palmira, entrada a esquerda ca. 7,5Km. Faz. Teimoso. RPPN Serra dso Teimoso.",Angiosperms,Bromeliaceae,Billbergia,morelii,Billbergia morelii,holoepiphyte,,,,,,,Presence_only,152,1147,24.7999992370605,Ombrophilous Forest,YES,
PERB_01210,PERB,E1353,JUQUIA,SAO PAULO,SP,Brazil,,,-24.205555,-47.669444,Study site,,Angiosperms,Gesneriaceae,Codonanthe,gracilis,Codonanthe gracilis,holoepiphyte,,,,,1994,1994,Presence_only,152,1643,25.3999996185303,Ombrophilous Forest,YES,Example
MENE2_06035,MENE2,E14577,CONCEICAO DO CASTELO,ESPIRITO SANTO,ES,Brazil,,,-20.3683,-41.2439,Coordinates given in the herbarium record,"Entre Castelo e Fruteira, morro Pinga Fogo.",Angiosperms,Bromeliaceae,Neoregelia,simulans,Neoregelia simulans,holoepiphyte,,,,,,,Presence_only,840,1257,23.3999996185303,Ombrophilous Forest,YES,
PERE_01102,PERE,RP263,RIBEIRAO PRETO,SAO PAULO,SP,Brazil,,Forest Interior,-21.22581443,-47.85647976,10,Estacao Ecologica Santa Tereza,Angiosperms,Moraceae,Ficus,citrifolia,Ficus citrifolia,hemiepiphyte,,,,,2007,2011,Presence_only,603,1485,23.5,Other,YES,"habito hemiepifitico; amostragem assistematica em uma area de ~ 50.000 ha entre as coordenadas -47,983 dd -21,409 dd e -47,835 dd -21,161 dd. habito terricola:nao"
PERE_00527,PERE,TS005,TEODORO SAMPAIO,SAO PAULO,SP,Brazil,,Forest Interior,-22.51355743,-52.31862895,10,Parque Estadual Morro do Diabo,Angiosperms,Moraceae,Ficus,citrifolia,Ficus citrifolia,hemiepiphyte,,,,,2007,2011,Presence_only,597,1207,24.2999992370605,Seasonal Forest,YES,"habito terricola; amostragem assistematica em uma area de ~ 100.000 ha entre as coordenadas -52,513 dd -22,625 dd e -52,163 dd -22,265 dd.  habito terricola:sim"
GUAR_00063,GUAR,E0063,CANANEIA,SAO PAULO,SP,Brazil,,Forest,-25.092639,-47.926389,Study site,PE Ilha do Cardoso,Angiosperms,Cactaceae,Rhipsalis,baccifera,Rhipsalis baccifera,holoepiphyte,,,,,2006,2008,Presence_only,19,2490,26.5,Ombrophilous Forest,YES,Johannson zones: Johansson D R -1974- Ecology of vascular epiphytes in West African rain forest. Acta Phytogeog Suecica 59:1-136.
KERB_08085,KERB,E8085,GUARAPUAVA,PARANA,PR,Brazil,ABUNDANCE,,-25.521863,-51.416667,Forest fragment,Rio Sao Jeronimo,Angiosperms,Piperaceae,Peperomia,catharinae,Peperomia catharinae,holoepiphyte,Podocarpaceae,Podocarpus,lambertii,Podocarpus lambertii,2003,2003,Abundance,984,1735,19.7000007629395,Savanna,YES,
KERB_07222,KERB,E7222,FAZENDA RIO GRANDE,PARANA,PR,Brazil,ABUNDANCE,Mixed Ombrophilous Forest,-25.661593,-49.277089,Forest fragment,Fazenda Experimental Gralha Azul,Angiosperms,Orchidaceae,Capanemia,micromera,Capanemia micromera,holoepiphyte,Canellaceae,Cinnamodendron,dinisii,Cinnamodendron dinisii,2008,2015,Abundance,910,1304,20.3999996185303,Ombrophilous Forest,YES,
PERB_00960,PERB,E1056,PARATY,RIO DE JANEIRO,RJ,Brazil,,,-23.2178,-44.7131,Municipality,Rio dos Meros proximo ao lago; Veg. F.O.D.T.,Angiosperms,Gesneriaceae,Nematanthus,fluminensis,Nematanthus fluminensis,holoepiphyte,,,,,1995,1995,Presence_only,,2273,26.5,Ombrophilous Forest,YES,Example
MENE_01629,MENE,E1646,JUIZ DE FORA,MATO GROSSO DO SUL,MS,Brazil,,Urban Green Area,-21.7925,-43.3669,100,Parque Natural Municipal da Lajinha,Angiosperms,Bromeliaceae,Tillandsia,tricholepis,Tillandsia tricholepis,holoepiphyte,,,,,2015,2016,Presence_only,774,1503,22.7000007629395,Seasonal Forest,YES,
KERB_02580,KERB,E2580,SAO JOSE DOS AUSENTES,RIO GRANDE DO SUL,RS,Brazil,ABUNDANCE,,-28.47165,-49.981568,Forest fragment,Rio Pelotas,Ferns,Polypodiaceae,Microgramma,squamulosa,Microgramma squamulosa,holoepiphyte,,,,,2014,2014,Abundance,1094,1662,19.2999992370605,Ombrophilous Forest,YES,
FRAN_01313,FRAN,E1316,MIMOSO DO SUL,ESPIRITO SANTO,ES,Brazil,1,Primary Forest,-20.936667,-41.553333,Forest fragment,Pedra dos Pontoes:primeira mata nebular,Angiosperms,Cactaceae,Rhipsalis,teres,Rhipsalis teres,holoepiphyte,Nyctaginaceae,Guapira,opposita,Guapira opposita,2016,2016,Abundance,634,1391,20.3999996185303,Seasonal Forest,YES,
KERB_02767,KERB,E2767,SAO JOSE DOS AUSENTES,RIO GRANDE DO SUL,RS,Brazil,ABUNDANCE,,-28.47165,-49.981568,Forest fragment,Rio Pelotas,Ferns,Polypodiaceae,Pleopeltis,pleopeltidis,Pleopeltis pleopeltidis,holoepiphyte,,,,,2014,2014,Abundance,1094,1662,19.2999992370605,Ombrophilous Forest,YES,
MENE2_20157,MENE2,E27415,CALDAS,MATO GROSSO DO SUL,MS,Brazil,,,-21.9666667,-46.3666667,Coordinates given in the herbarium record,Pocinhos do Rio Verde,Angiosperms,Bromeliaceae,Tillandsia,gardneri,Tillandsia gardneri,facultative,,,,,,,Presence_only,1326,1772,18.5,Other,YES,
FOUN_00245,FOUN,245,UNA,BAHIA,BA,Brazil,4,Forest Edge,-15.132943,-39.144693,20,Reserva Biologica de Una,Angiosperms,Bromeliaceae,Aechmea,froesii,Aechmea froesii,holoepiphyte,,,,,1998,2000,Abundance,45,1489,25.2999992370605,Ombrophilous Forest,YES,Total plot effort is related to 2 plots of forest edges inserteds in a vegetation patch of aprox 800ha herein named Block-B
KERB_07563,KERB,E7563,FAZENDA RIO GRANDE,PARANA,PR,Brazil,ABUNDANCE,Mixed Ombrophilous Forest,-25.666271,-49.269229,Forest fragment,Fazenda Experimental Gralha Azul 2,Ferns,Polypodiaceae,Niphidium,crassifolium,Niphidium crassifolium,holoepiphyte,,,,,2015,2017,Abundance,910,1294,20.5,Ombrophilous Forest,YES,
YANE_00077,YANE,E077,SAN PEDRO,MISIONES,N,Argentina,,Secondary Forest,-26.896583,-53.880556,Forest fragment,Esmeralda Provincial Park,Ferns,Aspleniaceae,Asplenium,gastonis,Asplenium gastonis,facultative,Cyatheaceae,Alsophila,setosa,Alsophila setosa,2006,2012,Presence_only,309,1839,23.7000007629395,,YES,Field observation
KERB_09349,KERB,E9349,LAPA,PARANA,PR,Brazil,ABUNDANCE,Secondary Forest,-25.578059,-49.912969,Forest fragment,Castelhanos,Ferns,Polypodiaceae,Pleopeltis,hirsutissima,Pleopeltis hirsutissima,holoepiphyte,Malvaceae,Luehea,divaricata,Luehea divaricata,2002,2006,Abundance,830,1369,21.5,Other,YES,
MENE2_12700,MENE2,E20636,TAPIRAI,SAO PAULO,SP,Brazil,,,-24.0297223,-47.5686111,Coordinates given in the herbarium record,"Cachoeira do Cha, a 12 Km de Tapirai em direcao a Juquia",Angiosperms,Araceae,Philodendron,oblongum,Philodendron oblongum,hemiepiphyte,,,,,,,Presence_only,812,1779,21.2000007629395,Ombrophilous Forest,YES,
KERB_01589,KERB,E1589,PIRAQUARA,PARANA,PR,Brazil,ABUNDANCE,Ecotone between Mixed Ombrophilous and Dense Ombrophilous Forest,-25.497056,-48.981299,Forest fragment,PE Marumbi Nucleo Cayuguava,Lycophytes,Lycopodiaceae,Phlegmariurus,quadrifariatus,Phlegmariurus quadrifariatus,holoepiphyte,,,,,2008,2010,Presence_only,1202,1856,19.6000003814697,Ombrophilous Forest,YES,
MENE2_25055,MENE2,E31868,CANANEIA,SAO PAULO,SP,Brazil,,,-25.2875,-48.0791667,Coordinates given in the herbarium record,"Parque Estadual da Ilha do Cardoso, picada do alojamento para Poco das Antas.",Angiosperms,Bromeliaceae,Vriesea,incurvata,Vriesea incurvata,holoepiphyte,,,,,,,Presence_only,,2461,26.2999992370605,Ombrophilous Forest,YES,
MARQ_00371,MARQ,E0006,TERRA DE AREIA,RIO GRANDE DO SUL,RS,Brazil,6,Restinga,-29.626037,-50.017987,Municipality,,Angiosperms,Orchidaceae,Lankesterella,ceracifolia,Lankesterella ceracifolia,holoepiphyte,,,,,1998,1999,Abundance,31,1475,23.2000007629395,Ombrophilous Forest,YES,
GOSI_01914,GOSI,E1660,QUATRO BARRAS,PARANA,PR,Brazil,,Secondary Forest,-25.366,-49.077,Municipality,,Angiosperms,Bromeliaceae,Vriesea,platynema,Vriesea platynema,facultative,,,,,2014,2017,Presence_only,908,1590,21,Ombrophilous Forest,YES,
CBUZ_00180,CBUZ,E0180,SAO JOSE DO HERVAL,RIO GRANDE DO SUL,RS,Brazil,1,Forest,-29.073766,-52.269796,Forest fragment,,Angiosperms,Orchidaceae,Capanemia,superflua,Capanemia superflua,holoepiphyte,,,,,2007,2017,Presence_only,609,1563,22.2000007629395,Seasonal Forest,YES,
KERB_01131,KERB,E1131,PIRAQUARA,PARANA,PR,Brazil,ABUNDANCE,Mixed Ombrophilous Forest,-25.528984,-49.012214,Forest fragment,Haras Santo Antonio,Angiosperms,Orchidaceae,Promenaea,xanthina,Promenaea xanthina,holoepiphyte,Winteraceae,Drimys,brasiliensis,Drimys brasiliensis,2002,2006,Abundance,1015,1701,20.3999996185303,Ombrophilous Forest,YES,
KERB_07228,KERB,E7228,FAZENDA RIO GRANDE,PARANA,PR,Brazil,ABUNDANCE,Mixed Ombrophilous Forest,-25.661593,-49.277089,Forest fragment,Fazenda Experimental Gralha Azul,Ferns,Polypodiaceae,Microgramma,squamulosa,Microgramma squamulosa,holoepiphyte,Canellaceae,Cinnamodendron,dinisii,Cinnamodendron dinisii,2008,2015,Abundance,910,1304,20.3999996185303,Ombrophilous Forest,YES,
BREI_00193,BREI,E193,CANANEIA,SAO PAULO,SP,Brazil,T.B. BREIER 0998,Primary Restinga,-25.077222,-47.929167,1000,Parque Estadual Ilha do Cardoso,Angiosperms,Bromeliaceae,Tillandsia,tenuifolia,Tillandsia tenuifolia,facultative,,,,,2002,2005,Presence_only,5,2481,26.6000003814697,Ombrophilous Forest,YES,
FUME_06822,FUME,E6842,BAEPENDI,MATO GROSSO DO SUL,MS,Brazil,,Mixed Ombrophilous Forest,-22.142,-44.7328,2000,Parque Estadual da Serra do Papagaio,Angiosperms,Bromeliaceae,Aechmea,distichantha,Aechmea distichantha,holoepiphyte,Podocarpaceae,Podocarpus,lambertii,Podocarpus lambertii,2012,2013,Presence_absence,1798,1890,17.1000003814697,Other,YES,
MENE2_23534,MENE2,E30485,MORRO DO CHAPEU,BAHIA,BA,Brazil,,,-11.617222,-40.991111,Coordinates given in the herbarium record,Entrada da Cachoeira do Ferro Doido,Angiosperms,Orchidaceae,Vanilla,palmarum,Vanilla palmarum,hemiepiphyte,,,,,,,Presence_only,787,716,22.2999992370605,Seasonal Forest,YES,
MENE2_32360,MENE2,E8786,CONCEICAO DO MATO DENTRO,MATO GROSSO DO SUL,MS,Brazil,,,-19.0372,-43.425,Coordinates given in the herbarium record,Parque Natural Municipal do Ribeirao do Campo,Angiosperms,Orchidaceae,Epidendrum,paranaense,Epidendrum paranaense,holoepiphyte,,,,,,,Presence_only,882,1686,23.6000003814697,Seasonal Forest,YES,
JABOT_01089,JABOT,258502,SANTA TERESINHA,BAHIA,BA,Brazil,,,-12.75,-39.53333,Coordinates given in the herbarium record,,Angiosperms,Bromeliaceae,Vriesea,noblickii,Vriesea noblickii,holoepiphyte,,,,,1985,1985,Presence_only,243,635,24.6000003814697,Seasonal Forest,YES,
KERB_03769,KERB,E3769,SAO JOAQUIM,SANTA CATARINA,SC,Brazil,ABUNDANCE,,-28.482429,-49.832046,Study site,Rio Pelotas,Angiosperms,Piperaceae,Peperomia,catharinae,Peperomia catharinae,holoepiphyte,,,,,2014,2014,Abundance,1132,1635,19.7999992370605,Ombrophilous Forest,YES,
KERB_06204,KERB,E6204,CAMPINA GRANDE DO SUL,PARANA,PR,Brazil,ABUNDANCE,,-25.240888,-48.830907,Forest fragment,Morro Caratuva,Angiosperms,Orchidaceae,Octomeria,diaphana,Octomeria diaphana,holoepiphyte,Myrtaceae,Myrceugenia,franciscensis,Myrceugenia franciscensis,2009,2011,Abundance,1714,1907,16.7999992370605,Ombrophilous Forest,YES,
KERB_07422,KERB,E7422,FAZENDA RIO GRANDE,PARANA,PR,Brazil,ABUNDANCE,Mixed Ombrophilous Forest,-25.666271,-49.269229,Forest fragment,Fazenda Experimental Gralha Azul 2,Ferns,Polypodiaceae,Campyloneurum,austrobrasilianum,Campyloneurum austrobrasilianum,holoepiphyte,,,,,2015,2017,Abundance,910,1294,20.5,Ombrophilous Forest,YES,
MENE2_29004,MENE2,E5430,CAMPO MOURAO,PARANA,PR,Brazil,,,-24.102944,-52.331417,Coordinates given in the herbarium record,Parque Estadual Lago Azul -PELA-,Angiosperms,Orchidaceae,Campylocentrum,aromaticum,Campylocentrum aromaticum,holoepiphyte,,,,,,,Presence_only,608,1558,23.5,Ombrophilous Forest,YES,
KERB_07046,KERB,E7046,FAZENDA RIO GRANDE,PARANA,PR,Brazil,ABUNDANCE,Mixed Ombrophilous Forest,-25.661593,-49.277089,Forest fragment,Fazenda Experimental Gralha Azul,Ferns,Hymenophyllaceae,Didymoglossum,hymenoides,Didymoglossum hymenoides,holoepiphyte,Myrtaceae,Myrcia,hatschbachii,Myrcia hatschbachii,2008,2015,Abundance,910,1304,20.3999996185303,Ombrophilous Forest,YES,
MENE2_00155,MENE2,E0155,WENCESLAU GUIMARAES,BAHIA,BA,Brazil,,,-13.5802778,-39.7047222,Coordinates given in the herbarium record,"Reserva Estadual Wenceslau Guimaraes. 33 Km west of Teolandia. Trilha da Patioba, 2 km from the research center.",Angiosperms,Bromeliaceae,Aechmea,amorimii,Aechmea amorimii,holoepiphyte,,,,,,,Presence_only,442,1275,23.2999992370605,Ombrophilous Forest,YES,
KERB_00497,KERB,E0497,ANTONINA,PARANA,PR,Brazil,ABUNDANCE,Secondary Forest,-25.378213,-48.800209,Forest fragment,RPPN Morro da mina,Angiosperms,Melastomataceae,Pleiochiton,blepharodes,Pleiochiton blepharodes,holoepiphyte,,,,,2006,2009,Presence_only,79,2008,26.1000003814697,Ombrophilous Forest,YES,
KERB_07591,KERB,E7591,FAZENDA RIO GRANDE,PARANA,PR,Brazil,ABUNDANCE,Mixed Ombrophilous Forest,-25.666271,-49.269229,Forest fragment,Fazenda Experimental Gralha Azul 2,Ferns,Polypodiaceae,Pecluma,pectinatiformis,Pecluma pectinatiformis,holoepiphyte,,,,,2015,2017,Abundance,910,1294,20.5,Ombrophilous Forest,YES,
MENE2_09582,MENE2,E17801,GUAPIMIRIM,RIO DE JANEIRO,RJ,Brazil,,,-22.495,-42.9977777,Coordinates given in the herbarium record,Parque Nacional Serra dos Orgaos.,Angiosperms,Piperaceae,Peperomia,glabella,Peperomia glabella,holoepiphyte,,,,,,,Presence_only,280,1709,24.3999996185303,Ombrophilous Forest,YES,
KERB_00358,KERB,E0358,ANTONINA,PARANA,PR,Brazil,ABUNDANCE,Secondary Forest,-25.378213,-48.800209,Forest fragment,RPPN Morro da mina,Angiosperms,Orchidaceae,Epidendrum,strobiliferum,Epidendrum strobiliferum,holoepiphyte,,,,,2006,2009,Presence_only,79,2008,26.1000003814697,Ombrophilous Forest,YES,
KERB_01533,KERB,E1533,PIRAQUARA,PARANA,PR,Brazil,ABUNDANCE,Ecotone between Mixed Ombrophilous and Dense Ombrophilous Forest,-25.497056,-48.981299,Forest fragment,PE Marumbi Nucleo Cayuguava,Angiosperms,Bromeliaceae,Aechmea,caudata,Aechmea caudata,holoepiphyte,,,,,2008,2010,Presence_only,1202,1856,19.6000003814697,Ombrophilous Forest,YES,
FUME_05103,FUME,E5122,LIMA DUARTE,MATO GROSSO DO SUL,MS,Brazil,,Cloud Forest,-21.7086,-43.87404,100,"Parque Estadual do Ibitipoca, Gruta dos Viajantes",Angiosperms,Piperaceae,Peperomia,tetraphylla,Peperomia tetraphylla,holoepiphyte,Nyctaginaceae,Guapira,opposita,Guapira opposita,2014,2014,Presence_absence,1301,1667,19.5,Seasonal Forest,YES,
MENE2_18404,MENE2,E25821,ORLEANS,SANTA CATARINA,SC,Brazil,,,-28.170006,-49.410014,Coordinates given in the herbarium record,Rio Minador,Angiosperms,Cactaceae,Rhipsalis,trigona,Rhipsalis trigona,holoepiphyte,,,,,,,Presence_only,576,1528,22.2000007629395,Savanna,YES,
MENE2_21933,MENE2,E2903,ELDORADO,SAO PAULO,SP,Brazil,,,-24.646389,-48.391944,Coordinates given in the herbarium record,,Angiosperms,Araceae,Anthurium,langsdorffii,Anthurium langsdorffii,holoepiphyte,,,,,,,Presence_only,691,1538,23.7999992370605,Ombrophilous Forest,YES,
ROCH_00011,ROCH,E0011,SAO MIGUEL DO OESTE,SANTA CATARINA,SC,Brazil,,Secondary Forest,-26.74806,-53.404182,Forest fragment,"Linha Dois Irmaos, Campo de Instrucao do Exercito Brasileiro -CI/EB-",Angiosperms,Bromeliaceae,Vriesea,friburgensis,Vriesea friburgensis,holoepiphyte,,,,,2007,2007,Presence_only,296,1880,24.3999996185303,Seasonal Forest,YES,
FUME_05658,FUME,E5677,SANTA RITA DE IBITIPOCA,MATO GROSSO DO SUL,MS,Brazil,,Cloud Forest,-21.67837,-43.88229,100,"Parque Estadual do Ibitipoca, Gruta dos Tres Arcos",Ferns,Dryopteridaceae,Elaphoglossum,gayanum,Elaphoglossum gayanum,holoepiphyte,Myrtaceae,Eugenia,nutans,Eugenia nutans,,,Presence_absence,1714,1772,18,Seasonal Forest,YES,
FUME_00141,FUME,E0141,ALTO CAPARAO,MATO GROSSO DO SUL,MS,Brazil,,Cloud Forest,-20.48032,-41.83186,20,"Parque Nacional do Caparao, Macieira",Ferns,Polypodiaceae,Pleopeltis,macrocarpa,Pleopeltis macrocarpa,facultative,,,,,2017,2017,Presence_absence,2015,1610,16.2999992370605,Seasonal Forest,YES,
FUME_04772,FUME,E4791,LIMA DUARTE,MATO GROSSO DO SUL,MS,Brazil,,Cloud Forest,-21.7086,-43.87404,100,"Parque Estadual do Ibitipoca, Gruta dos Viajantes",Angiosperms,Piperaceae,Peperomia,tetraphylla,Peperomia tetraphylla,holoepiphyte,Euphorbiaceae,Alchornea,triplinervia,Alchornea triplinervia,2014,2014,Presence_absence,1301,1667,19.5,Seasonal Forest,YES,
KERB_00865,KERB,E0865,ANTONINA,PARANA,PR,Brazil,ABUNDANCE,Secondary Forest,-25.378213,-48.800209,Forest fragment,RPPN Morro da mina,Angiosperms,Orchidaceae,Prosthechea,bulbosa,Prosthechea bulbosa,holoepiphyte,,,,,2006,2009,Presence_only,79,2008,26.1000003814697,Ombrophilous Forest,YES,
DGON_00012,DGON,E012,ITATIAIA,RIO DE JANEIRO,RJ,Brazil,1,Riparian Forest,-22.4333,-44.6,10,Parque Nacional do Itatiaia,Angiosperms,Cactaceae,Hatiora,salicornioides,Hatiora salicornioides,holoepiphyte,,,,,2014,2014,Presence_only,1326,1709,18.5,Seasonal Forest,YES,D.R. Gonzaga et al. 362
FUME_03262,FUME,E3281,LIMA DUARTE,MATO GROSSO DO SUL,MS,Brazil,,Cloud Forest,-21.69636,-43.89749,100,"Parque Estadual do Ibitipoca, Gruta do Cruzeiro",Ferns,Polypodiaceae,Pleopeltis,hirsutissima,Pleopeltis hirsutissima,holoepiphyte,Nyctaginaceae,Guapira,opposita,Guapira opposita,2014,2014,Presence_absence,1714,1771,18,Seasonal Forest,YES,
PTEO_00254,PTEO,E0254,CRICIUMA,SANTA CATARINA,SC,Brazil,,Urban Green Area,-28.690313,-49.432734,5,Parque Ecologico Municipal Jose Milanese,Ferns,Polypodiaceae,Microgramma,vacciniifolia,Microgramma vacciniifolia,holoepiphyte,,,,,2010,2011,Presence_absence,117,1345,23.7999992370605,Ombrophilous Forest,YES,
KERB_07239,KERB,E7239,FAZENDA RIO GRANDE,PARANA,PR,Brazil,ABUNDANCE,Mixed Ombrophilous Forest,-25.661593,-49.277089,Forest fragment,Fazenda Experimental Gralha Azul,Ferns,Polypodiaceae,Pleopeltis,pleopeltifolia,Pleopeltis pleopeltifolia,holoepiphyte,Lauraceae,Ocotea,puberula,Ocotea puberula,2008,2015,Abundance,910,1304,20.3999996185303,Ombrophilous Forest,YES,
FRAN_01000,FRAN,E1003,MIMOSO DO SUL,ESPIRITO SANTO,ES,Brazil,1,Primary Forest,-20.936667,-41.553333,Forest fragment,Pedra dos Pontoes:primeira mata nebular,Angiosperms,Orchidaceae,Isochilus,linearis,Isochilus linearis,holoepiphyte,Myrtaceae,Eugenia,longipedunculata,Eugenia longipedunculata,2016,2016,Abundance,634,1391,20.3999996185303,Seasonal Forest,YES,
FUME_03188,FUME,E3207,LIMA DUARTE,MATO GROSSO DO SUL,MS,Brazil,,Cloud Forest,-21.69636,-43.89749,100,"Parque Estadual do Ibitipoca, Gruta do Cruzeiro",Ferns,Polypodiaceae,Melpomene,pilosissima,Melpomene pilosissima,holoepiphyte,Nyctaginaceae,Guapira,opposita,Guapira opposita,2014,2014,Presence_absence,1714,1771,18,Seasonal Forest,YES,
MENE2_11315,MENE2,E19377,IUNA,ESPIRITO SANTO,ES,Brazil,,,-20.419722,-41.507333,Coordinates given in the herbarium record,"Parque Nacional do Caparao, Na beira do Rio no Vale Verde.",Angiosperms,Piperaceae,Peperomia,tetraphylla,Peperomia tetraphylla,holoepiphyte,,,,,,,Presence_only,821,1268,23,Ombrophilous Forest,YES,
MENE_01570,MENE,E1587,JUIZ DE FORA,MATO GROSSO DO SUL,MS,Brazil,,Urban Green Area,-21.7925,-43.3669,100,Parque Natural Municipal da Lajinha,Angiosperms,Bromeliaceae,Tillandsia,recurvata,Tillandsia recurvata,facultative,Arecaceae,Syagrus,romanzoffiana,Syagrus romanzoffiana,2015,2016,Presence_only,774,1503,22.7000007629395,Seasonal Forest,YES,
CROS_00086,CROS,x161,ASSIS,SAO PAULO,SP,Brazil,5,Secondary Forest,-22.596083,-50.3783,10,Estacao Ecologica de Assis,Angiosperms,Bromeliaceae,Tillandsia,recurvata,Tillandsia recurvata,facultative,Anacardiaceae,Tapirira,guianensis,Tapirira guianensis,2015,2015,Abundance,578,1325,23.7000007629395,Savanna,YES,The plots were circular with the tree hosting most epiphytes on the axis
KERB_05555,KERB,E5555,ARAUCARIA,PARANA,PR,Brazil,ABUNDANCE,Secondary Forest,-25.588749,-49.347156,Forest fragment,REPAR,Angiosperms,Orchidaceae,Pabstiella,aveniformis,Pabstiella aveniformis,holoepiphyte,,,,,2000,2002,Abundance,914,1284,20.8999996185303,Ombrophilous Forest,YES,
MENE2_30773,MENE2,E7199,ITAPOA,SANTA CATARINA,SC,Brazil,,,-26.1169,-48.6161,Coordinates given in the herbarium record,Reserva Volta Velha,Angiosperms,Orchidaceae,Dichaea,anchorifera,Dichaea anchorifera,holoepiphyte,,,,,,,Presence_only,1,1878,25.1000003814697,Ombrophilous Forest,YES,
MARO_00070,MARO,70,ROCHA,ROCHA,RO,Uruguay,,Psammophilous Forest,-34.4325,-53.85388889,10,Costa de Oro de Rocha - Cabo Polonio,Ferns,Dryopteridaceae,Rumohra,adiantiformis,Rumohra adiantiformis,facultative,Rutaceae,Zanthoxylum,fagara,Zanthoxylum fagara,2012,2012,Presence_only,,,,,NO,
KERB_06495,KERB,E6495,CURITIBA,PARANA,PR,Brazil,ABUNDANCE,Secondary Forest,-25.417946,-49.305147,Forest fragment,Parque Barigui,Angiosperms,Cactaceae,Lepismium,houlletianum,Lepismium houlletianum,holoepiphyte,,,,,1999,1999,Presence_only,931,1418,21,Ombrophilous Forest,YES,
FUME_05523,FUME,E5542,LIMA DUARTE,MATO GROSSO DO SUL,MS,Brazil,,Cloud Forest,-21.7086,-43.87404,100,"Parque Estadual do Ibitipoca, Gruta dos Viajantes",Ferns,Aspleniaceae,Asplenium,auriculatum,Asplenium auriculatum,holoepiphyte,,,,,2014,2014,Presence_absence,1301,1667,19.5,Seasonal Forest,YES,
AAMO_00422,AAMO,E0422,ALMADINA,BAHIA,BA,Brazil,3,Dense Ombrophilous Forest,-14.7,-39.6,Study site,Reserva Particular da Serra do Corcovado,Angiosperms,Cactaceae,Epiphyllum,phyllanthus,Epiphyllum phyllanthus,holoepiphyte,,,,,2011,2015,Presence_only,252,1223,22.3999996185303,Ombrophilous Forest,YES,
KERB_03779,KERB,E3779,SAO JOAQUIM,SANTA CATARINA,SC,Brazil,ABUNDANCE,,-28.482429,-49.832046,Study site,Rio Pelotas,Ferns,Polypodiaceae,Pecluma,recurvata,Pecluma recurvata,holoepiphyte,,,,,2014,2014,Abundance,1132,1635,19.7999992370605,Ombrophilous Forest,YES,
FRAN_00268,FRAN,E0271,MIMOSO DO SUL,ESPIRITO SANTO,ES,Brazil,1,Inselberg,-20.938611,-41.544167,Study site,Pontoes de Mimoso do Sul: afloramento do Toti,Angiosperms,Bromeliaceae,Neoregelia,pauciflora,Neoregelia pauciflora,holoepiphyte,Nyctaginaceae,Guapira,opposita,Guapira opposita,2015,2015,Abundance,634,1317,21.7999992370605,Seasonal Forest,YES,
KERB_12461,KERB,E12461,PIRAQUARA,PARANA,PR,Brazil,ABUNDANCE,Mixed Ombrophilous Forest,-25.528984,-49.012214,Forest fragment,Haras Santo Antonio,Angiosperms,Orchidaceae,Capanemia,micromera,Capanemia micromera,holoepiphyte,Meliaceae,Cabralea,canjerana,Cabralea canjerana,2002,2006,Abundance,1015,1701,20.3999996185303,Ombrophilous Forest,YES,
MENE2_09264,MENE2,E17512,GUARAQUECABA,PARANA,PR,Brazil,,,-25.3067,-48.3289,Coordinates given in the herbarium record,"Reserva Natural Salto Morato, Trilha da Figueira",Angiosperms,Piperaceae,Peperomia,emarginella,Peperomia emarginella,holoepiphyte,,,,,,,Presence_only,1,2198,26.1000003814697,,YES,
KERB_09844,KERB,E9844,MORRETES,PARANA,PR,Brazil,ABUNDANCE,Dense Ombrophilous Forest,-25.447705,-48.929986,Forest fragment,Morro Facaozinho,Angiosperms,Gesneriaceae,Nematanthus,australis,Nematanthus australis,holoepiphyte,,,,,2000,2001,Presence_only,1175,1714,22.2000007629395,Ombrophilous Forest,YES,
MENE2_26367,MENE2,E33060,SANTA TERESA,ESPIRITO SANTO,ES,Brazil,,,-19.930556,-40.573333,Coordinates given in the herbarium record,"Alto Santo Antonio, Pedra do Cruzeiro, propriedade do Vago.",Angiosperms,Bromeliaceae,Vriesea,unilateralis,Vriesea unilateralis,holoepiphyte,,,,,,,Presence_only,690,1325,22.5,Ombrophilous Forest,YES,
MENE2_00542,MENE2,E0542,LONTRAS,SANTA CATARINA,SC,Brazil,,,-27.135817,-49.530436,Coordinates given in the herbarium record,Salto Pilao,Angiosperms,Bromeliaceae,Aechmea,calyculata,Aechmea calyculata,holoepiphyte,,,,,,,Presence_only,352,1551,23.8999996185303,Ombrophilous Forest,YES,
MENE_01569,MENE,E1586,JUIZ DE FORA,MATO GROSSO DO SUL,MS,Brazil,,Urban Green Area,-21.7925,-43.3669,100,Parque Natural Municipal da Lajinha,Angiosperms,Bromeliaceae,Tillandsia,recurvata,Tillandsia recurvata,facultative,Malvaceae,Pachira,aquatica,Pachira aquatica,2015,2016,Presence_only,774,1503,22.7000007629395,Seasonal Forest,YES,
ANNE_04468,ANNE,14704,PRAIA GRANDE,SANTA CATARINA,SC,Brazil,,Dense Ombrophilous Forest,-29.1667,-50.0167,Municipality,Sol Nascente,Ferns,Polypodiaceae,Pleopeltis,hirsutissima,Pleopeltis hirsutissima,holoepiphyte,,,,,2009,2009,Presence_only,898,1817,20,Savanna,YES,
CBOE_00512,CBOE,Tree100,SAO FRANCISCO DE PAULA,RIO GRANDE DO SUL,RS,Brazil,PA1,Araucaria Plantation,-29.435704,-50.373417,Central point in study site,Floresta Nacional de Sao Francisco de Paula.,Angiosperms,Orchidaceae,Pabstiella,varellae,Pabstiella varellae,holoepiphyte,Araucariaceae,Araucaria,angustifolia,Araucaria angustifolia,2007,2007,Abundance,917,2068,19.5,Savanna,YES,
KERB_06376,KERB,E6376,CAMPO LARGO,PARANA,PR,Brazil,ABUNDANCE,Secondary Forest,-25.453826,-49.635363,Forest fragment,Sao Luiz do Puruna,Angiosperms,Orchidaceae,Zygopetalum,maxillare,Zygopetalum maxillare,holoepiphyte,,,,,2002,2006,Presence_only,917,1574,19.3999996185303,Savanna,YES,
KERB_06759,KERB,E6759,FAZENDA RIO GRANDE,PARANA,PR,Brazil,ABUNDANCE,Mixed Ombrophilous Forest,-25.661593,-49.277089,Forest fragment,Fazenda Experimental Gralha Azul,Ferns,Polypodiaceae,Microgramma,squamulosa,Microgramma squamulosa,holoepiphyte,,,,,2008,2015,Abundance,910,1304,20.3999996185303,Ombrophilous Forest,YES,
FRAN_01007,FRAN,E1010,MIMOSO DO SUL,ESPIRITO SANTO,ES,Brazil,1,Primary Forest,-20.936667,-41.553333,Forest fragment,Pedra dos Pontoes:primeira mata nebular,Angiosperms,Orchidaceae,Isochilus,linearis,Isochilus linearis,holoepiphyte,,,,,2016,2016,Abundance,634,1391,20.3999996185303,Seasonal Forest,YES,
MENE2_29008,MENE2,E5434,TIBAGI,PARANA,PR,Brazil,,,-24.582222,-50.234167,Coordinates given in the herbarium record,Canyon do Guartela,Angiosperms,Orchidaceae,Campylocentrum,aromaticum,Campylocentrum aromaticum,holoepiphyte,,,,,,,Presence_only,907,1467,21,Savanna,YES,
FRAL_00172,FRAL,E0172,JUIZ DE FORA,MATO GROSSO DO SUL,MS,Brazil,,Urban Green Area,-21.76083,-43.35027,100,Parque Halfeld,Angiosperms,Bromeliaceae,Billbergia,horrida,Billbergia horrida,holoepiphyte,Fabaceae,Tipuana,tipu,Tipuana tipu,2015,2016,Presence_only,686,1504,23.2999992370605,Seasonal Forest,YES,
KERB_07737,KERB,E7737,FAZENDA RIO GRANDE,PARANA,PR,Brazil,ABUNDANCE,Mixed Ombrophilous Forest,-25.666271,-49.269229,Forest fragment,Fazenda Experimental Gralha Azul 2,Ferns,Dryopteridaceae,Rumohra,adiantiformis,Rumohra adiantiformis,facultative,,,,,2015,2017,Abundance,910,1294,20.5,Ombrophilous Forest,YES,
KERB_06144,KERB,E6144,CAMPINA GRANDE DO SUL,PARANA,PR,Brazil,ABUNDANCE,,-25.240888,-48.830907,Forest fragment,Morro Caratuva,Ferns,Hymenophyllaceae,Hymenophyllum,polyanthos,Hymenophyllum polyanthos,holoepiphyte,Aquifoliaceae,Ilex,microdonta,Ilex microdonta,2009,2011,Abundance,1714,1907,16.7999992370605,Ombrophilous Forest,YES,
FRAN_00813,FRAN,E0816,MIMOSO DO SUL,ESPIRITO SANTO,ES,Brazil,1,Primary Forest,-20.936667,-41.553333,Forest fragment,Pedra dos Pontoes:primeira mata nebular,Angiosperms,Araceae,Anthurium,scandens,Anthurium scandens,holoepiphyte,Nyctaginaceae,Guapira,opposita,Guapira opposita,2016,2016,Abundance,634,1391,20.3999996185303,Seasonal Forest,YES,
MENE2_21500,MENE2,E28636,MILAGRES,BAHIA,BA,Brazil,,,-12.823611,-39.828611,Coordinates given in the herbarium record,Rio Milagres.,Angiosperms,Bromeliaceae,Tillandsia,recurvata,Tillandsia recurvata,facultative,,,,,,,Presence_only,300,503,24.1000003814697,,NO,
MENE2_18508,MENE2,E25916,URUCUCA,BAHIA,BA,Brazil,,,-14.49,-39.1,Coordinates given in the herbarium record,"Mun>. Urucuca, 9.4 KM. Serra do Conduru vertente E.",Angiosperms,Araceae,Rhodospatha,oblongata,Rhodospatha oblongata,hemiepiphyte,,,,,,,Presence_only,130,1878,24.6000003814697,Ombrophilous Forest,YES,
KERB_06865,KERB,E6865,FAZENDA RIO GRANDE,PARANA,PR,Brazil,ABUNDANCE,Mixed Ombrophilous Forest,-25.661593,-49.277089,Forest fragment,Fazenda Experimental Gralha Azul,Ferns,Pteridaceae,Vittaria,lineata,Vittaria lineata,holoepiphyte,Lauraceae,,,,2008,2015,Abundance,910,1304,20.3999996185303,Ombrophilous Forest,YES,
NUNE_01188,NUNE,FEI,ANGRA DOS REIS,RIO DE JANEIRO,RJ,Brazil,,Secondary Forest,-23.133333,-44.191667,Central point in study site,Morro da Feiticeira,Angiosperms,Bromeliaceae,Vriesea,vagans,Vriesea vagans,holoepiphyte,,,,,2001,2004,Abundance,243,1487,25.1000003814697,Ombrophilous Forest,YES,
MENE2_04793,MENE2,E13448,ILHEUS,BAHIA,BA,Brazil,,,-14.7889,-39.06,Coordinates given in the herbarium record,"3KM ao N da Rodoviaria, mata ao N da represa. mata da Esperanca.",Angiosperms,Araceae,Monstera,adansonii,Monstera adansonii,hemiepiphyte,,,,,,,Presence_only,1,1907,25.8999996185303,,YES,
MENE2_11274,MENE2,E1934,QUISSAMA,RIO DE JANEIRO,RJ,Brazil,,,-22.1067,-41.4722,Coordinates given in the herbarium record,,Angiosperms,Bromeliaceae,Aechmea,nudicaulis,Aechmea nudicaulis,holoepiphyte,,,,,,,Presence_only,5,1081,25.7000007629395,Other,YES,
FUME_04065,FUME,E4084,LIMA DUARTE,MATO GROSSO DO SUL,MS,Brazil,,Cloud Forest,-21.70193,-43.87246,100,"Parque Estadual do Ibitipoca, Gruta do Piao",Angiosperms,Orchidaceae,Octomeria,crassifolia,Octomeria crassifolia,holoepiphyte,Myrtaceae,Eugenia,nutans,Eugenia nutans,2014,2014,Presence_absence,1301,1770,18,Seasonal Forest,YES,
MENE2_21849,MENE2,E28953,MIRANDIBA,PERNAMBUCO,PE,Brazil,,,-8.059722,-38.718611,Coordinates given in the herbarium record,Serra do Tigre,Angiosperms,Bromeliaceae,Tillandsia,streptocarpa,Tillandsia streptocarpa,facultative,,,,,,,Presence_only,,,,,NO,
MENE2_15414,MENE2,E23103,PRUDENTOPOLIS,PARANA,PR,Brazil,,,-25.2131,-50.9778,Coordinates given in the herbarium record,RIO DOS PATOS.,Angiosperms,Orchidaceae,Acianthera,recurva,Acianthera recurva,holoepiphyte,,,,,,,Presence_only,685,1550,21.7999992370605,Ombrophilous Forest,YES,
KESS_00473,KESS,E0473,ALMADINA,BAHIA,BA,Brazil,,Forest Fragment,-14.735,-39.6961,Sampled tree,,Angiosperms,Bromeliaceae,Vriesea,psittacina,Vriesea psittacina,holoepiphyte,,,,,,,Presence_only,311,1118,23.1000003814697,Ombrophilous Forest,YES,
MENE2_19155,MENE2,E26504,SANTO ANTONIO DO SUDOESTE,PARANA,PR,Brazil,,,-26.0736,-53.7253,Coordinates given in the herbarium record,,Angiosperms,Gesneriaceae,Sinningia,douglasii,Sinningia douglasii,holoepiphyte,,,,,,,Presence_only,608,1914,23,Ombrophilous Forest,YES,
MENE2_15792,MENE2,E23447,SANTA BARBARA,MATO GROSSO DO SUL,MS,Brazil,,,-19.9594,-43.4153,Coordinates given in the herbarium record,Serra de Gandarela/C2,Angiosperms,Orchidaceae,Anathallis,sclerophylla,Anathallis sclerophylla,holoepiphyte,,,,,,,Presence_only,787,1376,23,Seasonal Forest,YES,
MENE2_20967,MENE2,E28151,POCO REDONDO,SERGIPE,SE,Brazil,,,-9.66,-37.672778,Coordinates given in the herbarium record,Monumento Natural Grota do Angico,Angiosperms,Bromeliaceae,Tillandsia,loliacea,Tillandsia loliacea,facultative,,,,,,,Presence_only,,,,,NO,
FRAN_01569,FRAN,E1572,MIMOSO DO SUL,ESPIRITO SANTO,ES,Brazil,1,Primary Forest,-20.936667,-41.553333,Forest fragment,Pedra dos Pontoes:primeira mata nebular,Angiosperms,Bromeliaceae,Vriesea,flava,Vriesea flava,holoepiphyte,Sapindaceae,Matayba,guianensis,Matayba guianensis,2016,2016,Abundance,634,1391,20.3999996185303,Seasonal Forest,YES,
MENE2_26275,MENE2,E32977,SANTA TERESA,ESPIRITO SANTO,ES,Brazil,,,-19.9075,-40.553056,Coordinates given in the herbarium record,Reserva Biologica Augusto Ruschi - Nova Lombardia,Angiosperms,Bromeliaceae,Vriesea,simplex,Vriesea simplex,holoepiphyte,,,,,,,Presence_only,702,1316,22.7999992370605,Ombrophilous Forest,YES,
MENE2_05285,MENE2,E13895,UBATUBA,SAO PAULO,SP,Brazil,,,-23.43,-45.07,Coordinates given in the herbarium record,Serra do Mar above Ubatuba,Angiosperms,Gesneriaceae,Nematanthus,fissus,Nematanthus fissus,holoepiphyte,,,,,,,Presence_only,29,2538,25.7000007629395,Ombrophilous Forest,YES,
GOSI_01617,GOSI,E0992,PALHOCA,SANTA CATARINA,SC,Brazil,,Secondary Forest,-27.645,-48.668,Municipality,,Angiosperms,Bromeliaceae,Vriesea,guttata,Vriesea guttata,holoepiphyte,,,,,2014,2017,Presence_only,8,1472,24.5,,YES,
MENE2_11822,MENE2,E19838,SANTA RITA DE JACUTINGA,MATO GROSSO DO SUL,MS,Brazil,,,-22.1494,-44.095,Coordinates given in the herbarium record,,Angiosperms,Piperaceae,Peperomia,urocarpa,Peperomia urocarpa,holoepiphyte,,,,,,,Presence_only,609,1449,23.2000007629395,Seasonal Forest,YES,
MENE2_30290,MENE2,E6716,PARATY,RIO DE JANEIRO,RJ,Brazil,,,-23.2178,-44.7131,Coordinates given in the herbarium record,Trilha do Corisquinho em direcao ao Pico do Cuscuzeiro .,Angiosperms,Orchidaceae,Cirrhaea,fuscolutea,Cirrhaea fuscolutea,holoepiphyte,,,,,,,Presence_only,,2273,26.5,Ombrophilous Forest,YES,
FRAN_00880,FRAN,E0883,MIMOSO DO SUL,ESPIRITO SANTO,ES,Brazil,1,Primary Forest,-20.936667,-41.553333,Forest fragment,Pedra dos Pontoes:primeira mata nebular,Angiosperms,Orchidaceae,Gomesa,imperatoris-maximiliani,Gomesa imperatoris-maximiliani,holoepiphyte,Myrtaceae,Eugenia,rostrata,Eugenia rostrata,2016,2016,Abundance,634,1391,20.3999996185303,Seasonal Forest,YES,
KERB_10789,KERB,E10789,PARANAGUA,PARANA,PR,Brazil,ABUNDANCE,High Restinga Forest,-25.521936,-48.316041,Forest fragment,High height restinga forest,Angiosperms,Orchidaceae,Epidendrum,latilabrum,Epidendrum latilabrum,holoepiphyte,Calophyllaceae,Calophyllum,brasiliense,Calophyllum brasiliense,2000,2002,Presence_only,,,,Ombrophilous Forest,YES,
JABOT_01117,JABOT,495877,COLATINA,ESPIRITO SANTO,ES,Brazil,,,-19.34361,-40.55222,Coordinates given in the herbarium record,,Angiosperms,Bromeliaceae,Billbergia,iridifolia,Billbergia iridifolia,holoepiphyte,,,,,2007,2007,Presence_only,304,1262,24,Ombrophilous Forest,YES,
ELFR_00036,ELFR,E0036,AREADO,MATO GROSSO DO SUL,MS,Brazil,,Forest Fragment,-21.34671111,-46.16713056,Sampled tree,P27,Angiosperms,Orchidaceae,Polystachya,concreta,Polystachya concreta,holoepiphyte,,,,,2015,2016,Abundance,905,1507,22.5,Seasonal Forest,YES,
KERA_00862,KERA,E0862,SERRANOPOLIS DO IGUACU,PARANA,PR,Brazil,,Seasonal Semideciduous Forest,-25.523795,-54.031545,Study site,PN Iguacu,Angiosperms,Bromeliaceae,Acanthostachys,strobilacea,Acanthostachys strobilacea,holoepiphyte,,,,,2007,2007,Presence_only,248,1774,24.7000007629395,Seasonal Forest,YES,
KERB_08340,KERB,E8340,GUARAPUAVA,PARANA,PR,Brazil,ABUNDANCE,Flooded Forest,-25.521863,-51.416667,Forest fragment,Rio Sao Jeronimo,Angiosperms,Orchidaceae,Bulbophyllum,regnellii,Bulbophyllum regnellii,holoepiphyte,Aquifoliaceae,Ilex,theezans,Ilex theezans,2003,2003,Abundance,984,1735,19.7000007629395,Savanna,YES,
MENE2_15614,MENE2,E23285,GARUVA,SANTA CATARINA,SC,Brazil,,,-26.0267,-48.855,Coordinates given in the herbarium record,Rio Palmital,Angiosperms,Orchidaceae,Acianthera,saundersiana,Acianthera saundersiana,holoepiphyte,,,,,,,Presence_only,138,1776,25.2000007629395,Ombrophilous Forest,YES,
MENE2_03836,MENE2,E12578,CANANEIA,SAO PAULO,SP,Brazil,,,-24.900806,-47.84175,Coordinates given in the herbarium record,Parque Estadual da Ilha do Cardoso-trilha morro das almas,Angiosperms,Orchidaceae,Camaridium,vestitum,Camaridium vestitum,holoepiphyte,,,,,,,Presence_only,41,2139,26.1000003814697,,YES,
FUME_04765,FUME,E4784,LIMA DUARTE,MATO GROSSO DO SUL,MS,Brazil,,Cloud Forest,-21.7086,-43.87404,100,"Parque Estadual do Ibitipoca, Gruta dos Viajantes",Angiosperms,Orchidaceae,Octomeria,grandiflora,Octomeria grandiflora,holoepiphyte,Euphorbiaceae,Alchornea,triplinervia,Alchornea triplinervia,2014,2014,Presence_absence,1301,1667,19.5,Seasonal Forest,YES,
VAND_00128,VAND,,POCOS DE CALDAS,MATO GROSSO DO SUL,MS,Brazil,MG11,Edge of Riparian Forest,-21.7854,-46.5619,Municipality,Fazenda de Miguel Carvalho Dias,Angiosperms,Bromeliaceae,Billbergia,distachia,Billbergia distachia,holoepiphyte,Salicaceae,Xylosma,pseudosalzmanii,Xylosma pseudosalzmanii,2005,2006,Abundance,1512,1686,20.7000007629395,Seasonal Forest,YES,
KERB_08844,KERB,E8844,GUARAQUECABA,PARANA,PR,Brazil,ABUNDANCE,Secondary Forest,-25.179626,-48.29724,Forest fragment,RPPN Salto Morato,Ferns,Dryopteridaceae,Elaphoglossum,lingua,Elaphoglossum lingua,holoepiphyte,,,,,1999,2000,Presence_only,100,2174,26.3999996185303,Ombrophilous Forest,YES,
FUME_00851,FUME,E0853,ITAMONTE,MATO GROSSO DO SUL,MS,Brazil,,Cloud Forest,-22.35813,-44.73767,20,"Parque Nacional do Itatiaia, Brejo da Lapa",Angiosperms,Bromeliaceae,Vriesea,itatiaiae,Vriesea itatiaiae,facultative,,,,,2017,2017,Presence_absence,2162,2267,13.8000001907349,Ombrophilous Forest,YES,
FRAL_02148,FRAL,E2148,RIO PRETO,MATO GROSSO DO SUL,MS,Brazil,,Urban Green Area,-22.08972,-43.8275,100,Praca Barao de Santa Clara,Angiosperms,Cactaceae,Epiphyllum,phyllanthus,Epiphyllum phyllanthus,holoepiphyte,Combretaceae,Terminalia,catappa,Terminalia catappa,2017,2018,Presence_only,515,1431,24.2000007629395,Seasonal Forest,YES,
MENE2_16977,MENE2,E24524,MARATAIZES,ESPIRITO SANTO,ES,Brazil,,,-21.0433,-40.8244,Coordinates given in the herbarium record,,Angiosperms,Bromeliaceae,Quesnelia,quesneliana,Quesnelia quesneliana,holoepiphyte,,,,,,,Presence_only,,,,,YES,
MENE2_20154,MENE2,E27412,ITANHAEM,SAO PAULO,SP,Brazil,,,-24.047778,-46.818333,Coordinates given in the herbarium record,"Parque Estadual da Serra do Mar, Nucleo Curucutu",Angiosperms,Bromeliaceae,Tillandsia,gardneri,Tillandsia gardneri,facultative,,,,,,,Presence_only,178,2166,25.7000007629395,Ombrophilous Forest,YES,
KERB_08011,KERB,E8011,GUARAPUAVA,PARANA,PR,Brazil,ABUNDANCE,,-25.521863,-51.416667,Forest fragment,Rio Sao Jeronimo,Ferns,Polypodiaceae,Microgramma,squamulosa,Microgramma squamulosa,holoepiphyte,Canellaceae,Cinnamodendron,dinisii,Cinnamodendron dinisii,2003,2003,Abundance,984,1735,19.7000007629395,Savanna,YES,
MENE2_17581,MENE2,E25073,CACHOEIRO DE ITAPEMIRIM,ESPIRITO SANTO,ES,Brazil,,,-20.8489,-41.1128,Coordinates given in the herbarium record,"Mun. de Cachoeira do Itapemirim, Vargem Alta.",Angiosperms,Cactaceae,Rhipsalis,elliptica,Rhipsalis elliptica,holoepiphyte,,,,,,,Presence_only,108,1057,27.6000003814697,Seasonal Forest,YES,
FEMA_00351,FEMA,E351,ARAQUARI,SANTA CATARINA,SC,Brazil,3,,-26.37,-48.721944,Municipality,Ilha dos Barcos,Ferns,Polypodiaceae,Campyloneurum,rigidum,Campyloneurum rigidum,holoepiphyte,,,,,2017,2017,Presence_only,3,1743,25.1000003814697,,YES,"The specimens examined for this study were compiled from the following herbaria: MBM, MO, NY, P, and UPCB Ribas 3408 -MBM-"
NUNE_00449,NUNE,TV67,CACHOEIRAS DE MACACU,RIO DE JANEIRO,RJ,Brazil,,Secondary Forest,-22.40013417,-42.73340194,10,Guapiacu,Ferns,Polypodiaceae,Microgramma,squamulosa,Microgramma squamulosa,holoepiphyte,Fabaceae,Anadenanthera,colubrina,Anadenanthera colubrina,2017,2017,Abundance,814,1518,24.5,Ombrophilous Forest,YES,
KERB_04821,KERB,E4821,CONTENDA,PARANA,PR,Brazil,ABUNDANCE,Secondary Forest,-25.604126,-49.570547,Forest fragment,General Lucio,Angiosperms,Piperaceae,Peperomia,catharinae,Peperomia catharinae,holoepiphyte,,,,,2002,2006,Abundance,872,1323,21,Ombrophilous Forest,YES,
KERB_04710,KERB,E4710,ARAUCARIA,PARANA,PR,Brazil,ABUNDANCE,Secondary Forest,-25.587389,-49.449341,Forest fragment,Campina das Pedras,Ferns,Polypodiaceae,Pleopeltis,hirsutissima,Pleopeltis hirsutissima,holoepiphyte,,,,,2002,2006,Abundance,880,1310,20.8999996185303,Ombrophilous Forest,YES,
MENE2_15233,MENE2,E22939,PONTA GROSSA,PARANA,PR,Brazil,,,-25.1,-50.16,Coordinates given in the herbarium record,Capao Grande,Angiosperms,Orchidaceae,Acianthera,perdusenii,Acianthera perdusenii,holoepiphyte,,,,,,,Presence_only,908,1474,21.6000003814697,Savanna,YES,
PERB_00925,PERB,E1015,RIO DE JANEIRO,RIO DE JANEIRO,RJ,Brazil,,,-22.9083,-43.1971,Municipality,"FLORESTA DA TIJUCA , NA SUBIDA PARA O PICO DA TIJUCA.",Angiosperms,Gesneriaceae,Nematanthus,crassifolius,Nematanthus crassifolius,holoepiphyte,,,,,1973,1973,Presence_only,20,1249,26.2999992370605,Ombrophilous Forest,YES,Example
CBOE_00113,CBOE,Tree19,SAO FRANCISCO DE PAULA,RIO GRANDE DO SUL,RS,Brazil,FO1,Mixed Ombrophilous Forest,-29.405985,-50.389234,Central point in study site,Floresta Nacional de Sao Francisco de Paula.,Ferns,Polypodiaceae,Microgramma,squamulosa,Microgramma squamulosa,holoepiphyte,Cunoniaceae,Lamanonia,ternata,Lamanonia ternata,2007,2007,Abundance,917,2086,19.6000003814697,Savanna,YES,
FRAL_01564,FRAL,E1564,JUIZ DE FORA,MATO GROSSO DO SUL,MS,Brazil,,Urban Green Area,-21.750556,-43.358056,50,Praca Mahatma Gandhi,Angiosperms,Bromeliaceae,Tillandsia,recurvata,Tillandsia recurvata,facultative,Fabaceae,Delonix,regia,Delonix regia,2015,2016,Presence_only,686,1501,23.6000003814697,Seasonal Forest,YES,
FUME_02509,FUME,E2527,LIMA DUARTE,MATO GROSSO DO SUL,MS,Brazil,,Cloud Forest,-21.70188,-43.88374,100,"Parque Estadual do Ibitipoca, Gruta do Monjolinho",Ferns,Polypodiaceae,Pleopeltis,hirsutissima,Pleopeltis hirsutissima,holoepiphyte,Asteraceae,Eremanthus,erythropappus,Eremanthus erythropappus,2014,2014,Presence_absence,1576,1692,19.1000003814697,Seasonal Forest,YES,
ANNE_00526,ANNE,14202,BOTUVERA,SANTA CATARINA,SC,Brazil,,Dense Ombrophilous Forest,-27.2667,-49.2167,Municipality,Cinema,Angiosperms,Araceae,Anthurium,gaudichaudianum,Anthurium gaudichaudianum,holoepiphyte,,,,,2009,2009,Presence_only,610,1629,22.2000007629395,Ombrophilous Forest,YES,
NUNE_02051,NUNE,AD228,GUAPIMIRIM,RIO DE JANEIRO,RJ,Brazil,25A14,Secondary Forest,-22.47444444,-42.99972222,Study site,Vale do Garrafao,Ferns,Polypodiaceae,Pleopeltis,pleopeltifolia,Pleopeltis pleopeltifolia,holoepiphyte,,,,,2007,2008,Abundance,689,1730,22.7000007629395,Ombrophilous Forest,YES,
KERB_08137,KERB,E8137,GUARAPUAVA,PARANA,PR,Brazil,ABUNDANCE,,-25.521863,-51.416667,Forest fragment,Rio Sao Jeronimo,Angiosperms,Orchidaceae,Acianthera,sonderiana,Acianthera sonderiana,holoepiphyte,Aquifoliaceae,Ilex,theezans,Ilex theezans,2003,2003,Abundance,984,1735,19.7000007629395,Savanna,YES,
PERE_00159,PERE,TS474,TEODORO SAMPAIO,SAO PAULO,SP,Brazil,,Forest Interior,-22.528635,-52.377733,2000,Fragmento no assentamento Ribeirao Bonito,Angiosperms,Moraceae,Ficus,citrifolia,Ficus citrifolia,hemiepiphyte,,,,,2007,2011,Abundance,312,1190,25.2000007629395,Seasonal Forest,YES,Fragmento de 129 ha; habito terricola habito terricola:sim
BREI_00415,BREI,E415,SETE BARRAS,SAO PAULO,SP,Brazil,T.B. BREIER 0683,Primary Forest,-24.168333,-47.936111,5000,Parque Estadual Carlos Botelho,Ferns,Hymenophyllaceae,Hymenophyllum,hirsutum,Hymenophyllum hirsutum,holoepiphyte,,,,,2002,2005,Presence_only,489,1511,22.7000007629395,Ombrophilous Forest,YES,
NUNE_01177,NUNE,PAL,ANGRA DOS REIS,RIO DE JANEIRO,RJ,Brazil,,Secondary Forest,-23.15,-44.141667,Central point in study site,Praia de Palmas,Angiosperms,Bromeliaceae,Tillandsia,tenuifolia,Tillandsia tenuifolia,facultative,,,,,2001,2004,Abundance,15,1468,25.3999996185303,,YES,
KERB_12549,KERB,E12549,PIRAQUARA,PARANA,PR,Brazil,ABUNDANCE,Mixed Ombrophilous Forest,-25.528984,-49.012214,Forest fragment,Haras Santo Antonio,Ferns,Polypodiaceae,Leucotrichum,schenckii,Leucotrichum schenckii,holoepiphyte,Myrtaceae,Calyptranthes,concinna,Calyptranthes concinna,2002,2006,Abundance,1015,1701,20.3999996185303,Ombrophilous Forest,YES,
FUME_07139,FUME,E7159,BAEPENDI,MATO GROSSO DO SUL,MS,Brazil,,Mixed Ombrophilous Forest,-22.142,-44.7328,2000,Parque Estadual da Serra do Papagaio,Ferns,Polypodiaceae,Campyloneurum,angustifolium,Campyloneurum angustifolium,holoepiphyte,Podocarpaceae,Podocarpus,lambertii,Podocarpus lambertii,2012,2013,Presence_absence,1798,1890,17.1000003814697,Other,YES,
MENE2_29953,MENE2,E6379,ITABERABA,BAHIA,BA,Brazil,,,-12.412222,-40.536667,Coordinates given in the herbarium record,"Serra 1, Faz. Gameleira, entrando entre a Faz. Monte Verde e a Faz. Leao dos Brejos.",Angiosperms,Bromeliaceae,Catopsis,sessiliflora,Catopsis sessiliflora,holoepiphyte,,,,,,,Presence_only,442,735,22,Seasonal Forest,YES,
KERB_03642,KERB,E3642,SAO JOAQUIM,SANTA CATARINA,SC,Brazil,ABUNDANCE,,-28.482429,-49.832046,Study site,Rio Pelotas,Angiosperms,Commelinaceae,Tradescantia,fluminensis,Tradescantia fluminensis,facultative,,,,,2014,2014,Abundance,1132,1635,19.7999992370605,Ombrophilous Forest,YES,
KERA_00538,KERA,E0538,CURITIBA,PARANA,PR,Brazil,,Mixed Ombrophilous Forest,-25.435923,-49.219497,Forest fragment,Capao da Imbuia,Angiosperms,Gesneriaceae,Sinningia,douglasii,Sinningia douglasii,holoepiphyte,,,,,2001,2002,Presence_only,914,1365,21.1000003814697,Ombrophilous Forest,YES,
MENE2_11566,MENE2,E19605,FOZ DO IGUACU,PARANA,PR,Brazil,,,-25.5478,-54.5881,Coordinates given in the herbarium record,"Parque Nacional do Iguacu, Trilha da Represa Sao Joao",Angiosperms,Piperaceae,Peperomia,urocarpa,Peperomia urocarpa,holoepiphyte,,,,,,,Presence_only,176,1732,26.2000007629395,,YES,
MENE2_05648,MENE2,E14225,BARRA DO TURVO,SAO PAULO,SP,Brazil,,,-24.931111,-48.417222,Coordinates given in the herbarium record,"P.E.Jacupiranga, nucleo Caverna do Diabo",Angiosperms,Gesneriaceae,Nematanthus,tessmannii,Nematanthus tessmannii,holoepiphyte,,,,,,,Presence_only,639,1692,22.8999996185303,Ombrophilous Forest,YES,
KERB_06683,KERB,E6683,FAZENDA RIO GRANDE,PARANA,PR,Brazil,ABUNDANCE,Mixed Ombrophilous Forest,-25.661593,-49.277089,Forest fragment,Fazenda Experimental Gralha Azul,Ferns,Aspleniaceae,Asplenium,gastonis,Asplenium gastonis,facultative,,,,,2008,2015,Abundance,910,1304,20.3999996185303,Ombrophilous Forest,YES,
FEMA_00859,FEMA,E859,CACHOEIRAS DE MACACU,RIO DE JANEIRO,RJ,Brazil,4,Primary Forest,-22.433333,-42.833333,Coordinates given in the herbarium record,"Estacao Ecologica Estadual de Paraiso, caminho para o Morro do Pirulito, vale do rio Falcao",Ferns,Dryopteridaceae,Elaphoglossum,scolopendrifolium,Elaphoglossum scolopendrifolium,holoepiphyte,,,,,2010,2014,Presence_only,582,1569,24.3999996185303,Ombrophilous Forest,YES,"The specimens examined for this study were compiled from the following herbaria: AAU, B, BHCB, BM, BR, CEPEC, F, FLOR, FURB, GH, HB, HBR, HUEFS, INPA, K, M, MBM, MBML, MO, NY, R, RB, P, PH, PI, S, SP, SPF, UC, UPCB, and US Sylvestre 679 -RB-"
NUNE_02864,NUNE,AD1041,TERESOPOLIS,RIO DE JANEIRO,RJ,Brazil,C1000P14A4,Secondary Forest,-22.45,-42.98916667,140,Parque Nacional da Serra dos Orgaos -Estrada principal da Sede Teresopolis-,Angiosperms,Bromeliaceae,Vriesea,gigantea,Vriesea gigantea,holoepiphyte,,,,,2012,2016,Presence_only,1079,1743,20.6000003814697,Ombrophilous Forest,YES,507
MENE2_16511,MENE2,E24100,SAO JOSE,SANTA CATARINA,SC,Brazil,,,-27.540278,-48.689444,Coordinates given in the herbarium record,Forquilhas,Angiosperms,Orchidaceae,Prosthechea,bulbosa,Prosthechea bulbosa,holoepiphyte,,,,,,,Presence_only,222,1575,23.6000003814697,Ombrophilous Forest,YES,
MENE2_04706,MENE2,E13369,CARIACICA,ESPIRITO SANTO,ES,Brazil,,,-20.3025,-40.481944,Coordinates given in the herbarium record,Reserva Biologica Duas Bocas,Angiosperms,Araceae,Monstera,adansonii,Monstera adansonii,hemiepiphyte,,,,,,,Presence_only,485,1201,25.5,Ombrophilous Forest,YES,
MENE2_31240,MENE2,E7666,ALEGRE,ESPIRITO SANTO,ES,Brazil,,,-20.7636,-41.5331,Coordinates given in the herbarium record,Pedra da Carneira,Angiosperms,Bromeliaceae,Edmundoa,lindenii,Edmundoa lindenii,holoepiphyte,,,,,,,Presence_only,312,1134,25.8999996185303,Seasonal Forest,YES,
KERB_08969,KERB,E8969,GUARAQUECABA,PARANA,PR,Brazil,ABUNDANCE,Secondary Forest,-25.179626,-48.29724,Forest fragment,RPPN Salto Morato,Angiosperms,Orchidaceae,Promenaea,stapelioides,Promenaea stapelioides,holoepiphyte,,,,,1999,2000,Presence_only,100,2174,26.3999996185303,Ombrophilous Forest,YES,
KERB_11815,KERB,E11815,PARANAGUA,PARANA,PR,Brazil,ABUNDANCE,Low Restinga Forest,-25.521936,-48.316041,Forest fragment,Low height restinga forest,Angiosperms,Orchidaceae,Octomeria,gracilis,Octomeria gracilis,holoepiphyte,Clusiaceae,Clusia,criuva,Clusia criuva,1997,1999,Presence_only,,,,Ombrophilous Forest,YES,
MENE2_10858,MENE2,E18961,IGUAPE,SAO PAULO,SP,Brazil,,,-24.7081,-47.5553,Coordinates given in the herbarium record,,Angiosperms,Piperaceae,Peperomia,serpens,Peperomia serpens,holoepiphyte,,,,,,,Presence_only,69,1769,25.2000007629395,Ombrophilous Forest,YES,
MENE2_01610,MENE2,E10554,UNA,BAHIA,BA,Brazil,,,-15.2933,-39.0753,Coordinates given in the herbarium record,Reserva Biologica do Mico-leao -IBAMA-. Entrada no km 46 da Rod. BA-001 Ilheus/Una. 8-10 Kms na estrada que margeia ao Rio Maruim. Picada paralela ao rio Maruim.,Angiosperms,Bromeliaceae,Hohenbergia,ramageana,Hohenbergia ramageana,holoepiphyte,,,,,,,Presence_only,7,1618,25.7999992370605,Other,YES,
KESS_01101,KESS,E1101,APIUNA,SANTA CATARINA,SC,Brazil,,Forest Fragment,-27.09,-49.4108,Sampled tree,,Angiosperms,Bromeliaceae,Vriesea,ensiformis,Vriesea ensiformis,holoepiphyte,,,,,,,Presence_only,304,1577,23.7999992370605,Ombrophilous Forest,YES,
KERB_05837,KERB,E5837,BALSA NOVA,PARANA,PR,Brazil,ABUNDANCE,Secondary Forest,-25.553261,-49.808853,Forest fragment,Ponte dos Arcos,Angiosperms,Orchidaceae,Trichocentrum,pumilum,Trichocentrum pumilum,holoepiphyte,,,,,2002,2006,Abundance,882,1364,21.2000007629395,Other,YES,
MENE2_03155,MENE2,E11959,SAO PAULO,SAO PAULO,SP,Brazil,,,-23.5475,-46.6361,Coordinates given in the herbarium record,Jardim Botanico-Nativa no Jardim,Angiosperms,Orchidaceae,Heterotaxis,brasiliensis,Heterotaxis brasiliensis,holoepiphyte,,,,,,,Presence_only,634,1341,21.6000003814697,Savanna,YES,
KERB_08051,KERB,E8051,GUARAPUAVA,PARANA,PR,Brazil,ABUNDANCE,,-25.521863,-51.416667,Forest fragment,Rio Sao Jeronimo,Ferns,Polypodiaceae,Microgramma,squamulosa,Microgramma squamulosa,holoepiphyte,Podocarpaceae,Podocarpus,lambertii,Podocarpus lambertii,2003,2003,Abundance,984,1735,19.7000007629395,Savanna,YES,
KERB_02308,KERB,E2308,BOM JESUS,RIO GRANDE DO SUL,RS,Brazil,ABUNDANCE,,-28.464002,-50.157705,Forest fragment,Rio Pelotas,Ferns,Polypodiaceae,Microgramma,squamulosa,Microgramma squamulosa,holoepiphyte,,,,,2014,2014,Abundance,996,1605,20.6000003814697,Savanna,YES,
KERA_00991,KERA,E0991,CAMPO MOURAO,PARANA,PR,Brazil,,Seasonal Semideciduous Forest,-24.001511,-52.342903,Forest fragment,Capela do Calvario,Angiosperms,Araceae,Philodendron,bipinnatifidum,Philodendron bipinnatifidum,hemiepiphyte,,,,,2010,2010,Presence_only,555,1514,23.8999996185303,Ombrophilous Forest,YES,
PERB_01256,PERB,E1399,BERTIOGA,SAO PAULO,SP,Brazil,,,-23.8064,-46.059,20,"Guaratuba, Fazenda Tres Marias, estrada da captacao.",Angiosperms,Gesneriaceae,Codonanthe,devosiana,Codonanthe devosiana,holoepiphyte,,,,,1999,1999,Presence_only,,2817,25.7000007629395,,YES,Example
PERB_02080,PERB,E2224,CANANEIA,SAO PAULO,SP,Brazil,,,-25.0126,-47.9353,20,Morro Sao Joao da entrada na SABESP ate o mirante.,Angiosperms,Gesneriaceae,Codonanthe,gracilis,Codonanthe gracilis,holoepiphyte,,,,,2013,2013,Presence_only,16,2436,26.6000003814697,Ombrophilous Forest,YES,Example
MENE2_21682,MENE2,E28801,PINDOBACU,BAHIA,BA,Brazil,,,-10.076389,-40.379167,Coordinates given in the herbarium record,Serra da Paciencia.,Angiosperms,Bromeliaceae,Tillandsia,sprengeliana,Tillandsia sprengeliana,facultative,,,,,,,Presence_only,,,,,NO,
MENE2_04533,MENE2,E13211,ITATIAIA,RIO DE JANEIRO,RJ,Brazil,,,-22.4961,-44.5633,Coordinates given in the herbarium record,BENFICA.,Angiosperms,Orchidaceae,Miltonia,spectabilis,Miltonia spectabilis,holoepiphyte,,,,,,,Presence_only,407,1501,24.6000003814697,Seasonal Forest,YES,
KERB_09494,KERB,E9494,LONDRINA,PARANA,PR,Brazil,ABUNDANCE,Secondary Forest,-23.445244,-51.244324,Forest fragment,PE Mata dos Godoy,Angiosperms,Orchidaceae,Acianthera,pubescens,Acianthera pubescens,holoepiphyte,,,,,,,Presence_only,611,1501,23.5,Seasonal Forest,YES,
MENE2_28338,MENE2,E4764,RIO NOVO DO SUL,ESPIRITO SANTO,ES,Brazil,,,-20.8625,-40.9364,Coordinates given in the herbarium record,Guiomar.,Angiosperms,Bromeliaceae,Billbergia,reichardtii,Billbergia reichardtii,holoepiphyte,,,,,,,Presence_only,162,1051,27.1000003814697,Seasonal Forest,YES,
FUME_04433,FUME,E4452,LIMA DUARTE,MATO GROSSO DO SUL,MS,Brazil,,Cloud Forest,-21.70193,-43.87246,100,"Parque Estadual do Ibitipoca, Gruta do Piao",Ferns,Polypodiaceae,Pleopeltis,hirsutissima,Pleopeltis hirsutissima,holoepiphyte,,,,,2014,2014,Presence_absence,1301,1770,18,Seasonal Forest,YES,
ANNE_03338,ANNE,28271,RIO DOS CEDROS,SANTA CATARINA,SC,Brazil,,Dense Montane Ombrophilous Forest,-26.55,-49.4,Municipality,Rio Mergulhao,Angiosperms,Bromeliaceae,Nidularium,innocentii,Nidularium innocentii,holoepiphyte,,,,,2010,2010,Presence_only,684,1525,21,Ombrophilous Forest,YES,
ELFR_00027,ELFR,E0027,PARAGUACU,MATO GROSSO DO SUL,MS,Brazil,,Forest Fragment,-21.43754444,-45.76397778,Sampled tree,P21,Angiosperms,Orchidaceae,Polystachya,concreta,Polystachya concreta,holoepiphyte,,,,,2015,2016,Abundance,789,1443,23.6000003814697,Seasonal Forest,YES,
FRAL_01295,FRAL,E1295,JUIZ DE FORA,MATO GROSSO DO SUL,MS,Brazil,,Urban Green Area,-21.7769,-43.34305,100,Praca Garrastazu Medici,Angiosperms,Bromeliaceae,Tillandsia,tricholepis,Tillandsia tricholepis,holoepiphyte,Magnoliaceae,Magnolia,champaca,Magnolia champaca,2015,2016,Presence_only,692,1498,23.2999992370605,Seasonal Forest,YES,
KERB_06569,KERB,E6569,FAZENDA RIO GRANDE,PARANA,PR,Brazil,ABUNDANCE,Mixed Ombrophilous Forest,-25.661593,-49.277089,Forest fragment,Fazenda Experimental Gralha Azul,Angiosperms,Bromeliaceae,Tillandsia,tenuifolia,Tillandsia tenuifolia,facultative,Anacardiaceae,Schinus,terebinthifolia,Schinus terebinthifolia,2008,2015,Abundance,910,1304,20.3999996185303,Ombrophilous Forest,YES,
JABOT_02507,JABOT,428675,COLOMBO,PARANA,PR,Brazil,,,-25.29,-49.22,Municipality,,Angiosperms,Piperaceae,Peperomia,urocarpa,Peperomia urocarpa,holoepiphyte,,,,,2004,2004,Presence_only,931,1584,20.5,Ombrophilous Forest,YES,
FRAL_01011,FRAL,E1011,JUIZ DE FORA,MATO GROSSO DO SUL,MS,Brazil,,Urban Green Area,-21.753056,-43.358333,50,Praca Armando Toschi Ministrinho,Angiosperms,Cactaceae,Rhipsalis,lindbergiana,Rhipsalis lindbergiana,holoepiphyte,Fabaceae,Tipuana,tipu,Tipuana tipu,2015,2016,Presence_only,686,1501,23.6000003814697,Seasonal Forest,YES,
MENE2_30037,MENE2,E6463,PARIQUERA-ACU,SAO PAULO,SP,Brazil,,,-24.608333,-47.885,Coordinates given in the herbarium record,Estacao Experimental do IAC,Angiosperms,Orchidaceae,Cattleya,forbesii,Cattleya forbesii,holoepiphyte,,,,,,,Presence_only,83,1620,26.1000003814697,Ombrophilous Forest,YES,
MENE2_07502,MENE2,E15910,JUIZ DE FORA,MATO GROSSO DO SUL,MS,Brazil,,,-21.7642,-43.3503,Coordinates given in the herbarium record,,Angiosperms,Orchidaceae,Gomesa,ranifera,Gomesa ranifera,holoepiphyte,,,,,,,Presence_only,686,1504,23.2999992370605,Seasonal Forest,YES,
MENE2_21028,MENE2,E28207,IBIPORA,PARANA,PR,Brazil,,,-23.2692,-51.0481,Coordinates given in the herbarium record,Sitio do Salto,Angiosperms,Bromeliaceae,Tillandsia,mallemontii,Tillandsia mallemontii,holoepiphyte,,,,,,,Presence_only,477,1333,24.2999992370605,Seasonal Forest,YES,
PERB_00651,PERB,E0694,NOVA FRIBURGO,RIO DE JANEIRO,RJ,Brazil,,,-22.28190041,-42.53110123,20,Serra de Friburgo,Angiosperms,Gesneriaceae,Nematanthus,crassifolius,Nematanthus crassifolius,holoepiphyte,,,,,1883,1883,Presence_only,922,1372,21.7999992370605,Ombrophilous Forest,YES,Example
KERB_04364,KERB,E4364,ANTONINA,PARANA,PR,Brazil,ABUNDANCE,Secondary Forest,-25.378213,-48.800209,Forest fragment,RPPN Morro da mina,Angiosperms,Cactaceae,Rhipsalis,teres,Rhipsalis teres,holoepiphyte,,,,,2006,2009,Presence_only,79,2008,26.1000003814697,Ombrophilous Forest,YES,
MENE2_04234,MENE2,E1294,BERTIOGA,SAO PAULO,SP,Brazil,,,-23.8544,-46.1386,Coordinates given in the herbarium record,,Angiosperms,Bromeliaceae,Aechmea,gracilis,Aechmea gracilis,holoepiphyte,,,,,,,Presence_only,1,2682,25.5,,YES,
CBUZ_00130,CBUZ,E0130,UNIAO DA VITORIA,PARANA,PR,Brazil,1,,-26.245099,-51.088043,Municipality,,Angiosperms,Orchidaceae,Capanemia,micromera,Capanemia micromera,holoepiphyte,,,,,2007,2017,Presence_only,717,1666,22.5,Ombrophilous Forest,YES,
MENE2_16894,MENE2,E24449,ANTONINA,PARANA,PR,Brazil,,,-25.4311,-48.7401,Coordinates given in the herbarium record,,Angiosperms,Bromeliaceae,Quesnelia,imbricata,Quesnelia imbricata,facultative,,,,,,,Presence_only,86,2085,25.7999992370605,Ombrophilous Forest,YES,
PERB_01597,PERB,E1740,JUNDIAI,SAO PAULO,SP,Brazil,,,-23.216667,-46.933333,Municipality,,Angiosperms,Gesneriaceae,Nematanthus,striatus,Nematanthus striatus,holoepiphyte,,,,,2007,2007,Presence_only,901,1329,20.7000007629395,Ombrophilous Forest,YES,Example
MENE2_12113,MENE2,E20102,CASTELO,ESPIRITO SANTO,ES,Brazil,,,-20.516111,-41.083611,Coordinates given in the herbarium record,Parque Estadual do Forno Grande,Angiosperms,Araceae,Philodendron,appendiculatum,Philodendron appendiculatum,hemiepiphyte,,,,,,,Presence_only,1624,1396,20.1000003814697,Ombrophilous Forest,YES,
NUNE_01892,NUNE,AD069,GUAPIMIRIM,RIO DE JANEIRO,RJ,Brazil,9A1,Secondary Forest,-22.47444444,-42.99972222,Study site,Vale do Garrafao,Ferns,Polypodiaceae,Microgramma,squamulosa,Microgramma squamulosa,holoepiphyte,,,,,2007,2008,Abundance,689,1730,22.7000007629395,Ombrophilous Forest,YES,
MENE2_11436,MENE2,E19487,ELDORADO DO SUL,RIO GRANDE DO SUL,RS,Brazil,,,-30.0839,-51.6161,Coordinates given in the herbarium record,Estacao Experimental Agronomica da UFRGS Arroio Calombo,Angiosperms,Piperaceae,Peperomia,trineura,Peperomia trineura,holoepiphyte,,,,,,,Presence_only,87,1363,24.7999992370605,,NO,
FRAN_00626,FRAN,E0629,MIMOSO DO SUL,ESPIRITO SANTO,ES,Brazil,1,Inselberg,-20.938862,-41.544418,Study site,Pontoes de Mimoso do Sul: afloramento do Toti,Angiosperms,Bromeliaceae,Tillandsia,usneoides,Tillandsia usneoides,holoepiphyte,Nyctaginaceae,Guapira,opposita,Guapira opposita,2015,2015,Presence_only,634,1317,21.7999992370605,Seasonal Forest,YES,
MARC_00254,MARC,E0254,UBATUBA,SAO PAULO,SP,Brazil,3,Dense Ombrophilous Forest,-23.238611,-44.980833,Plot,"Parque Estadual da Serra do Mar, parcela permanente",Angiosperms,Orchidaceae,Octomeria,tricolor,Octomeria tricolor,holoepiphyte,,,,,2013,2013,Presence_only,1218,1676,18.3999996185303,Ombrophilous Forest,YES,
MENE2_30851,MENE2,E7277,RIO DE JANEIRO,RIO DE JANEIRO,RJ,Brazil,,,-22.8333333,-43.3333333,Coordinates given in the herbarium record,"Parque Nacional da Tijuca, trilha Praca Bom Retiro - morro da Cocanha.",Angiosperms,Orchidaceae,Dichaea,cogniauxiana,Dichaea cogniauxiana,holoepiphyte,,,,,,,Presence_only,30,1208,26.2000007629395,Ombrophilous Forest,YES,
MENE2_28955,MENE2,E5381,NOVA IGUACU,RIO DE JANEIRO,RJ,Brazil,,,-22.5580556,-43.4702778,Coordinates given in the herbarium record,"Res. Biol. de Tingua, Pedra 90.",Angiosperms,Orchidaceae,Camaridium,carinatum,Camaridium carinatum,holoepiphyte,,,,,,,Presence_only,804,1680,22.2999992370605,Ombrophilous Forest,YES,
MENE2_06642,MENE2,E15129,MANGARATIBA,RIO DE JANEIRO,RJ,Brazil,,,-22.9597,-44.0406,Coordinates given in the herbarium record,,Angiosperms,Bromeliaceae,Nidularium,procerum,Nidularium procerum,holoepiphyte,,,,,,,Presence_only,130,1487,25.7000007629395,,YES,
ANNE_00484,ANNE,20224,TAIO,SANTA CATARINA,SC,Brazil,,Dense Ombrophilous Forest,-27,-50.1167,Municipality,Fazenda Taruma,Angiosperms,Orchidaceae,Anathallis,adenochila,Anathallis adenochila,holoepiphyte,,,,,2010,2010,Presence_only,899,1525,21.2999992370605,Ombrophilous Forest,YES,
KERB_00998,KERB,E0998,ANTONINA,PARANA,PR,Brazil,ABUNDANCE,Secondary Forest,-25.378213,-48.800209,Forest fragment,RPPN Morro da mina,Ferns,Polypodiaceae,Pleopeltis,pleopeltifolia,Pleopeltis pleopeltifolia,holoepiphyte,,,,,2006,2009,Presence_only,79,2008,26.1000003814697,Ombrophilous Forest,YES,
MENE_01219,MENE,E1233,JUIZ DE FORA,MATO GROSSO DO SUL,MS,Brazil,,Urban Green Area,-21.7467,-43.3606,100,Museu Mariano Procopio,Angiosperms,Bromeliaceae,Tillandsia,tricholepis,Tillandsia tricholepis,holoepiphyte,Myrtaceae,Syzygium,jambos,Syzygium jambos,2015,2016,Presence_only,686,1503,23.6000003814697,Seasonal Forest,YES,
FUME_04090,FUME,E4109,LIMA DUARTE,MATO GROSSO DO SUL,MS,Brazil,,Cloud Forest,-21.70193,-43.87246,100,"Parque Estadual do Ibitipoca, Gruta do Piao",Ferns,Polypodiaceae,Pleopeltis,hirsutissima,Pleopeltis hirsutissima,holoepiphyte,Myrtaceae,Eugenia,nutans,Eugenia nutans,2014,2014,Presence_absence,1301,1770,18,Seasonal Forest,YES,
GOSI_01636,GOSI,E1132,BARRA VELHA,SANTA CATARINA,SC,Brazil,,Secondary Forest,-26.632,-48.685,Municipality,,Angiosperms,Bromeliaceae,Vriesea,inflata,Vriesea inflata,holoepiphyte,,,,,2014,2017,Presence_only,,,,,YES,
MENE2_23291,MENE2,E30264,PARANAGUA,PARANA,PR,Brazil,,,-25.5564,-48.6264,Coordinates given in the herbarium record,Alexandra,Angiosperms,Orchidaceae,Trigonidium,obtusum,Trigonidium obtusum,holoepiphyte,,,,,,,Presence_only,25,2058,25.2000007629395,Ombrophilous Forest,YES,
MENE2_24031,MENE2,E30937,WENCESLAU GUIMARAES,BAHIA,BA,Brazil,,,-13.566667,-39.711944,Coordinates given in the herbarium record,localidade de Estacao Ecologica Estadual Nova Esperanca.,Angiosperms,Bromeliaceae,Vriesea,carinata,Vriesea carinata,holoepiphyte,,,,,,,Presence_only,450,1126,21.2999992370605,Ombrophilous Forest,YES,
MENE2_20258,MENE2,E27507,SERRA,ESPIRITO SANTO,ES,Brazil,,,-20.1551,-40.2511,Coordinates given in the herbarium record,"Foz do Rio Bubu, Regiao de transicao entre manguezal e tabuleiro.",Angiosperms,Bromeliaceae,Tillandsia,gardneri,Tillandsia gardneri,facultative,,,,,,,Presence_only,35,1091,27.2000007629395,Ombrophilous Forest,YES,
KERB_11342,KERB,E11342,PARANAGUA,PARANA,PR,Brazil,ABUNDANCE,Low Restinga Forest,-25.521936,-48.316041,Forest fragment,Low height restinga forest,Angiosperms,Bromeliaceae,Vriesea,rodigasiana,Vriesea rodigasiana,holoepiphyte,Lauraceae,Ocotea,pulchella,Ocotea pulchella,1997,1999,Presence_only,,,,Ombrophilous Forest,YES,
GOSI_01429,GOSI,E0281,RIBEIRAO GRANDE,SAO PAULO,SP,Brazil,,Secondary Forest,-24.099,-48.365,Municipality,,Angiosperms,Bromeliaceae,Vriesea,carinata,Vriesea carinata,holoepiphyte,,,,,2014,2017,Presence_only,860,1280,22.5,Other,YES,
KERB_10018,KERB,E10018,MORRETES,PARANA,PR,Brazil,ABUNDANCE,Dense Ombrophilous Forest,-25.447705,-48.929986,Forest fragment,Morro Facaozinho,Ferns,Dryopteridaceae,Rumohra,adiantiformis,Rumohra adiantiformis,facultative,,,,,2000,2001,Presence_only,1175,1714,22.2000007629395,Ombrophilous Forest,YES,
MENE2_17629,MENE2,E25117,DOM PEDRO DE ALCANTARA,RIO GRANDE DO SUL,RS,Brazil,,,-29.393611,-49.846111,Coordinates given in the herbarium record,,Angiosperms,Cactaceae,Rhipsalis,floccosa,Rhipsalis floccosa,holoepiphyte,,,,,,,Presence_only,37,1430,23.3999996185303,Ombrophilous Forest,YES,
MENE2_07805,MENE2,E16186,RIO DE JANEIRO,RIO DE JANEIRO,RJ,Brazil,,,-22.9028,-43.2075,Coordinates given in the herbarium record,"Pq. Nac. da Tijuca, trilha passando do Campo escola da escalada 2000 e atravessando o riacho em seguida.",Angiosperms,Orchidaceae,Gomesa,pubes,Gomesa pubes,holoepiphyte,,,,,,,Presence_only,14,1257,26.2000007629395,Ombrophilous Forest,YES,
SARA_00365,SARA,E0365,CAMACAN,BAHIA,BA,Brazil,30,Dense Ombrophilous Forest,-15.391667,-39.565278,Study site,RPPN Serra Bonita,Ferns,Hymenophyllaceae,Hymenophyllum,caudiculatum,Hymenophyllum caudiculatum,holoepiphyte,,,,,2010,2010,Abundance,152,1105,22.2000007629395,Ombrophilous Forest,YES,
SARA_00028,SARA,E0028,CAMACAN,BAHIA,BA,Brazil,4,Dense Ombrophilous Forest,-15.391667,-39.565278,Study site,RPPN Serra Bonita,Ferns,Aspleniaceae,Asplenium,auriculatum,Asplenium auriculatum,holoepiphyte,,,,,2010,2010,Abundance,152,1105,22.2000007629395,Ombrophilous Forest,YES,
KERB_09643,KERB,E9643,MORRETES,PARANA,PR,Brazil,ABUNDANCE,Dense Ombrophilous Forest,-25.447705,-48.929986,Forest fragment,Morro Facaozinho,Ferns,Polypodiaceae,Cochlidium,punctatum,Cochlidium punctatum,holoepiphyte,,,,,2000,2001,Presence_only,1175,1714,22.2000007629395,Ombrophilous Forest,YES,
MENE2_15265,MENE2,E22968,BANANAL,SAO PAULO,SP,Brazil,,,-22.792278,-44.359056,Coordinates given in the herbarium record,Serra da Bocaina.,Angiosperms,Orchidaceae,Pabstiella,pleurothalloides,Pabstiella pleurothalloides,holoepiphyte,,,,,,,Presence_only,1493,1681,18.2000007629395,Ombrophilous Forest,YES,
MENE2_20897,MENE2,E28088,PINDOBACU,BAHIA,BA,Brazil,,,-10.7417,-40.3608,Coordinates given in the herbarium record,"Fazenda Inga, ao lado da Rodovia BA 131. Comunidade  de licuri.",Angiosperms,Bromeliaceae,Tillandsia,loliacea,Tillandsia loliacea,facultative,,,,,,,Presence_only,,,,,NO,
MENE2_03220,MENE2,E12018,GUARAQUECABA,PARANA,PR,Brazil,,,-25.333333,-48.2,Coordinates given in the herbarium record,Trilha do Vale do Rio Real,Angiosperms,Orchidaceae,Maxillaria,chlorantha,Maxillaria chlorantha,holoepiphyte,,,,,,,Presence_only,1,2329,24.8999996185303,,YES,
MENE2_18863,MENE2,E26239,SANTA MARIA DE JETIBA,ESPIRITO SANTO,ES,Brazil,,,-20.096389,-40.676944,Coordinates given in the herbarium record,Caramuru,Angiosperms,Orchidaceae,Scaphyglottis,modesta,Scaphyglottis modesta,holoepiphyte,,,,,,,Presence_only,793,1261,23.8999996185303,Ombrophilous Forest,YES,
NUNE_02856,NUNE,AD1033,TERESOPOLIS,RIO DE JANEIRO,RJ,Brazil,C1000P13A4,Secondary Forest,-22.45,-42.98916667,120,Parque Nacional da Serra dos Orgaos -Estrada principal da Sede Teresopolis-,Ferns,Polypodiaceae,Campyloneurum,nitidum,Campyloneurum nitidum,facultative,,,,,2012,2016,Presence_only,1079,1743,20.6000003814697,Ombrophilous Forest,YES,507
JABOT_00044,JABOT,342380,SAO LUIS DO PARAITINGA,SAO PAULO,SP,Brazil,,,-23.34583,-45.15528,Coordinates given in the herbarium record,,Angiosperms,Bromeliaceae,Billbergia,distachia,Billbergia distachia,holoepiphyte,,,,,1999,1999,Presence_only,915,1809,20.1000003814697,Ombrophilous Forest,YES,
MENE2_12427,MENE2,E20388,ITACARE,BAHIA,BA,Brazil,,,-14.42,-39.02,Coordinates given in the herbarium record,"Mpio. Urucuca. Distrito Serra Grande, 7.3 km along highway, Fazenda Lagoa do Conjunto Fazenda Santa Cruz",Angiosperms,Araceae,Philodendron,fragrantissimum,Philodendron fragrantissimum,hemiepiphyte,,,,,,,Presence_only,1,2102,25.8999996185303,,YES,
MENE2_13453,MENE2,E21320,TERESOPOLIS,RIO DE JANEIRO,RJ,Brazil,,,-22.4122,-42.9656,Coordinates given in the herbarium record,Barreira de Teresopolis. Margem do rio.,Angiosperms,Orchidaceae,Platyrhiza,quadricolor,Platyrhiza quadricolor,holoepiphyte,,,,,,,Presence_only,1007,1702,21.8999996185303,Ombrophilous Forest,YES,
MENE2_03666,MENE2,E12423,SAO SEBASTIAO,SAO PAULO,SP,Brazil,,,-23.711944,-45.708056,Coordinates given in the herbarium record,"Parque Estadual da Serra do Mar-Cachoeira do Sitio Urucurana, Trilha do Escorrega, a margens do Rio Una. .",Angiosperms,Orchidaceae,Rhetinantha,notylioglossa,Rhetinantha notylioglossa,holoepiphyte,,,,,,,Presence_only,688,2446,24.1000003814697,Ombrophilous Forest,YES,
MENE2_08745,MENE2,E17040,PERDIZES,MINAS GERAIS,MG,Brazil,,,-19.3528,-47.2928,Coordinates given in the herbarium record,,Angiosperms,Piperaceae,Peperomia,circinnata,Peperomia circinnata,holoepiphyte,,,,,,,Presence_only,,,,,NO,
COUT_00584,COUT,E0564,ALEGRE,ESPIRITO SANTO,ES,Brazil,,Riparian Forest,-20.709722,-41.511389,Forest fragment,Sao Joao do Norte,Angiosperms,Bromeliaceae,Tillandsia,pruinosa,Tillandsia pruinosa,holoepiphyte,,,,,2008,2008,Presence_only,231,1105,26.5,Seasonal Forest,YES,
MENE2_15190,MENE2,E2290,CORDEIRO,RIO DE JANEIRO,RJ,Brazil,,,-22.02886,-42.3608,Coordinates given in the herbarium record,"5Km de Macuco em direcao a Santa Maria Madalena, Chale Sao Jose.",Angiosperms,Bromeliaceae,Aechmea,ramosa,Aechmea ramosa,holoepiphyte,,,,,,,Presence_only,614,1439,24.2000007629395,Seasonal Forest,YES,
MENE2_31517,MENE2,E7943,MOGI DAS CRUZES,SAO PAULO,SP,Brazil,,,-23.48779167,-46.19556389,Coordinates given in the herbarium record,Serra do Itapeti-Parque Natural Municipal Afonso de Mello-Chiquinho Verissimo,Angiosperms,Orchidaceae,Encyclia,patens,Encyclia patens,holoepiphyte,,,,,,,Presence_only,932,1549,19.8999996185303,Ombrophilous Forest,YES,
ERFI_00058,ERFI,E0008,UBATUBA,SAO PAULO,SP,Brazil,,Flooded Forest,-23.356307,-44.857949,200,Praia da Fazenda,Angiosperms,Bromeliaceae,Billbergia,pyramidalis,Billbergia pyramidalis,holoepiphyte,,,,,1994,1995,Abundance,175,2445,26.2999992370605,,YES,Only flowering/fruiting individuals were recorded
FUME_00396,FUME,E0396,ARAPONGA,MATO GROSSO DO SUL,MS,Brazil,,Cloud Forest,-20.72175,-42.48216,20,"Parque Estadual Serra do Brigadeiro, Pico do Grama",Angiosperms,Orchidaceae,Gomesa,uniflora,Gomesa uniflora,holoepiphyte,,,,,2017,2017,Presence_absence,1524,1515,18.7999992370605,Seasonal Forest,YES,
MENE2_14600,MENE2,E22363,FUNDAO,ESPIRITO SANTO,ES,Brazil,,,-19.914167,-40.472222,Coordinates given in the herbarium record,Goiapaba-Acu,Angiosperms,Orchidaceae,Pabstiella,fusca,Pabstiella fusca,holoepiphyte,,,,,,,Presence_only,539,1314,22.7999992370605,Ombrophilous Forest,YES,
CEBA_00836,CEBA,,IGUAZU,MISIONES,N,Argentina,ROMANCZUK 649,Forest,-25.68109,-54.456762,,Parque Nacional Iguazu,Angiosperms,Orchidaceae,Miltonia,flavescens,Miltonia flavescens,holoepiphyte,,,,,,,Presence_only,181,1711,26.1000003814697,,YES,"Reserva Forestal Parque Nacional Iguazu, 3 km al S del cruce con Ruta 101, proximo a casa del guardaparque. Sobre arboles, muy frecuente. 01/02/1976"
FUME_06415,FUME,E6435,BAEPENDI,MATO GROSSO DO SUL,MS,Brazil,,Cloud Forest,-22.1225,-44.7443,500,"Parque Estadual da Serra do Papagaio, Chapadao",Ferns,Hymenophyllaceae,Hymenophyllum,polyanthos,Hymenophyllum polyanthos,holoepiphyte,,,,,2012,2013,Presence_absence,1849,2026,16,Other,YES,
GOSI_00465,GOSI,E1359,CACHOEIRO DE ITAPEMIRIM,ESPIRITO SANTO,ES,Brazil,,Secondary Forest,-20.849,-41.113,Municipality,,Angiosperms,Bromeliaceae,Vriesea,lubbersii,Vriesea lubbersii,holoepiphyte,,,,,2014,2017,Presence_only,108,1057,27.6000003814697,Seasonal Forest,YES,
KERB_06147,KERB,E6147,CAMPINA GRANDE DO SUL,PARANA,PR,Brazil,ABUNDANCE,,-25.240888,-48.830907,Forest fragment,Morro Caratuva,Ferns,Hymenophyllaceae,Hymenophyllum,polyanthos,Hymenophyllum polyanthos,holoepiphyte,Aquifoliaceae,Ilex,microdonta,Ilex microdonta,2009,2011,Abundance,1714,1907,16.7999992370605,Ombrophilous Forest,YES,
FRAN_00889,FRAN,E0892,MIMOSO DO SUL,ESPIRITO SANTO,ES,Brazil,1,Primary Forest,-20.936667,-41.553333,Forest fragment,Pedra dos Pontoes:primeira mata nebular,Angiosperms,Orchidaceae,Gomesa,imperatoris-maximiliani,Gomesa imperatoris-maximiliani,holoepiphyte,Nyctaginaceae,Guapira,opposita,Guapira opposita,2016,2016,Abundance,634,1391,20.3999996185303,Seasonal Forest,YES,
KERB_00963,KERB,E0963,ANTONINA,PARANA,PR,Brazil,ABUNDANCE,Secondary Forest,-25.378213,-48.800209,Forest fragment,RPPN Morro da mina,Angiosperms,Araceae,Philodendron,obliquifolium,Philodendron obliquifolium,hemiepiphyte,,,,,2006,2009,Presence_only,79,2008,26.1000003814697,Ombrophilous Forest,YES,
ANNE_04889,ANNE,21855,ANTONIO CARLOS,SANTA CATARINA,SC,Brazil,,Dense Ombrophilous Forest,-27.5333,-48.8667,Municipality,Santa Maria,Angiosperms,Orchidaceae,Polystachya,concreta,Polystachya concreta,holoepiphyte,,,,,2010,2010,Presence_only,249,1624,23.2000007629395,Ombrophilous Forest,YES,
FUME_04280,FUME,E4299,LIMA DUARTE,MATO GROSSO DO SUL,MS,Brazil,,Cloud Forest,-21.70193,-43.87246,100,"Parque Estadual do Ibitipoca, Gruta do Piao",Angiosperms,Bromeliaceae,Nidularium,ferdinandocoburgii,Nidularium ferdinandocoburgii,holoepiphyte,,,,,2014,2014,Presence_absence,1301,1770,18,Seasonal Forest,YES,
MINE_00882,MINE,882,TRES CACHOEIRAS,RIO GRANDE DO SUL,RS,Brazil,71,Forest Interior,-29.43183333,-49.98621389,1.5,Morro Azul Locality,Ferns,Polypodiaceae,Microgramma,vacciniifolia,Microgramma vacciniifolia,holoepiphyte,,,,,2012,2015,Presence_only,167,1630,21.7000007629395,Ombrophilous Forest,YES,
MENE2_28402,MENE2,E4828,OURO PRETO,MATO GROSSO DO SUL,MS,Brazil,,,-20.359722,-43.503056,Coordinates given in the herbarium record,"Serra da Brigida, Parque Natural Municipal das Andorinhas",Angiosperms,Bromeliaceae,Billbergia,vittata,Billbergia vittata,holoepiphyte,,,,,,,Presence_only,1263,1653,18.7999992370605,Seasonal Forest,YES,
SARA_00324,SARA,E0324,CAMACAN,BAHIA,BA,Brazil,27,Dense Ombrophilous Forest,-15.391667,-39.565278,Study site,RPPN Serra Bonita,Ferns,Dryopteridaceae,Elaphoglossum,rigidum,Elaphoglossum rigidum,holoepiphyte,,,,,2010,2010,Abundance,152,1105,22.2000007629395,Ombrophilous Forest,YES,
FUME_06474,FUME,E6494,BAEPENDI,MATO GROSSO DO SUL,MS,Brazil,,Cloud Forest,-22.1225,-44.7443,500,"Parque Estadual da Serra do Papagaio, Chapadao",Ferns,Polypodiaceae,Melpomene,pilosissima,Melpomene pilosissima,holoepiphyte,,,,,2012,2013,Presence_absence,1849,2026,16,Other,YES,
ZAND_00080,ZAND,E0080,MIRACATU,SAO PAULO,SP,Brazil,,Primary Forest,-24.0306333,-47.3533722,Study site,Legado das Aguas - Reserva Votorantim,Angiosperms,Orchidaceae,Masdevallia,infracta,Masdevallia infracta,holoepiphyte,,,,,2015,,Presence_only,522,1727,22.7999992370605,Ombrophilous Forest,YES,"The sampling method used is walking, in paths of 10 to 20 kilometers."
FUME_00975,FUME,E0981,ITAMONTE,MATO GROSSO DO SUL,MS,Brazil,,Cloud Forest,-22.35813,-44.73767,20,"Parque Nacional do Itatiaia, Brejo da Lapa",Angiosperms,Orchidaceae,Gomesa,ranifera,Gomesa ranifera,holoepiphyte,,,,,2017,2017,Presence_absence,2162,2267,13.8000001907349,Ombrophilous Forest,YES,
CBOE_00582,CBOE,Tree119,SAO FRANCISCO DE PAULA,RIO GRANDE DO SUL,RS,Brazil,PA2,Araucaria Plantation,-29.437116,-50.403707,Central point in study site,Floresta Nacional de Sao Francisco de Paula.,Angiosperms,Orchidaceae,Pabstiella,varellae,Pabstiella varellae,holoepiphyte,Araucariaceae,Araucaria,angustifolia,Araucaria angustifolia,2007,2007,Abundance,883,2062,19.7999992370605,Savanna,YES,
MENE2_10555,MENE2,E18686,SAO THOME DAS LETRAS,MATO GROSSO DO SUL,MS,Brazil,,,-21.7222,-44.9853,Coordinates given in the herbarium record,Ribeirao Passa - Quatro.,Angiosperms,Piperaceae,Peperomia,quadrifolia,Peperomia quadrifolia,holoepiphyte,,,,,,,Presence_only,1201,1608,20.2999992370605,Seasonal Forest,YES,
MENE2_17723,MENE2,E25202,TERESOPOLIS,RIO DE JANEIRO,RJ,Brazil,,,-22.4513889,-43.0013889,Coordinates given in the herbarium record,Parque Nacional da Serra dos Orgaos,Angiosperms,Cactaceae,Rhipsalis,floccosa,Rhipsalis floccosa,holoepiphyte,,,,,,,Presence_only,1079,1747,20,Ombrophilous Forest,YES,
ANNE_02713,ANNE,32076,SANTO AMARO DA IMPERATRIZ,SANTA CATARINA,SC,Brazil,,Dense Ombrophilous Forest,-27.8,-48.7667,Municipality,Rio da Nova Descoberta,Angiosperms,Orchidaceae,Isochilus,linearis,Isochilus linearis,holoepiphyte,,,,,2010,2010,Presence_only,948,1676,20.6000003814697,Ombrophilous Forest,YES,
JABOT_01578,JABOT,441928,GUAPIMIRIM,RIO DE JANEIRO,RJ,Brazil,,,-22.49778,-43.02528,Coordinates given in the herbarium record,,Angiosperms,Bromeliaceae,Vriesea,psittacina,Vriesea psittacina,holoepiphyte,,,,,2007,2007,Presence_only,646,1787,21.8999996185303,Ombrophilous Forest,YES,
KERB_07396,KERB,E7396,FAZENDA RIO GRANDE,PARANA,PR,Brazil,ABUNDANCE,Mixed Ombrophilous Forest,-25.666271,-49.269229,Forest fragment,Fazenda Experimental Gralha Azul 2,Ferns,Polypodiaceae,Campyloneurum,nitidum,Campyloneurum nitidum,facultative,,,,,2015,2017,Abundance,910,1294,20.5,Ombrophilous Forest,YES,
MENE2_04401,MENE2,E13091,AGUAS DE CHAPECO,SANTA CATARINA,SC,Brazil,,,-27.1,-53,Coordinates given in the herbarium record,west of Sao Carlos,Angiosperms,Orchidaceae,Miltonia,flavescens,Miltonia flavescens,holoepiphyte,,,,,,,Presence_only,273,1878,25,Seasonal Forest,YES,
MENE2_15475,MENE2,E23159,JOINVILLE,SANTA CATARINA,SC,Brazil,,,-26.3044,-48.8456,Coordinates given in the herbarium record,"Serra do Jurape, Bairro Vila Nova",Angiosperms,Orchidaceae,Anathallis,rubens,Anathallis rubens,holoepiphyte,,,,,,,Presence_only,170,1706,25.1000003814697,Ombrophilous Forest,YES,
GUAR_00075,GUAR,E0075,CANANEIA,SAO PAULO,SP,Brazil,,Forest,-25.092639,-47.926389,Study site,PE Ilha do Cardoso,Angiosperms,Cactaceae,Rhipsalis,baccifera,Rhipsalis baccifera,holoepiphyte,,,,,2006,2008,Presence_only,19,2490,26.5,Ombrophilous Forest,YES,Johannson zones: Johansson D R -1974- Ecology of vascular epiphytes in West African rain forest. Acta Phytogeog Suecica 59:1-136.
PERE_00858,PERE,TS420,TEODORO SAMPAIO,SAO PAULO,SP,Brazil,,Forest Interior,-22.43331964,-52.42227529,10,fragmento a noroeste do PEMD,Angiosperms,Moraceae,Ficus,luschnathiana,Ficus luschnathiana,hemiepiphyte,,,,,2007,2011,Presence_only,404,1200,24.7000007629395,Seasonal Forest,YES,"habito hemiepifitico; forofito; em decomposicao; amostragem assistematica em uma area de ~ 100.000 ha entre as coordenadas -52,513 dd -22,625 dd e -52,163 dd -22,265 dd.  habito terricola:nao"
MENE2_05692,MENE2,E14265,PARANAGUA,PARANA,PR,Brazil,,,-25.52,-48.5092,Coordinates given in the herbarium record,Floresta Estadual do Palmito,Angiosperms,Gesneriaceae,Nematanthus,wettsteinii,Nematanthus wettsteinii,holoepiphyte,,,,,,,Presence_only,1,2036,24.8999996185303,,YES,
MENE2_33529,MENE2,E9955,ANTONINA,PARANA,PR,Brazil,,,-25.4311,-48.7401,Coordinates given in the herbarium record,Trilha para o Pico Itapiroca,Angiosperms,Orchidaceae,Cattleya,coccinea,Cattleya coccinea,holoepiphyte,,,,,,,Presence_only,86,2085,25.7999992370605,Ombrophilous Forest,YES,
KERB_03459,KERB,E3459,SAO JOAQUIM,SANTA CATARINA,SC,Brazil,ABUNDANCE,,-28.471217,-49.83173,Study site,Rio Pelotas,Angiosperms,Orchidaceae,Octomeria,pusilla,Octomeria pusilla,holoepiphyte,,,,,2014,2014,Abundance,1132,1638,19.6000003814697,Ombrophilous Forest,YES,
ANNE_02424,ANNE,22372,SAO JOSE,SANTA CATARINA,SC,Brazil,,Dense Ombrophilous Forest,-27.5333,-48.6833,Municipality,Forquilhas,Angiosperms,Araceae,Heteropsis,rigidifolia,Heteropsis rigidifolia,hemiepiphyte,,,,,2010,2010,Presence_only,222,1643,22.2999992370605,Ombrophilous Forest,YES,
KERB_08305,KERB,E8305,GUARAPUAVA,PARANA,PR,Brazil,ABUNDANCE,Flooded Forest,-25.521863,-51.416667,Forest fragment,Rio Sao Jeronimo,Angiosperms,Bromeliaceae,Aechmea,recurvata,Aechmea recurvata,holoepiphyte,Myrtaceae,,,,2003,2003,Abundance,984,1735,19.7000007629395,Savanna,YES,
MANI_00213,MANI,E0213,UBATUBA,SAO PAULO,SP,Brazil,1,Dense Ombrophilous Forest,-23.525,-45.041667,Forest fragment,Parque Estadual Ilha anchieta,Ferns,Polypodiaceae,Campyloneurum,nitidum,Campyloneurum nitidum,facultative,,,,,2010,2011,Presence_only,,,,,NO,
PTEO_00067,PTEO,E0067,CRICIUMA,SANTA CATARINA,SC,Brazil,,Urban Green Area,-28.690985,-49.431635,5,Parque Ecologico Municipal Jose Milanese,Ferns,Dryopteridaceae,Mickelia,scandens,Mickelia scandens,hemiepiphyte,,,,,2010,2011,Presence_absence,117,1345,23.7999992370605,Ombrophilous Forest,YES,
GOSI_00149,GOSI,E1355,ARATACA,BAHIA,BA,Brazil,,Secondary Forest,-15.263,-39.414,Municipality,,Angiosperms,Bromeliaceae,Vriesea,longisepala,Vriesea longisepala,holoepiphyte,,,,,2014,2017,Presence_only,141,1275,25.2000007629395,Ombrophilous Forest,YES,
MENE_02167,MENE,E2185,LIMA DUARTE,MATO GROSSO DO SUL,MS,Brazil,,Cloud Forest,-21.71114,-43.89578,300,Parque Estadual do Ibitipoca,Angiosperms,Orchidaceae,Cattleya,coccinea,Cattleya coccinea,holoepiphyte,Asteraceae,Eremanthus,erythropappus,Eremanthus erythropappus,2016,2018,Abundance,1576,1649,19.7000007629395,Seasonal Forest,YES,
KERB_12343,KERB,E12343,PIRAQUARA,PARANA,PR,Brazil,ABUNDANCE,Mixed Ombrophilous Forest,-25.528984,-49.012214,Forest fragment,Haras Santo Antonio,Ferns,Polypodiaceae,Pleopeltis,pleopeltifolia,Pleopeltis pleopeltifolia,holoepiphyte,Asteraceae,Piptocarpha,angustifolia,Piptocarpha angustifolia,2002,2006,Abundance,1015,1701,20.3999996185303,Ombrophilous Forest,YES,
MENE2_17896,MENE2,E2536,UNA,BAHIA,BA,Brazil,,,-15.05,-38.283333,Coordinates given in the herbarium record,"Serra da Luzia. Ramal entr. 5.7 da Rod. Rod. Sao Jose/Una, ao N 1.8Km.",Angiosperms,Bromeliaceae,Aechmea,turbinocalyx,Aechmea turbinocalyx,holoepiphyte,,,,,,,Presence_only,,,,,NO,
MENE2_10863,MENE2,E18966,CACHOEIRAS DE MACACU,RIO DE JANEIRO,RJ,Brazil,,,-22.4652778,-42.7616667,Coordinates given in the herbarium record,"Street between Funchal and Guapiacu, near REGUA.",Angiosperms,Piperaceae,Peperomia,serpens,Peperomia serpens,holoepiphyte,,,,,,,Presence_only,120,1343,26.2999992370605,Ombrophilous Forest,YES,
FRAN_00768,FRAN,E0771,MIMOSO DO SUL,ESPIRITO SANTO,ES,Brazil,1,Primary Forest,-20.936667,-41.553333,Forest fragment,Pedra dos Pontoes:primeira mata nebular,Angiosperms,Araceae,Anthurium,scandens,Anthurium scandens,holoepiphyte,Clusiaceae,Clusia,arrudea,Clusia arrudea,2016,2016,Abundance,634,1391,20.3999996185303,Seasonal Forest,YES,
PTEO_00605,PTEO,E0605,GRAO PARA,SANTA CATARINA,SC,Brazil,,Primary Forest,-28.18186,-49.389726,5,Parque Estadual da Serra Furada,Ferns,Polypodiaceae,Serpocaulon,catharinae,Serpocaulon catharinae,holoepiphyte,,,,,2011,2012,Presence_absence,530,1543,21.8999996185303,Ombrophilous Forest,YES,
KERB_02265,KERB,E2265,ANTONINA,PARANA,PR,Brazil,ABUNDANCE,Secondary Forest,-25.378213,-48.800209,Forest fragment,RPPN Morro da mina,Ferns,Polypodiaceae,Microgramma,vacciniifolia,Microgramma vacciniifolia,holoepiphyte,,,,,2006,2009,Presence_only,79,2008,26.1000003814697,Ombrophilous Forest,YES,
MENE2_17252,MENE2,E24774,SAO JOSE,SANTA CATARINA,SC,Brazil,,,-27.62,-48.63,Coordinates given in the herbarium record,"Serra da Boa vista, Sao Jose",Angiosperms,Cactaceae,Rhipsalis,burchellii,Rhipsalis burchellii,holoepiphyte,,,,,,,Presence_only,,,,,YES,
NEVS_00198,NEVS,198,CACHOEIRAS DE MACACU,RIO DE JANEIRO,RJ,Brazil,,Secondary Forest,-22.538056,-42.804444,Study site,Poco Verde,Angiosperms,Bromeliaceae,Vriesea,incurvata,Vriesea incurvata,holoepiphyte,,,,,,,Presence_only,87,1337,26.2999992370605,Ombrophilous Forest,YES,
MARC_00245,MARC,E0245,UBATUBA,SAO PAULO,SP,Brazil,3,Dense Ombrophilous Forest,-23.23785,-44.982008,Plot,Parque Estadual da Serra do Mar. Parcela permanente mata baixa,Angiosperms,Orchidaceae,Zygopetalum,maxillare,Zygopetalum maxillare,holoepiphyte,,,,,2013,2013,Presence_only,1218,1676,18.3999996185303,Ombrophilous Forest,YES,
MENE2_23086,MENE2,E30078,AFONSO CLAUDIO,ESPIRITO SANTO,ES,Brazil,,,-20.074444,-41.123889,Coordinates given in the herbarium record,"Estrada Garrafao, 3 Pontoes, Serra Pelada, mata Fria.",Angiosperms,Bromeliaceae,Tillandsia,usneoides,Tillandsia usneoides,holoepiphyte,,,,,,,Presence_only,523,1194,25.5,Ombrophilous Forest,YES,
KERB_12492,KERB,E12492,PIRAQUARA,PARANA,PR,Brazil,ABUNDANCE,Mixed Ombrophilous Forest,-25.528984,-49.012214,Forest fragment,Haras Santo Antonio,Angiosperms,Orchidaceae,Gomesa,uniflora,Gomesa uniflora,holoepiphyte,Myrtaceae,Eugenia,sp.,Eugenia sp.,2002,2006,Abundance,1015,1701,20.3999996185303,Ombrophilous Forest,YES,
MENE2_08972,MENE2,E17247,RESENDE,RIO DE JANEIRO,RJ,Brazil,,,-22.4689,-44.4467,Coordinates given in the herbarium record,"Visconde de Maua, Cachoeira do Alcantilado.",Angiosperms,Piperaceae,Peperomia,corcovadensis,Peperomia corcovadensis,holoepiphyte,,,,,,,Presence_only,363,1488,24.7000007629395,Seasonal Forest,YES,
KERB_03494,KERB,E3494,SAO JOAQUIM,SANTA CATARINA,SC,Brazil,ABUNDANCE,,-28.471217,-49.83173,Study site,Rio Pelotas,Ferns,Polypodiaceae,Microgramma,squamulosa,Microgramma squamulosa,holoepiphyte,,,,,2014,2014,Abundance,1132,1638,19.6000003814697,Ombrophilous Forest,YES,
KOJU_00034,KOJU,NK034,CARAA,RIO GRANDE DO SUL,RS,Brazil,,Secondary Forest,-29.784428,-50.427268,Forest fragment,Proximo a Rua Jorge Saltiel,Lichens,Graphidaceae,Platygramme,caesiopruinosa,Platygramme caesiopruinosa,not possible to confirm,Verbenaceae,Recordia,reitzii,Recordia reitzii,2012,2016,Presence_only,160,1530,23.3999996185303,Seasonal Forest,YES,Coletor Natalia M. Koch
PERE_00857,PERE,TS419,TEODORO SAMPAIO,SAO PAULO,SP,Brazil,,Forest Interior,-22.43314492,-52.42160313,10,fragmento a noroeste do PEMD,Angiosperms,Moraceae,Ficus,obtusifolia,Ficus obtusifolia,hemiepiphyte,,,,,2007,2011,Presence_only,404,1200,24.7000007629395,Seasonal Forest,YES,"habito epifitico; amostragem assistematica em uma area de ~ 100.000 ha entre as coordenadas -52,513 dd -22,625 dd e -52,163 dd -22,265 dd.  habito terricola:nao"
JABOT_04258,JABOT,297769,RIO DE JANEIRO,RIO DE JANEIRO,RJ,Brazil,,,-22.9,-43.2,Municipality,,Ferns,Polypodiaceae,Pecluma,pectinatiformis,Pecluma pectinatiformis,holoepiphyte,,,,,1992,1992,Presence_only,14,1249,26.2999992370605,Ombrophilous Forest,YES,
MENE2_11031,MENE2,E19119,INACIO MARTINS,PARANA,PR,Brazil,,,-25.5711,-51.0789,Coordinates given in the herbarium record,,Angiosperms,Piperaceae,Peperomia,tetraphylla,Peperomia tetraphylla,holoepiphyte,,,,,,,Presence_only,1174,1689,19.3999996185303,Ombrophilous Forest,YES,
FUME_05472,FUME,E5491,LIMA DUARTE,MATO GROSSO DO SUL,MS,Brazil,,Cloud Forest,-21.7086,-43.87404,100,"Parque Estadual do Ibitipoca, Gruta dos Viajantes",Ferns,Polypodiaceae,Lellingeria,apiculata,Lellingeria apiculata,holoepiphyte,Primulaceae,Myrsine,umbellata,Myrsine umbellata,2014,2014,Presence_absence,1301,1667,19.5,Seasonal Forest,YES,
MESI_00050,MESI,E0050,AREIA,PARAIBA,PB,Brazil,1,Forest,-6.9836,-35.7445,Forest fragment,Parque Estadual Mata do Pau-ferro,Liverworts,Lejeuneaceae,Lejeunea,phyllobola,Lejeunea phyllobola,facultative,,,,,2009,2009,Presence_only,328,1253,23.2999992370605,,YES,
MENE2_11863,MENE2,E19875,SANTA MARIA MADALENA,RIO DE JANEIRO,RJ,Brazil,,,-21.9553,-42.0081,Coordinates given in the herbarium record,"Fazenda Mae de Bom Conselho,  Urugao. .",Angiosperms,Piperaceae,Peperomia,urocarpa,Peperomia urocarpa,holoepiphyte,,,,,,,Presence_only,634,1432,22.5,Ombrophilous Forest,YES,
KERB_04900,KERB,E4900,CONTENDA,PARANA,PR,Brazil,ABUNDANCE,Secondary Forest,-25.604126,-49.570547,Forest fragment,General Lucio,Ferns,Polypodiaceae,Pleopeltis,hirsutissima,Pleopeltis hirsutissima,holoepiphyte,,,,,2002,2006,Abundance,872,1323,21,Ombrophilous Forest,YES,
MENE2_10831,MENE2,E18937,DOMINGOS MARTINS,ESPIRITO SANTO,ES,Brazil,,,-20.36,-40.66,Coordinates given in the herbarium record,Margens do Rio Jucu,Angiosperms,Piperaceae,Peperomia,rubricaulis,Peperomia rubricaulis,holoepiphyte,,,,,,,Presence_only,551,1238,24.2999992370605,Ombrophilous Forest,YES,
MENE2_12497,MENE2,E20451,PORTO SEGURO,BAHIA,BA,Brazil,,,-16.387222,-39.1825,Coordinates given in the herbarium record,Estrada para Eunapolis. Area do CEPLAC. -ESPABA-.,Angiosperms,Araceae,Philodendron,hederaceum,Philodendron hederaceum,hemiepiphyte,,,,,,,Presence_only,83,1472,25.3999996185303,Ombrophilous Forest,YES,
MENE2_25016,MENE2,E31832,GUARATUBA,PARANA,PR,Brazil,,,-25.9,-48.733333,Coordinates given in the herbarium record,Comunidade do Riozinho.,Angiosperms,Bromeliaceae,Vriesea,incurvata,Vriesea incurvata,holoepiphyte,,,,,,,Presence_only,85,1888,25.2999992370605,Ombrophilous Forest,YES,
FRAN_01311,FRAN,E1314,MIMOSO DO SUL,ESPIRITO SANTO,ES,Brazil,1,Primary Forest,-20.936667,-41.553333,Forest fragment,Pedra dos Pontoes:primeira mata nebular,Angiosperms,Cactaceae,Rhipsalis,teres,Rhipsalis teres,holoepiphyte,Nyctaginaceae,Guapira,opposita,Guapira opposita,2016,2016,Abundance,634,1391,20.3999996185303,Seasonal Forest,YES,
SANG_00017,SANG,17,JUIZ DE FORA,MATO GROSSO DO SUL,MS,Brazil,,Urban Green Area,-21.73222,-43.36972,100,Jardim Botanico - UFJF/Mata do Krambeck,Angiosperms,Bromeliaceae,Tillandsia,stricta,Tillandsia stricta,facultative,Rosaceae,Eriobotrya,japonica,Eriobotrya japonica,2017,2018,Presence_only,689,1519,23.2000007629395,Seasonal Forest,YES,
MENE_02072,MENE,E2090,LIMA DUARTE,MATO GROSSO DO SUL,MS,Brazil,,Cloud Forest,-21.71114,-43.89578,300,Parque Estadual do Ibitipoca,Angiosperms,Orchidaceae,Cattleya,coccinea,Cattleya coccinea,holoepiphyte,,,,,2016,2018,Abundance,1576,1649,19.7000007629395,Seasonal Forest,YES,
KERB_01641,KERB,E1641,PIRAQUARA,PARANA,PR,Brazil,ABUNDANCE,Ecotone between Mixed Ombrophilous and Dense Ombrophilous Forest,-25.497056,-48.981299,Forest fragment,PE Marumbi Nucleo Cayuguava,Ferns,Polypodiaceae,Pecluma,filicula,Pecluma filicula,holoepiphyte,,,,,2008,2010,Presence_only,1202,1856,19.6000003814697,Ombrophilous Forest,YES,
MENE2_18711,MENE2,E26100,SETE BARRAS,SAO PAULO,SP,Brazil,,,-24.3878,-46.9256,Coordinates given in the herbarium record,,Angiosperms,Orchidaceae,Gomesa,microphyta,Gomesa microphyta,holoepiphyte,,,,,,,Presence_only,,,,,NO,
KERB_02318,KERB,E2318,BOM JESUS,RIO GRANDE DO SUL,RS,Brazil,ABUNDANCE,,-28.464002,-50.157705,Forest fragment,Rio Pelotas,Ferns,Polypodiaceae,Pleopeltis,hirsutissima,Pleopeltis hirsutissima,holoepiphyte,,,,,2014,2014,Abundance,996,1605,20.6000003814697,Savanna,YES,
FUME_06786,FUME,E6806,BAEPENDI,MATO GROSSO DO SUL,MS,Brazil,,Mixed Ombrophilous Forest,-22.142,-44.7328,2000,Parque Estadual da Serra do Papagaio,Ferns,Polypodiaceae,Pleopeltis,macrocarpa,Pleopeltis macrocarpa,facultative,Podocarpaceae,Podocarpus,lambertii,Podocarpus lambertii,2012,2013,Presence_absence,1798,1890,17.1000003814697,Other,YES,
MENE2_14388,MENE2,E22170,PETROPOLIS,RIO DE JANEIRO,RJ,Brazil,,,-22.505,-43.1786,Coordinates given in the herbarium record,.,Angiosperms,Orchidaceae,Pabstiella,hians,Pabstiella hians,holoepiphyte,,,,,,,Presence_only,895,1902,21.7999992370605,Ombrophilous Forest,YES,
FRAN_00418,FRAN,E0421,MIMOSO DO SUL,ESPIRITO SANTO,ES,Brazil,1,Inselberg,-20.938635,-41.544191,Study site,Pontoes de Mimoso do Sul: afloramento do Toti,Angiosperms,Bromeliaceae,Tillandsia,gardneri,Tillandsia gardneri,facultative,Nyctaginaceae,Guapira,opposita,Guapira opposita,2015,2015,Abundance,634,1317,21.7999992370605,Seasonal Forest,YES,
PERE_00124,PERE,RP502,CRAVINHOS,SAO PAULO,SP,Brazil,,Forest Interior,-21.39533,-47.82426,2000,Fragmento no interior da fazenda Canto da Mata,Angiosperms,Moraceae,Ficus,trigona,Ficus trigona,hemiepiphyte,,,,,2007,2011,Abundance,610,1440,23.3999996185303,Other,YES,Fragmento de 196 ha; habito terricola habito terricola:sim
NUNE_01226,NUNE,MAT,ANGRA DOS REIS,RIO DE JANEIRO,RJ,Brazil,,Secondary Forest,-23.116667,-44.258333,Central point in study site,Praia de Matariz,Angiosperms,Bromeliaceae,Neoregelia,johannis,Neoregelia johannis,holoepiphyte,,,,,2001,2004,Abundance,64,1628,26.1000003814697,,YES,
ANNE_00937,ANNE,21175,DOUTOR PEDRINHO,SANTA CATARINA,SC,Brazil,,Dense Ombrophilous Forest,-26.7167,-49.5833,Municipality,Forcacao,Ferns,Aspleniaceae,Asplenium,oligophyllum,Asplenium oligophyllum,holoepiphyte,,,,,2010,2010,Presence_only,792,1535,20.2000007629395,Ombrophilous Forest,YES,
MENE2_13464,MENE2,E21330,JUSSARI,BAHIA,BA,Brazil,,,-15.1914,-39.4953,Coordinates given in the herbarium record,"Entrada 7.5 km da Rod. Jussari/Palmira. Faz. Teimoso 1.7 km da entrada, Reserva Particular do Patrimonio Natural -RPPN- Serra do Teimoso. Sede da Reserva. Linhas mestra das parcelas e trilha que leva ao topo da serra.",Angiosperms,Melastomataceae,Pleiochiton,amorimii,Pleiochiton amorimii,holoepiphyte,,,,,,,Presence_only,202,1207,25,Ombrophilous Forest,YES,
KERB_06602,KERB,E6602,FAZENDA RIO GRANDE,PARANA,PR,Brazil,ABUNDANCE,Mixed Ombrophilous Forest,-25.661593,-49.277089,Forest fragment,Fazenda Experimental Gralha Azul,Angiosperms,Bromeliaceae,Tillandsia,tenuifolia,Tillandsia tenuifolia,facultative,Anacardiaceae,Schinus,terebinthifolia,Schinus terebinthifolia,2008,2015,Abundance,910,1304,20.3999996185303,Ombrophilous Forest,YES,
CEBA_00883,CEBA,,GUARANI,MISIONES,N,Argentina,DEGINANI 1194,,-27.14612,-53.90665,,,Angiosperms,Orchidaceae,Polystachya,foliosa,Polystachya foliosa,holoepiphyte,,,,,,,Presence_only,141,1749,25.2999992370605,,YES,"Orillas del Arroyo Yaboti, ca. puente, Ruta proyectada 102. 270 m s.m. 09-05-99"
KERB_07685,KERB,E7685,FAZENDA RIO GRANDE,PARANA,PR,Brazil,ABUNDANCE,Mixed Ombrophilous Forest,-25.666271,-49.269229,Forest fragment,Fazenda Experimental Gralha Azul 2,Ferns,Polypodiaceae,Pleopeltis,hirsutissima,Pleopeltis hirsutissima,holoepiphyte,,,,,2015,2017,Abundance,910,1294,20.5,Ombrophilous Forest,YES,
SIQU_00417,SIQU,S174,SOORETAMA,ESPIRITO SANTO,ES,Brazil,,Mucununga,-19.18495,-40.069308,Study site,Reserva Natural Vale,Ferns,Polypodiaceae,Campyloneurum,crispum,Campyloneurum crispum,holoepiphyte,,,,,1998,1998,Presence_only,48,1205,26.3999996185303,Ombrophilous Forest,YES,
KERB_06150,KERB,E6150,CAMPINA GRANDE DO SUL,PARANA,PR,Brazil,ABUNDANCE,,-25.240888,-48.830907,Forest fragment,Morro Caratuva,Ferns,Polypodiaceae,Leucotrichum,organense,Leucotrichum organense,holoepiphyte,Aquifoliaceae,Ilex,microdonta,Ilex microdonta,2009,2011,Abundance,1714,1907,16.7999992370605,Ombrophilous Forest,YES,
MENE2_14990,MENE2,E22718,MIRIM DOCE,SANTA CATARINA,SC,Brazil,,,-27.275003,-50.132231,Coordinates given in the herbarium record,Morro do Funil,Angiosperms,Orchidaceae,Pabstiella,mirabilis,Pabstiella mirabilis,holoepiphyte,,,,,,,Presence_only,937,1568,19.7000007629395,Ombrophilous Forest,YES,
SANG_00018,SANG,18,JUIZ DE FORA,MATO GROSSO DO SUL,MS,Brazil,,Urban Green Area,-21.73222,-43.36972,100,Jardim Botanico - UFJF/Mata do Krambeck,Angiosperms,Orchidaceae,Encyclia,patens,Encyclia patens,holoepiphyte,Anacardiaceae,Mangifera,indica,Mangifera indica,2017,2018,Presence_only,689,1519,23.2000007629395,Seasonal Forest,YES,
MENE2_14110,MENE2,E21918,SANTA BARBARA,MATO GROSSO DO SUL,MS,Brazil,,,-19.9594,-43.4153,Coordinates given in the herbarium record,"Cultivado em Butantan, Sao Paulo, SP",Angiosperms,Orchidaceae,Pabstiella,ephemera,Pabstiella ephemera,holoepiphyte,,,,,,,Presence_only,787,1376,23,Seasonal Forest,YES,
KESS_00840,KESS,E0840,SAO MARTINHO,SANTA CATARINA,SC,Brazil,,,-28.08,-48.87,Sampled tree,,Angiosperms,Bromeliaceae,Vriesea,gigantea,Vriesea gigantea,holoepiphyte,,,,,,,Presence_only,621,1605,21.3999996185303,Ombrophilous Forest,YES,
MENE2_28839,MENE2,E5265,SETE BARRAS,SAO PAULO,SP,Brazil,,,-24.166667,-47.916667,Coordinates given in the herbarium record,Ilha do Cardoso-Morro do Cardoso,Angiosperms,Orchidaceae,Bulbophyllum,napellii,Bulbophyllum napellii,holoepiphyte,,,,,,,Presence_only,488,1515,22.3999996185303,Ombrophilous Forest,YES,
ANNE_04854,ANNE,25393,AGRONOMICA,SANTA CATARINA,SC,Brazil,,Dense Ombrophilous Forest,-27.2667,-49.7667,Municipality,,Ferns,Hymenophyllaceae,Polyphlebium,angustatum,Polyphlebium angustatum,holoepiphyte,,,,,2010,2010,Presence_only,597,1519,22.7999992370605,Ombrophilous Forest,YES,
NEVS_00203,NEVS,203,PARATY,RIO DE JANEIRO,RJ,Brazil,,Secondary Forest,-23.269183,-44.789444,Study site,Corisco,Angiosperms,Bromeliaceae,Vriesea,taritubensis,Vriesea taritubensis,holoepiphyte,,,,,,,Presence_only,425,1704,21.2999992370605,Ombrophilous Forest,YES,
KERB_06688,KERB,E6688,FAZENDA RIO GRANDE,PARANA,PR,Brazil,ABUNDANCE,Mixed Ombrophilous Forest,-25.661593,-49.277089,Forest fragment,Fazenda Experimental Gralha Azul,Ferns,Polypodiaceae,Niphidium,crassifolium,Niphidium crassifolium,holoepiphyte,,,,,2008,2015,Abundance,910,1304,20.3999996185303,Ombrophilous Forest,YES,
MANI_00230,MANI,E0230,IPERO,SAO PAULO,SP,Brazil,1,Seasonal Forest,-23.433333,-47.625,Forest fragment,Floresta Nacional de Ipanema,Angiosperms,Cactaceae,Rhipsalis,floccosa,Rhipsalis floccosa,holoepiphyte,,,,,2010,2011,Presence_only,896,1202,21.7999992370605,Other,YES,
GOSI_00791,GOSI,E1333,PETROPOLIS,RIO DE JANEIRO,RJ,Brazil,,Secondary Forest,-22.505,-43.179,Municipality,,Angiosperms,Bromeliaceae,Vriesea,longicaulis,Vriesea longicaulis,holoepiphyte,,,,,2014,2017,Presence_only,895,1902,21.7999992370605,Ombrophilous Forest,YES,
MENE2_28909,MENE2,E5335,JUNDIAI,SAO PAULO,SP,Brazil,,,-23.183333,-46.883333,Coordinates given in the herbarium record,"Serra do Japi-Sentido Bairro Eloy Chaves, proximo a represa do DAE.",Angiosperms,Orchidaceae,Bulbophyllum,regnellii,Bulbophyllum regnellii,holoepiphyte,,,,,,,Presence_only,1011,1338,21.5,Ombrophilous Forest,YES,
FUME_02818,FUME,E2837,LIMA DUARTE,MATO GROSSO DO SUL,MS,Brazil,,Cloud Forest,-21.69636,-43.89749,100,"Parque Estadual do Ibitipoca, Gruta do Cruzeiro",Angiosperms,Bromeliaceae,Vriesea,penduliflora,Vriesea penduliflora,holoepiphyte,Euphorbiaceae,Alchornea,triplinervia,Alchornea triplinervia,2014,2014,Presence_absence,1714,1771,18,Seasonal Forest,YES,
MENE2_20832,MENE2,E28029,PAINS,MATO GROSSO DO SUL,MS,Brazil,,,-20.3658333,-45.6688889,Coordinates given in the herbarium record,Mineracao Carmocal.,Angiosperms,Bromeliaceae,Tillandsia,loliacea,Tillandsia loliacea,facultative,,,,,,,Presence_only,854,1380,24,Seasonal Forest,YES,
MENE2_15978,MENE2,E23616,SANTO ANDRE,SAO PAULO,SP,Brazil,,,-23.6639,-46.5383,Coordinates given in the herbarium record,Estacao Rio Grande,Angiosperms,Orchidaceae,Specklinia,subpicta,Specklinia subpicta,holoepiphyte,,,,,,,Presence_only,759,1456,20.7000007629395,Ombrophilous Forest,YES,
JABOT_01007,JABOT,619045,CACHOEIRAS DE MACACU,RIO DE JANEIRO,RJ,Brazil,,,-22.36222,-42.59056,Coordinates given in the herbarium record,,Angiosperms,Bromeliaceae,Vriesea,itatiaiae,Vriesea itatiaiae,facultative,,,,,2015,2015,Presence_only,1666,1757,16.1000003814697,Ombrophilous Forest,YES,
KERB_06030,KERB,E6030,CAMPINA GRANDE DO SUL,PARANA,PR,Brazil,ABUNDANCE,,-25.240888,-48.830907,Forest fragment,Morro Caratuva,Ferns,Polypodiaceae,Moranopteris,gradata,Moranopteris gradata,holoepiphyte,Winteraceae,Drimys,angustifolia,Drimys angustifolia,2009,2011,Abundance,1714,1907,16.7999992370605,Ombrophilous Forest,YES,
FUME_03700,FUME,E3719,LIMA DUARTE,MATO GROSSO DO SUL,MS,Brazil,,Cloud Forest,-21.69636,-43.89749,100,"Parque Estadual do Ibitipoca, Gruta do Cruzeiro",Angiosperms,Orchidaceae,Bifrenaria,vitellina,Bifrenaria vitellina,holoepiphyte,,,,,2014,2014,Presence_absence,1714,1771,18,Seasonal Forest,YES,
GOSI_01297,GOSI,E0791,PEDREGULHO,SAO PAULO,SP,Brazil,,Secondary Forest,-20.257,-47.477,Municipality,,Angiosperms,Bromeliaceae,Vriesea,friburgensis,Vriesea friburgensis,holoepiphyte,,,,,2014,2017,Presence_only,1070,1584,20.8999996185303,Savanna,YES,
KERB_02788,KERB,E2788,SAO JOSE DOS AUSENTES,RIO GRANDE DO SUL,RS,Brazil,ABUNDANCE,,-28.47165,-49.981568,Forest fragment,Rio Pelotas,Ferns,Polypodiaceae,Campyloneurum,austrobrasilianum,Campyloneurum austrobrasilianum,holoepiphyte,,,,,2014,2014,Abundance,1094,1662,19.2999992370605,Ombrophilous Forest,YES,
CBOE_00320,CBOE,Tree57,SAO FRANCISCO DE PAULA,RIO GRANDE DO SUL,RS,Brazil,FO3,Mixed Ombrophilous Forest,-29.422903,-50.388865,Central point in study site,Floresta Nacional de Sao Francisco de Paula.,Angiosperms,Bromeliaceae,Tillandsia,aeranthos,Tillandsia aeranthos,holoepiphyte,Podocarpaceae,Podocarpus,lambertii,Podocarpus lambertii,2007,2007,Abundance,917,2084,19.6000003814697,Savanna,YES,
MENE2_10146,MENE2,E18314,CACHOEIRO DE ITAPEMIRIM,ESPIRITO SANTO,ES,Brazil,,,-20.8495,-41.1134,Coordinates given in the herbarium record,Mun. Cachoeira de Itapemirim. Vargem Alta.,Angiosperms,Piperaceae,Peperomia,obtusifolia,Peperomia obtusifolia,holoepiphyte,,,,,,,Presence_only,108,1057,27.6000003814697,Seasonal Forest,YES,
KERA_00576,KERA,E0576,CURITIBA,PARANA,PR,Brazil,,Mixed Ombrophilous Forest,-25.447978,-49.240459,Forest fragment,Bosque da Eng. Florestal UFPR,Angiosperms,Orchidaceae,Acianthera,hygrophila,Acianthera hygrophila,holoepiphyte,,,,,2001,2002,Presence_only,914,1369,20.8999996185303,Ombrophilous Forest,YES,
FUME_03951,FUME,E3970,LIMA DUARTE,MATO GROSSO DO SUL,MS,Brazil,,Cloud Forest,-21.70193,-43.87246,100,"Parque Estadual do Ibitipoca, Gruta do Piao",Angiosperms,Bromeliaceae,Nidularium,ferdinandocoburgii,Nidularium ferdinandocoburgii,holoepiphyte,Rubiaceae,Cordiera,concolor,Cordiera concolor,2014,2014,Presence_absence,1301,1770,18,Seasonal Forest,YES,
MENE2_26046,MENE2,E32769,BOTUVERA,SANTA CATARINA,SC,Brazil,,,-27.27,-49.23,Coordinates given in the herbarium record,Cinema,Angiosperms,Bromeliaceae,Vriesea,rodigasiana,Vriesea rodigasiana,holoepiphyte,,,,,,,Presence_only,610,1628,22.2000007629395,Ombrophilous Forest,YES,
KERB_07041,KERB,E7041,FAZENDA RIO GRANDE,PARANA,PR,Brazil,ABUNDANCE,Mixed Ombrophilous Forest,-25.661593,-49.277089,Forest fragment,Fazenda Experimental Gralha Azul,Angiosperms,Araceae,Philodendron,meridionale,Philodendron meridionale,hemiepiphyte,Myrtaceae,Myrcia,hatschbachii,Myrcia hatschbachii,2008,2015,Abundance,910,1304,20.3999996185303,Ombrophilous Forest,YES,
