DATASET,DATASET_ACRONYM,RECORD_ID,MUNICIPALITY,STATE,STATE_ACRONYM,COUNTRY,ID_CODLOC,HABITAT,LATITUDE_Y,LONGITUDE_X,PRECISION,REGIONAL_NAME_OF_STUDY_SITE,EPIPHYTE_GROUP,EPIPHYTE_FAMILY,EPIPHYTE_GENUS,EPIPHYTE_EPITHET,EPIPHYTE_SPECIES,EPIPHYTE_HABITAT,FOROPHYTE_FAMILY,FOROPHYTE_GENERA,FOROPHYTE_EPITHET,FOROPYHYTE_SPECIES,YEAR_START,YEAR_FINISH,DATA_TYPE,ALTITUDE,ANNUAL_RAINFALL,ANNUAL_TEMPERATURE,VEGETATION_TYPE,ATLANTIC_FOREST_LIMIT,OBS
KERB_05185,KERB,E5185,ARAUCARIA,PARANA,PR,Brazil,ABUNDANCE,Secondary Forest,-25.588749,-49.347156,Forest fragment,REPAR,Ferns,Polypodiaceae,Campyloneurum,austrobrasilianum,Campyloneurum austrobrasilianum,holoepiphyte,,,,,2000,2002,Abundance,914,1284,20.8999996185303,Ombrophilous Forest,YES,
JABOT_03760,JABOT,226012,PETROPOLIS,RIO DE JANEIRO,RJ,Brazil,,,-22.5,-43.17,Municipality,,Ferns,Polypodiaceae,Campyloneurum,austrobrasilianum,Campyloneurum austrobrasilianum,holoepiphyte,,,,,1968,1968,Presence_only,856,1910,21.7000007629395,Ombrophilous Forest,YES,
MENE2_12777,MENE2,E20706,CASIMIRO DE ABREU,RIO DE JANEIRO,RJ,Brazil,,,-22.5,-42.25,Coordinates given in the herbarium record,"Estrada para Juturnaiba, trilha Rodolfo Norte, caminho para a Pelonha.",Angiosperms,Araceae,Philodendron,ornatum,Philodendron ornatum,hemiepiphyte,,,,,,,Presence_only,69,1114,25.8999996185303,Ombrophilous Forest,YES,
KERB_11904,KERB,E11904,PARANAGUA,PARANA,PR,Brazil,ABUNDANCE,Low Restinga Forest,-25.521936,-48.316041,Forest fragment,Low height restinga forest,Angiosperms,Orchidaceae,Stelis,fraterna,Stelis fraterna,holoepiphyte,Lauraceae,Ocotea,pulchella,Ocotea pulchella,1997,1999,Presence_only,,,,Ombrophilous Forest,YES,
JABOT_02907,JABOT,419091,ITATIAIA,RIO DE JANEIRO,RJ,Brazil,,,-22.49,-44.56,Municipality,,Angiosperms,Piperaceae,Peperomia,quadrifolia,Peperomia quadrifolia,holoepiphyte,,,,,2005,2005,Presence_only,462,1500,24.3999996185303,Seasonal Forest,YES,
MENE2_15969,MENE2,E23608,SANTA BARBARA,MATO GROSSO DO SUL,MS,Brazil,,,-19.9594,-43.4153,Coordinates given in the herbarium record,Coletada na mata da Fazenda da Floresta.  na estufa,Angiosperms,Orchidaceae,Acianthera,strupifolia,Acianthera strupifolia,holoepiphyte,,,,,,,Presence_only,787,1376,23,Seasonal Forest,YES,
JABOT_02635,JABOT,499712,GARUVA,SANTA CATARINA,SC,Brazil,,,-26.02,-48.85,Municipality,,Angiosperms,Piperaceae,Peperomia,glabella,Peperomia glabella,holoepiphyte,,,,,2009,2009,Presence_only,138,1785,25.2000007629395,Ombrophilous Forest,YES,
MENE2_20171,MENE2,E27428,LIMA DUARTE,MATO GROSSO DO SUL,MS,Brazil,,,-21.7166667,-43.8833333,Coordinates given in the herbarium record,"Parque Estadual do Ibitipoca, paredao da Ponte de Pedra proximo a lanchonete.",Angiosperms,Bromeliaceae,Tillandsia,gardneri,Tillandsia gardneri,facultative,,,,,,,Presence_only,1576,1685,19.2999992370605,Seasonal Forest,YES,
ANNE_04001,ANNE,23324,BOTUVERA,SANTA CATARINA,SC,Brazil,,Dense Ombrophilous Forest,-27.2667,-49.2167,Municipality,Cinema,Angiosperms,Piperaceae,Peperomia,pseudoestrellensis,Peperomia pseudoestrellensis,holoepiphyte,,,,,2010,2010,Presence_only,610,1629,22.2000007629395,Ombrophilous Forest,YES,
KERB_08080,KERB,E8080,GUARAPUAVA,PARANA,PR,Brazil,ABUNDANCE,,-25.521863,-51.416667,Forest fragment,Rio Sao Jeronimo,Angiosperms,Piperaceae,Peperomia,catharinae,Peperomia catharinae,holoepiphyte,Lauraceae,Ocotea,porosa,Ocotea porosa,2003,2003,Abundance,984,1735,19.7000007629395,Savanna,YES,
MENE2_14584,MENE2,E22349,SANTA MARIA MADALENA,RIO DE JANEIRO,RJ,Brazil,,,-21.9553,-42.0081,Coordinates given in the herbarium record,"Parque do Desengano, bifurcacao da estrada que vai para Terras Frias, trilha para o sitio do seu Ze Dona Madalena.",Angiosperms,Orchidaceae,Pabstiella,fusca,Pabstiella fusca,holoepiphyte,,,,,,,Presence_only,634,1432,22.5,Ombrophilous Forest,YES,
ANNE_00306,ANNE,22783,PRESIDENTE NEREU,SANTA CATARINA,SC,Brazil,,Dense Ombrophilous Forest,-27.1667,-49.2167,Municipality,Braco do Solao,Angiosperms,Bromeliaceae,Aechmea,candida,Aechmea candida,holoepiphyte,,,,,2010,2010,Presence_only,622,1638,21.6000003814697,Ombrophilous Forest,YES,
ANNE_04712,ANNE,28400,ITAIOPOLIS,SANTA CATARINA,SC,Brazil,,Dense Ombrophilous Forest,-26.6333,-49.85,Municipality,Rio do Bispo,Ferns,Polypodiaceae,Pleopeltis,pleopeltifolia,Pleopeltis pleopeltifolia,holoepiphyte,,,,,2010,2010,Presence_only,620,1446,22.2999992370605,Ombrophilous Forest,YES,
KERB_09415,KERB,E9415,LAPA,PARANA,PR,Brazil,ABUNDANCE,Secondary Forest,-25.578059,-49.912969,Forest fragment,Castelhanos,Angiosperms,Bromeliaceae,Tillandsia,tenuifolia,Tillandsia tenuifolia,facultative,Sapindaceae,Matayba,elaeagnoides,Matayba elaeagnoides,2002,2006,Abundance,830,1369,21.5,Other,YES,
FUME_03438,FUME,E3457,LIMA DUARTE,MATO GROSSO DO SUL,MS,Brazil,,Cloud Forest,-21.69636,-43.89749,100,"Parque Estadual do Ibitipoca, Gruta do Cruzeiro",Angiosperms,Bromeliaceae,Tillandsia,geminiflora,Tillandsia geminiflora,holoepiphyte,Nyctaginaceae,Guapira,opposita,Guapira opposita,2014,2014,Presence_absence,1714,1771,18,Seasonal Forest,YES,
MENE2_18226,MENE2,E2566,RIO DE JANEIRO,RIO DE JANEIRO,RJ,Brazil,,,-22.9028,-43.2075,Coordinates given in the herbarium record,Metade da Serra da estrada Rio/Petropolis.,Angiosperms,Bromeliaceae,Aechmea,weilbachii,Aechmea weilbachii,holoepiphyte,,,,,,,Presence_only,14,1257,26.2000007629395,Ombrophilous Forest,YES,
BARB_00082,BARB,E0082,RIO PRETO,MATO GROSSO DO SUL,MS,Brazil,,Montane Seasonal Semideciduous Forest,-22.0129,-43.8628,Forest fragment,Fazenda de SantAnna,Angiosperms,Piperaceae,Peperomia,glabella,Peperomia glabella,holoepiphyte,,,,,2011,2018,Presence_only,992,1478,22.1000003814697,Seasonal Forest,YES,Coletas realizadas em um fragmentos
MANI_00369,MANI,E0369,CAMPOS DO JORDAO,SAO PAULO,SP,Brazil,1,Mixed Ombrophilous Forest,-22.655278,-45.4425,Forest fragment,Parque Estadual de Campos do Jordao,Ferns,Polypodiaceae,Cochlidium,punctatum,Cochlidium punctatum,holoepiphyte,,,,,2010,2011,Presence_only,1668,1815,16.8999996185303,Ombrophilous Forest,YES,
MENE2_20861,MENE2,E28055,JACARACI,BAHIA,BA,Brazil,,,-14.9167,-42.5167,Coordinates given in the herbarium record,Gruta dos Brejoes,Angiosperms,Bromeliaceae,Tillandsia,loliacea,Tillandsia loliacea,facultative,,,,,,,Presence_only,926,898,22.2999992370605,,NO,
FUME_07490,FUME,E7510,BAEPENDI,MATO GROSSO DO SUL,MS,Brazil,,Mixed Ombrophilous Forest,-22.142,-44.7328,2000,Parque Estadual da Serra do Papagaio,Angiosperms,Orchidaceae,Gomesa,gardneri,Gomesa gardneri,holoepiphyte,Podocarpaceae,Podocarpus,lambertii,Podocarpus lambertii,2012,2013,Presence_absence,1798,1890,17.1000003814697,Other,YES,
MENE2_28918,MENE2,E5344,ITATIAIA,RIO DE JANEIRO,RJ,Brazil,,,-22.4961,-44.5633,Coordinates given in the herbarium record,Km 12-13.,Angiosperms,Orchidaceae,Bulbophyllum,regnellii,Bulbophyllum regnellii,holoepiphyte,,,,,,,Presence_only,407,1501,24.6000003814697,Seasonal Forest,YES,
PERE_00760,PERE,TS287,TEODORO SAMPAIO,SAO PAULO,SP,Brazil,,Forest Interior,-22.60727113,-52.30707805,10,Parque Estadual Morro do Diabo,Angiosperms,Moraceae,Ficus,luschnathiana,Ficus luschnathiana,hemiepiphyte,,,,,2007,2011,Presence_only,312,1192,25.3999996185303,Seasonal Forest,YES,"habito hemiepifitico; amostragem assistematica em uma area de ~ 100.000 ha entre as coordenadas -52,513 dd -22,625 dd e -52,163 dd -22,265 dd.  habito terricola:nao"
MENE2_14709,MENE2,E22462,BAEPENDI,MATO GROSSO DO SUL,MS,Brazil,,,-22.141,-44.7305,Coordinates given in the herbarium record,Parque Estadual da Serra do Papagaio,Angiosperms,Orchidaceae,Anathallis,linearifolia,Anathallis linearifolia,holoepiphyte,,,,,,,Presence_only,1798,1874,17.2999992370605,Other,YES,
ANNE_01334,ANNE,14543,GASPAR,SANTA CATARINA,SC,Brazil,,Dense Ombrophilous Forest,-26.8167,-49.0333,Municipality,Fidelis,Ferns,Blechnaceae,Lomaridium,acutum,Lomaridium acutum,hemiepiphyte,,,,,2009,2009,Presence_only,159,1580,24.5,Ombrophilous Forest,YES,
MENE2_23859,MENE2,E30780,BLUMENAU,SANTA CATARINA,SC,Brazil,,,-27.097017,-49.139353,Coordinates given in the herbarium record,Area Virgem do Parque Nacional da Serra do Itajai,Angiosperms,Bromeliaceae,Vriesea,carinata,Vriesea carinata,holoepiphyte,,,,,,,Presence_only,623,1658,21.2000007629395,Ombrophilous Forest,YES,
ANNE_01113,ANNE,23372,GARUVA,SANTA CATARINA,SC,Brazil,,Dense Ombrophilous Forest,-26.05,-48.7167,Municipality,Sol Nascente,Ferns,Aspleniaceae,Asplenium,serra,Asplenium serra,facultative,,,,,2010,2010,Presence_only,81,1844,25.1000003814697,Ombrophilous Forest,YES,
MENE2_22644,MENE2,E29676,CARAGUATATUBA,SAO PAULO,SP,Brazil,,,-23.6203,-45.4131,Coordinates given in the herbarium record,Condominio Parque Imperial,Angiosperms,Bromeliaceae,Tillandsia,tenuifolia,Tillandsia tenuifolia,facultative,,,,,,,Presence_only,,2074,26.7000007629395,,YES,
KERB_10582,KERB,E10582,PARANAGUA,PARANA,PR,Brazil,ABUNDANCE,Dense Ombrophilous Forest,-25.509754,-48.336076,Study site,Estacao Ecologica da Ilha do Mel,Angiosperms,Bromeliaceae,Vriesea,incurvata,Vriesea incurvata,holoepiphyte,,,,,1990,2002,Presence_only,1,2184,25.2000007629395,,YES,
FEMA_00002,FEMA,E002,CAMACAN,BAHIA,BA,Brazil,1,Primary Forest,-15.383333,-39.55,Study site,RPPN Serra Bonita,Ferns,Aspleniaceae,Asplenium,auriculatum,Asplenium auriculatum,holoepiphyte,,,,,2005,2009,Presence_only,152,1148,24.8999996185303,Ombrophilous Forest,YES,"7500 hectares e a area total da reserva. O estudo floristico foi realizado em todo o fragmento, buscando abranger o maior numero de ambientes. NA"
KERB_05475,KERB,E5475,ARAUCARIA,PARANA,PR,Brazil,ABUNDANCE,Secondary Forest,-25.588749,-49.347156,Forest fragment,REPAR,Ferns,Polypodiaceae,Pleopeltis,pleopeltifolia,Pleopeltis pleopeltifolia,holoepiphyte,,,,,2000,2002,Abundance,914,1284,20.8999996185303,Ombrophilous Forest,YES,
ANNE_05102,ANNE,18068,SAO BENTO DO SUL,SANTA CATARINA,SC,Brazil,,Dense Ombrophilous Forest,-26.35,-49.2333,Municipality,Braco esquerdo,Angiosperms,Cactaceae,Rhipsalis,pachyptera,Rhipsalis pachyptera,holoepiphyte,,,,,2009,2009,Presence_only,588,1562,20.5,Ombrophilous Forest,YES,
MENE2_19735,MENE2,E27031,QUATRO BARRAS,PARANA,PR,Brazil,,,-25.3656,-49.0769,Coordinates given in the herbarium record,,Angiosperms,Orchidaceae,Stelis,papaquerensis,Stelis papaquerensis,holoepiphyte,,,,,,,Presence_only,908,1590,21,Ombrophilous Forest,YES,
MENE2_23474,MENE2,E30430,CONCEICAO DA BARRA,ESPIRITO SANTO,ES,Brazil,,,-18.615833,-39.735,Coordinates given in the herbarium record,APA de Guriri,Angiosperms,Orchidaceae,Vanilla,chamissonis,Vanilla chamissonis,hemiepiphyte,,,,,,,Presence_only,1,1329,26.2999992370605,Other,YES,
KERB_03103,KERB,E3103,ITAPOA,SANTA CATARINA,SC,Brazil,ABUNDANCE,Forest Fragment,-26.176814,-48.600791,Study site,Balneario Figueira do Pontal,Angiosperms,Araceae,Monstera,adansonii,Monstera adansonii,hemiepiphyte,,,,,2017,2017,Presence_only,,,,Ombrophilous Forest,YES,
KERB_09170,KERB,E9170,LAPA,PARANA,PR,Brazil,ABUNDANCE,Secondary Forest,-25.578059,-49.912969,Forest fragment,Castelhanos,Ferns,Polypodiaceae,Microgramma,squamulosa,Microgramma squamulosa,holoepiphyte,Euphorbiaceae,Gymnanthes,klotzschiana,Gymnanthes klotzschiana,2002,2006,Abundance,830,1369,21.5,Other,YES,
MENE2_10660,MENE2,E18781,CERRO AZUL,PARANA,PR,Brazil,,,-24.8236,-49.2611,Coordinates given in the herbarium record,,Angiosperms,Piperaceae,Peperomia,rotundifolia,Peperomia rotundifolia,holoepiphyte,,,,,,,Presence_only,521,1145,25.5,Ombrophilous Forest,YES,
MENE2_23337,MENE2,E30306,UNA,BAHIA,BA,Brazil,,,-15.2933,-39.0753,Coordinates given in the herbarium record,,Angiosperms,Orchidaceae,Trizeuxis,falcata,Trizeuxis falcata,holoepiphyte,,,,,,,Presence_only,7,1618,25.7999992370605,Other,YES,
MENE2_02753,MENE2,E11593,CRAVOLANDIA,BAHIA,BA,Brazil,,,-13.3586,-39.815,Coordinates given in the herbarium record,,Angiosperms,Bromeliaceae,Lymania,alvimii,Lymania alvimii,holoepiphyte,,,,,,,Presence_only,580,738,23,Seasonal Forest,YES,
MENE2_15121,MENE2,E22837,SAO BENTO DO SUL,SANTA CATARINA,SC,Brazil,,,-26.365003,-49.235589,Coordinates given in the herbarium record,Braco esquerdo,Angiosperms,Orchidaceae,Acianthera,oligantha,Acianthera oligantha,holoepiphyte,,,,,,,Presence_only,536,1542,22,Ombrophilous Forest,YES,
FUME_02259,FUME,E2273,LIMA DUARTE,MATO GROSSO DO SUL,MS,Brazil,,Cloud Forest,-21.70931,-43.89967,100,"Parque Estadual do Ibitipoca, Gruta das Bromelias",Angiosperms,Bromeliaceae,Tillandsia,gardneri,Tillandsia gardneri,facultative,Nyctaginaceae,Guapira,opposita,Guapira opposita,2014,2014,Presence_absence,1576,1649,19.7000007629395,Seasonal Forest,YES,
KERB_05953,KERB,E5953,CAMPINA GRANDE DO SUL,PARANA,PR,Brazil,ABUNDANCE,,-25.240888,-48.830907,Forest fragment,Morro Caratuva,Angiosperms,Bromeliaceae,Aechmea,gamosepala,Aechmea gamosepala,holoepiphyte,Winteraceae,Drimys,angustifolia,Drimys angustifolia,2009,2011,Abundance,1714,1907,16.7999992370605,Ombrophilous Forest,YES,
NUNE_00222,NUNE,M01,CACHOEIRAS DE MACACU,RIO DE JANEIRO,RJ,Brazil,,Secondary Forest,-22.43348639,-42.76679111,10,Guapiacu,Angiosperms,Cactaceae,Rhipsalis,pachyptera,Rhipsalis pachyptera,holoepiphyte,Meliaceae,Guarea,guidonia,Guarea guidonia,2017,2017,Abundance,151,1368,26.1000003814697,Ombrophilous Forest,YES,
MARQ_00291,MARQ,E0005,ARROIO DO SAL,RIO GRANDE DO SUL,RS,Brazil,5,Sandy Coastal Forest,-29.489711,-49.844411,Forest fragment,Parque Natural Municipal Tupancy,Ferns,Dryopteridaceae,Rumohra,adiantiformis,Rumohra adiantiformis,facultative,,,,,2011,2011,Presence_only,,,,Other,YES,
JABOT_03652,JABOT,202402,NOVA VICOSA,BAHIA,BA,Brazil,,,-17.89,-39.37,Municipality,,Angiosperms,Bromeliaceae,Vriesea,procera,Vriesea procera,facultative,,,,,1973,1973,Presence_only,1,1560,26.6000003814697,Other,YES,
MENE2_26994,MENE2,E3420,OLARIA,MATO GROSSO DO SUL,MS,Brazil,,,-21.8608,-43.9372,Coordinates given in the herbarium record,Serra das Flores,Angiosperms,Araceae,Anthurium,scandens,Anthurium scandens,holoepiphyte,,,,,,,Presence_only,914,1497,22.1000003814697,Seasonal Forest,YES,
KERB_03780,KERB,E3780,SAO JOAQUIM,SANTA CATARINA,SC,Brazil,ABUNDANCE,,-28.482429,-49.832046,Study site,Rio Pelotas,Ferns,Polypodiaceae,Pleopeltis,hirsutissima,Pleopeltis hirsutissima,holoepiphyte,,,,,2014,2014,Abundance,1132,1635,19.7999992370605,Ombrophilous Forest,YES,
NUNE_02013,NUNE,AD190,GUAPIMIRIM,RIO DE JANEIRO,RJ,Brazil,23A5,Secondary Forest,-22.47444444,-42.99972222,Study site,Vale do Garrafao,Ferns,Polypodiaceae,Pleopeltis,pleopeltifolia,Pleopeltis pleopeltifolia,holoepiphyte,,,,,2007,2008,Abundance,689,1730,22.7000007629395,Ombrophilous Forest,YES,
NUNE_01919,NUNE,AD096,GUAPIMIRIM,RIO DE JANEIRO,RJ,Brazil,11A12,Secondary Forest,-22.47444444,-42.99972222,Study site,Vale do Garrafao,Ferns,Polypodiaceae,Microgramma,squamulosa,Microgramma squamulosa,holoepiphyte,,,,,2007,2008,Abundance,689,1730,22.7000007629395,Ombrophilous Forest,YES,
MARC_00248,MARC,E0248,UBATUBA,SAO PAULO,SP,Brazil,3,Dense Ombrophilous Forest,-23.23785,-44.982008,Plot,Parque Estadual da Serra do Mar. Parcela permanente mata baixa,Angiosperms,Gesneriaceae,Nematanthus,brasiliensis,Nematanthus brasiliensis,holoepiphyte,,,,,2013,2013,Presence_only,1218,1676,18.3999996185303,Ombrophilous Forest,YES,
KERB_06214,KERB,E6214,CAMPINA GRANDE DO SUL,PARANA,PR,Brazil,ABUNDANCE,,-25.240888,-48.830907,Forest fragment,Morro Caratuva,Ferns,Polypodiaceae,Cochlidium,punctatum,Cochlidium punctatum,holoepiphyte,Myrtaceae,Myrceugenia,seriatoramosa,Myrceugenia seriatoramosa,2009,2011,Abundance,1714,1907,16.7999992370605,Ombrophilous Forest,YES,
MENE2_02795,MENE2,E11631,URUCUCA,BAHIA,BA,Brazil,,,-14.423333,-39.060556,Coordinates given in the herbarium record,Distrito de Serra Grande. Rod. Serra Grande/Itacare. Faz. Lagoa.,Angiosperms,Bromeliaceae,Lymania,corallina,Lymania corallina,holoepiphyte,,,,,,,Presence_only,31,2005,25.2999992370605,Ombrophilous Forest,YES,
PERE_01345,PERE,FD02715,ASSIS,SAO PAULO,SP,Brazil,,Urban Area,-22.65260319,-50.42186743,10,Parque Buracao,Angiosperms,Moraceae,Ficus,citrifolia,Ficus citrifolia,hemiepiphyte,,,,,2007,2011,Presence_only,567,1353,23.5,Savanna,YES,amostragem assistematica habito terricola:NA
FUME_06567,FUME,E6587,BAEPENDI,MATO GROSSO DO SUL,MS,Brazil,,Cloud Forest,-22.1225,-44.7443,500,"Parque Estadual da Serra do Papagaio, Chapadao",Angiosperms,Cactaceae,Rhipsalis,pulchra,Rhipsalis pulchra,holoepiphyte,,,,,2012,2013,Presence_absence,1849,2026,16,Other,YES,
JABOT_01785,JABOT,614352,GUARATUBA,PARANA,PR,Brazil,,,-25.93694,-48.87833,Coordinates given in the herbarium record,,Angiosperms,Onagraceae,Fuchsia,regia,Fuchsia regia,holoepiphyte,,,,,2014,2014,Presence_only,617,1790,19.6000003814697,Ombrophilous Forest,YES,
PERB_01556,PERB,E1699,SAO LUIS DO PARAITINGA,SAO PAULO,SP,Brazil,,,-23.344267,-45.125278,20,Parque Estadual da Serra do Mar,Angiosperms,Gesneriaceae,Nematanthus,fluminensis,Nematanthus fluminensis,holoepiphyte,,,,,,,Presence_only,940,1768,19.6000003814697,Ombrophilous Forest,YES,Example
KERB_01791,KERB,E1791,QUITANDINHA,PARANA,PR,Brazil,ABUNDANCE,Secondary Forest,-25.835085,-49.419007,Forest fragment,Fragment,Angiosperms,Cactaceae,Lepismium,houlletianum,Lepismium houlletianum,holoepiphyte,,,,,2004,2004,Presence_only,914,1310,20.5,Ombrophilous Forest,YES,
KERB_03630,KERB,E3630,SAO JOAQUIM,SANTA CATARINA,SC,Brazil,ABUNDANCE,,-28.482429,-49.832046,Study site,Rio Pelotas,Ferns,Polypodiaceae,Campyloneurum,austrobrasilianum,Campyloneurum austrobrasilianum,holoepiphyte,,,,,2014,2014,Abundance,1132,1635,19.7999992370605,Ombrophilous Forest,YES,
PERE_00383,PERE,EEC253,GALIA,SAO PAULO,SP,Brazil,,Forest Interior,-22.41431623,-49.68213499,10,Estacao Ecologica Caetetus,Angiosperms,Moraceae,Ficus,luschnathiana,Ficus luschnathiana,hemiepiphyte,,,,,2007,2011,Presence_only,610,1285,23.5,Seasonal Forest,YES,"habito hemiepifitico; forofito morto; amostragem assistematica em uma area de ~ 100.000 ha entre as coordenadas -49,869 dd -22,513 dd e -49,534 dd -22,249 dd.  habito terricola:nao"
AAMO_00236,AAMO,E0236,ARATACA,BAHIA,BA,Brazil,2,Dense Ombrophilous Forest,-15.16,-39.33,Study site,Parque Nacional da Serra das Lontras,Angiosperms,Orchidaceae,Brassia,arachnoidea,Brassia arachnoidea,holoepiphyte,,,,,2006,2014,Presence_only,150,1323,21.1000003814697,Ombrophilous Forest,YES,
FUME_03196,FUME,E3215,LIMA DUARTE,MATO GROSSO DO SUL,MS,Brazil,,Cloud Forest,-21.69636,-43.89749,100,"Parque Estadual do Ibitipoca, Gruta do Cruzeiro",Ferns,Polypodiaceae,Microgramma,squamulosa,Microgramma squamulosa,holoepiphyte,Nyctaginaceae,Guapira,opposita,Guapira opposita,2014,2014,Presence_absence,1714,1771,18,Seasonal Forest,YES,
MENE2_15743,MENE2,E23402,CASTELO,ESPIRITO SANTO,ES,Brazil,,,-20.526389,-41.12,Coordinates given in the herbarium record,Rio Manso,Angiosperms,Orchidaceae,Acianthera,saurocephala,Acianthera saurocephala,holoepiphyte,,,,,,,Presence_only,1363,1441,19.2000007629395,Ombrophilous Forest,YES,
SIQU_00179,SIQU,S319,SOORETAMA,ESPIRITO SANTO,ES,Brazil,,Tableland Forest,-19.18495,-40.069308,Study site,Reserva Natural Vale,Angiosperms,Bromeliaceae,Aechmea,maasii,Aechmea maasii,holoepiphyte,,,,,2003,2003,Presence_only,48,1205,26.3999996185303,Ombrophilous Forest,YES,
PTEO_00370,PTEO,E0370,GRAO PARA,SANTA CATARINA,SC,Brazil,,Secondary Forest,-28.190955,-49.390878,5,Parque Estadual da Serra Furada,Angiosperms,Bromeliaceae,Tillandsia,aeranthos,Tillandsia aeranthos,holoepiphyte,,,,,2011,2012,Presence_absence,399,1518,22.3999996185303,Ombrophilous Forest,YES,
MENE2_01782,MENE2,E10710,TAPERA,PERNAMBUCO,PE,Brazil,,,-8.4,-38.0833,Coordinates given in the herbarium record,Tapera,Angiosperms,Orchidaceae,Ionopsis,utricularioides,Ionopsis utricularioides,holoepiphyte,,,,,,,Presence_only,,,,,NO,
KERB_12207,KERB,E12207,PIRAQUARA,PARANA,PR,Brazil,ABUNDANCE,Mixed Ombrophilous Forest,-25.528984,-49.012214,Forest fragment,Haras Santo Antonio,Angiosperms,Cactaceae,Rhipsalis,teres,Rhipsalis teres,holoepiphyte,Lauraceae,Ocotea,sp.,Ocotea sp.,2002,2006,Abundance,1015,1701,20.3999996185303,Ombrophilous Forest,YES,
PERE_00190,PERE,EEC005-2-,GALIA,SAO PAULO,SP,Brazil,,Forest Interior,-22.39235037,-49.69115187,10,Estacao Ecologica Caetetus,Angiosperms,Moraceae,Ficus,citrifolia,Ficus citrifolia,hemiepiphyte,,,,,2007,2011,Presence_only,611,1303,23.1000003814697,Seasonal Forest,YES,"habito hemiepifitico; forofito caido e morto; amostragem assistematica em uma area de ~ 100.000 ha entre as coordenadas -49,869 dd -22,513 dd e -49,534 dd -22,249 dd.  habito terricola:nao"
FRAN_01330,FRAN,E1333,MIMOSO DO SUL,ESPIRITO SANTO,ES,Brazil,1,Primary Forest,-20.936667,-41.553333,Forest fragment,Pedra dos Pontoes:primeira mata nebular,Angiosperms,Cactaceae,Rhipsalis,teres,Rhipsalis teres,holoepiphyte,Nyctaginaceae,Guapira,opposita,Guapira opposita,2016,2016,Abundance,634,1391,20.3999996185303,Seasonal Forest,YES,
KERB_05867,KERB,E5867,BALSA NOVA,PARANA,PR,Brazil,ABUNDANCE,Secondary Forest,-25.553261,-49.808853,Forest fragment,Ponte dos Arcos,Ferns,Polypodiaceae,Microgramma,vacciniifolia,Microgramma vacciniifolia,holoepiphyte,,,,,2002,2006,Abundance,882,1364,21.2000007629395,Other,YES,
FRAN_00684,FRAN,E0687,MIMOSO DO SUL,ESPIRITO SANTO,ES,Brazil,1,Inselberg,-20.93892,-41.544476,Study site,Pontoes de Mimoso do Sul: afloramento do Toti,Angiosperms,Bromeliaceae,Vriesea,lubbersii,Vriesea lubbersii,holoepiphyte,,,,,2015,2015,Abundance,634,1317,21.7999992370605,Seasonal Forest,YES,
MENE2_18096,MENE2,E25541,SILVA JARDIM,RIO DE JANEIRO,RJ,Brazil,,,-22.4666667,-42.5,Coordinates given in the herbarium record,Reserva Ecologica Municipal de Macae de Cima. Area da Parcela I.,Angiosperms,Cactaceae,Rhipsalis,paradoxa,Rhipsalis paradoxa,holoepiphyte,,,,,,,Presence_only,682,1394,24.5,Ombrophilous Forest,YES,
KERB_12511,KERB,E12511,PIRAQUARA,PARANA,PR,Brazil,ABUNDANCE,Mixed Ombrophilous Forest,-25.528984,-49.012214,Forest fragment,Haras Santo Antonio,Angiosperms,Cactaceae,Rhipsalis,campos-portoana,Rhipsalis campos-portoana,holoepiphyte,Myrtaceae,,,,2002,2006,Abundance,1015,1701,20.3999996185303,Ombrophilous Forest,YES,
KERB_04889,KERB,E4889,CONTENDA,PARANA,PR,Brazil,ABUNDANCE,Secondary Forest,-25.604126,-49.570547,Forest fragment,General Lucio,Angiosperms,Orchidaceae,Acianthera,sonderiana,Acianthera sonderiana,holoepiphyte,,,,,2002,2006,Abundance,872,1323,21,Ombrophilous Forest,YES,
FUME_04369,FUME,E4388,LIMA DUARTE,MATO GROSSO DO SUL,MS,Brazil,,Cloud Forest,-21.70193,-43.87246,100,"Parque Estadual do Ibitipoca, Gruta do Piao",Angiosperms,Bromeliaceae,Vriesea,penduliflora,Vriesea penduliflora,holoepiphyte,,,,,2014,2014,Presence_absence,1301,1770,18,Seasonal Forest,YES,
FRAN_01544,FRAN,E1547,MIMOSO DO SUL,ESPIRITO SANTO,ES,Brazil,1,Primary Forest,-20.936667,-41.553333,Forest fragment,Pedra dos Pontoes:primeira mata nebular,Angiosperms,Bromeliaceae,Vriesea,flava,Vriesea flava,holoepiphyte,Nyctaginaceae,Guapira,opposita,Guapira opposita,2016,2016,Abundance,634,1391,20.3999996185303,Seasonal Forest,YES,
KERB_03529,KERB,E3529,SAO JOAQUIM,SANTA CATARINA,SC,Brazil,ABUNDANCE,,-28.471217,-49.83173,Study site,Rio Pelotas,Ferns,Polypodiaceae,Campyloneurum,austrobrasilianum,Campyloneurum austrobrasilianum,holoepiphyte,,,,,2014,2014,Abundance,1132,1638,19.6000003814697,Ombrophilous Forest,YES,
MENE2_31009,MENE2,E7435,ITAGIBA,BAHIA,BA,Brazil,,,-14.172222,-39.722222,Coordinates given in the herbarium record,,Angiosperms,Orchidaceae,Dimerandra,emarginata,Dimerandra emarginata,holoepiphyte,,,,,,,Presence_only,96,1379,23.7000007629395,Seasonal Forest,YES,
FUME_02795,FUME,E2814,LIMA DUARTE,MATO GROSSO DO SUL,MS,Brazil,,Cloud Forest,-21.69636,-43.89749,100,"Parque Estadual do Ibitipoca, Gruta do Cruzeiro",Angiosperms,Orchidaceae,Bulbophyllum,granulosum,Bulbophyllum granulosum,holoepiphyte,Euphorbiaceae,Alchornea,triplinervia,Alchornea triplinervia,2014,2014,Presence_absence,1714,1771,18,Seasonal Forest,YES,
RKERST_00025,RKERST,E0025,QUATRO BARRAS,PARANA,PR,Brazil,,Ecotone between Mixed Ombrophilous and Dense Ombrophilous Forest,-25.333333,-48.933333,Study site,Vertente Oeste da Serra do Mar,Ferns,Hymenophyllaceae,Trichomanes,capillaceum,Trichomanes capillaceum,holoepiphyte,,,,,,,Presence_only,929,1725,21.3999996185303,Ombrophilous Forest,YES,
MENE2_12303,MENE2,E20275,ANTONINA,PARANA,PR,Brazil,,,-25.4311,-48.7401,Coordinates given in the herbarium record,,Angiosperms,Araceae,Philodendron,crassinervium,Philodendron crassinervium,hemiepiphyte,,,,,,,Presence_only,86,2085,25.7999992370605,Ombrophilous Forest,YES,
MENE2_29221,MENE2,E5647,SANTA TERESA,ESPIRITO SANTO,ES,Brazil,,,-19.923889,-40.620278,Coordinates given in the herbarium record,"P.N.M. Sao Lourenco, trilha da Caixa DAgua",Angiosperms,Orchidaceae,Campylocentrum,parahybunense,Campylocentrum parahybunense,holoepiphyte,,,,,,,Presence_only,801,1309,23,Ombrophilous Forest,YES,
NUNE_02343,NUNE,AD520,CACHOEIRAS DE MACACU,RIO DE JANEIRO,RJ,Brazil,C0P1A3,Secondary Forest,-22.49194444,-42.8644444,5,Poco do Anil,Angiosperms,Araceae,Philodendron,roseopetiolatum,Philodendron roseopetiolatum,hemiepiphyte,,,,,2012,2016,Presence_only,260,1423,26.1000003814697,Ombrophilous Forest,YES,507
MARQ_00355,MARQ,E0006,TERRA DE AREIA,RIO GRANDE DO SUL,RS,Brazil,6,Restinga,-29.626037,-50.017987,Municipality,,Angiosperms,Orchidaceae,Gomesa,ciliata,Gomesa ciliata,holoepiphyte,,,,,1998,1999,Abundance,31,1475,23.2000007629395,Ombrophilous Forest,YES,
ZORZ_00106,ZORZ,E0106,IUNA,ESPIRITO SANTO,ES,Brazil,1,Secondary Forest,-20.366132,-41.474379,Forest fragment,"Serra do Valentim, Propriedade do Seu Aristides",Angiosperms,Orchidaceae,Octomeria,grandiflora,Octomeria grandiflora,holoepiphyte,,,,,2011,2017,Presence_only,1212,1443,19.3999996185303,Ombrophilous Forest,YES,Only botanical collections
KESS_00441,KESS,E0441,SAO FRANCISCO DO SUL,SANTA CATARINA,SC,Brazil,,,-26.2433,-48.6381,Municipality,,Angiosperms,Bromeliaceae,Vriesea,rodigasiana,Vriesea rodigasiana,holoepiphyte,,,,,,,Presence_only,25,1825,25.1000003814697,,YES,
FUME_04469,FUME,E4488,LIMA DUARTE,MATO GROSSO DO SUL,MS,Brazil,,Cloud Forest,-21.70193,-43.87246,100,"Parque Estadual do Ibitipoca, Gruta do Piao",Angiosperms,Orchidaceae,Bifrenaria,vitellina,Bifrenaria vitellina,holoepiphyte,Myrtaceae,Myrcia,splendens,Myrcia splendens,2014,2014,Presence_absence,1301,1770,18,Seasonal Forest,YES,
PERE_00719,PERE,TS232 -1-,TEODORO SAMPAIO,SAO PAULO,SP,Brazil,,Forest Edge,-22.52118086,-52.31308192,10,Parque Estadual Morro do Diabo,Angiosperms,Moraceae,Ficus,crocata,Ficus crocata,hemiepiphyte,,,,,2007,2011,Presence_only,533,1189,24.8999996185303,Seasonal Forest,YES,"habito terricola; amostragem assistematica em uma area de ~ 100.000 ha entre as coordenadas -52,513 dd -22,625 dd e -52,163 dd -22,265 dd.  habito terricola:sim"
KERB_05743,KERB,E5743,BALSA NOVA,PARANA,PR,Brazil,ABUNDANCE,Secondary Forest,-25.553261,-49.808853,Forest fragment,Ponte dos Arcos,Angiosperms,Piperaceae,Peperomia,catharinae,Peperomia catharinae,holoepiphyte,,,,,2002,2006,Abundance,882,1364,21.2000007629395,Other,YES,
MENE2_21635,MENE2,E28759,BEZERROS,PERNAMBUCO,PE,Brazil,,,-8.336944444,-35.83416667,Coordinates given in the herbarium record,"Distrito de Sapucarana-Serra da Camaratuba, Pedra Antonio Bezerra.",Angiosperms,Bromeliaceae,Tillandsia,recurvata,Tillandsia recurvata,facultative,,,,,,,Presence_only,765,732,22.2000007629395,,NO,
BREI_00601,BREI,E601,CANANEIA,SAO PAULO,SP,Brazil,T.B. BREIER 0731,Primary Restinga,-25.077222,-47.929167,1000,Parque Estadual Ilha do Cardoso,Angiosperms,Orchidaceae,Epidendrum,cristatum,Epidendrum cristatum,holoepiphyte,,,,,2002,2005,Presence_only,5,2481,26.6000003814697,Ombrophilous Forest,YES,
KOJU_00063,KOJU,NK063,SAO FRANCISCO DE PAULA,RIO GRANDE DO SUL,RS,Brazil,,Secondary Mixed Ombrophilous Forest,-29.447382,-50.54925,Forest fragment,Parque Natural Municipal da Ronda,Lichens,Parmeliaceae,Hypotrachyna,peruviana,Hypotrachyna peruviana,not possible to confirm,Asteraceae,Piptocarpha,angustifolia,Piptocarpha angustifolia,2009,2009,Presence_only,922,2102,19.8999996185303,Ombrophilous Forest,YES,Coletor Natalia M. Koch
MARO_00020,MARO,20,CERRO LARGO,CERRO LARGO,CL,Uruguay,,Hillside of Moist Forest,-32.2465,-53.78324722,10,Sierra de Rios,Angiosperms,Bromeliaceae,Tillandsia,geminiflora,Tillandsia geminiflora,holoepiphyte,Myrtaceae,Eugenia,uniflora,Eugenia uniflora,2013,2013,Presence_only,,,,,NO,
KERB_06192,KERB,E6192,CAMPINA GRANDE DO SUL,PARANA,PR,Brazil,ABUNDANCE,,-25.240888,-48.830907,Forest fragment,Morro Caratuva,Ferns,Polypodiaceae,Cochlidium,punctatum,Cochlidium punctatum,holoepiphyte,Myrtaceae,Myrceugenia,franciscensis,Myrceugenia franciscensis,2009,2011,Abundance,1714,1907,16.7999992370605,Ombrophilous Forest,YES,
MENE2_27154,MENE2,E3580,PARIQUERA-ACU,SAO PAULO,SP,Brazil,,,-24.6758334,-47.8769445,Coordinates given in the herbarium record,Propriedade de Antonio Povinski.,Angiosperms,Araceae,Anthurium,sellowianum,Anthurium sellowianum,holoepiphyte,,,,,,,Presence_only,110,1632,25.7999992370605,Ombrophilous Forest,YES,
FOUN_00403,FOUN,403,URUCUCA,BAHIA,BA,Brazil,7,Dense Ombrophilous Forest,-14.495,-39.135,Plot,Sede-Parque Estadual da Serra do Conduru,Angiosperms,Bromeliaceae,Billbergia,iridifolia,Billbergia iridifolia,holoepiphyte,,,,,2011,2012,Abundance,292,1813,24.7999992370605,Ombrophilous Forest,YES,
AAMO_00394,AAMO,E0394,ALMADINA,BAHIA,BA,Brazil,3,Dense Ombrophilous Forest,-14.7,-39.6,Study site,Reserva Particular da Serra do Corcovado,Angiosperms,Bromeliaceae,Aechmea,guaratingensis,Aechmea guaratingensis,holoepiphyte,,,,,2011,2015,Presence_only,252,1223,22.3999996185303,Ombrophilous Forest,YES,
KERB_00196,KERB,E0196,ANTONINA,PARANA,PR,Brazil,ABUNDANCE,Secondary Forest,-25.378213,-48.800209,Forest fragment,RPPN Morro da mina,Angiosperms,Orchidaceae,Trigonidium,latifolium,Trigonidium latifolium,holoepiphyte,,,,,2006,2009,Presence_only,79,2008,26.1000003814697,Ombrophilous Forest,YES,
JABOT_00559,JABOT,536728,BIGUACU,SANTA CATARINA,SC,Brazil,,,-27.36,-48.78,Coordinates given in the herbarium record,,Angiosperms,Piperaceae,Peperomia,corcovadensis,Peperomia corcovadensis,holoepiphyte,,,,,2010,2010,Presence_only,441,1669,22.5,Ombrophilous Forest,YES,
KERA_00141,KERA,E0141,TORRES,RIO GRANDE DO SUL,RS,Brazil,2,Subtropical Restinga,-29.35781,-49.757112,Study site,Faxinal,Angiosperms,Orchidaceae,Sanderella,discolor,Sanderella discolor,holoepiphyte,,,,,1986,1986,Presence_only,5,1410,23.3999996185303,Other,YES,
CROS_00225,CROS,x367,ITIRAPINA,SAO PAULO,SP,Brazil,12,Urban Area,-22.249008,-47.824131,10,Estacao Ecologica e Experimental de Itirapina,Angiosperms,Bromeliaceae,Tillandsia,tricholepis,Tillandsia tricholepis,holoepiphyte,Fabaceae,,,,2017,2017,Abundance,890,1372,22.1000003814697,Savanna,YES,The plots were circular with the tree hosting most epiphytes on the axis
JABOT_03139,JABOT,224396,MAGE,RIO DE JANEIRO,RJ,Brazil,,,-22.65,-43.04,Municipality,,Angiosperms,Bromeliaceae,Billbergia,pyramidalis,Billbergia pyramidalis,holoepiphyte,,,,,1980,1980,Presence_only,18,1401,26.2000007629395,Ombrophilous Forest,YES,
MARQ_00336,MARQ,E0006,TERRA DE AREIA,RIO GRANDE DO SUL,RS,Brazil,6,Restinga,-29.626037,-50.017987,Municipality,,Angiosperms,Cactaceae,Lepismium,cruciforme,Lepismium cruciforme,holoepiphyte,,,,,1998,1999,Abundance,31,1475,23.2000007629395,Ombrophilous Forest,YES,
MENE2_28597,MENE2,E5023,CONCEICAO DA BARRA,ESPIRITO SANTO,ES,Brazil,,,-18.405556,-39.695278,Coordinates given in the herbarium record,Parque Estadual de Itaunas,Angiosperms,Orchidaceae,Brassavola,tuberculata,Brassavola tuberculata,holoepiphyte,,,,,,,Presence_only,1,1379,26.2999992370605,,YES,
MARQ_00360,MARQ,E0006,TERRA DE AREIA,RIO GRANDE DO SUL,RS,Brazil,6,Restinga,-29.626037,-50.017987,Municipality,,Angiosperms,Orchidaceae,Gomesa,praetexta,Gomesa praetexta,holoepiphyte,,,,,1998,1999,Abundance,31,1475,23.2000007629395,Ombrophilous Forest,YES,
MENE2_04672,MENE2,E13338,PINGO-DAGUA,MATO GROSSO DO SUL,MS,Brazil,,,-19.766667,-42.466667,Coordinates given in the herbarium record,"Parque Fl. Est. Rio Doce-Marlieria. mata primaria, trilha da Campolina.",Angiosperms,Araceae,Monstera,adansonii,Monstera adansonii,hemiepiphyte,,,,,,,Presence_only,308,1132,25.7999992370605,Seasonal Forest,YES,
MENE2_09487,MENE2,E17715,AGUAS MORNAS,SANTA CATARINA,SC,Brazil,,,-27.6939,-48.8236,Coordinates given in the herbarium record,,Angiosperms,Piperaceae,Peperomia,glabella,Peperomia glabella,holoepiphyte,,,,,,,Presence_only,146,1531,24.2000007629395,Ombrophilous Forest,YES,
FUME_03872,FUME,E3891,LIMA DUARTE,MATO GROSSO DO SUL,MS,Brazil,,Cloud Forest,-21.70193,-43.87246,100,"Parque Estadual do Ibitipoca, Gruta do Piao",Angiosperms,Orchidaceae,Anathallis,rubens,Anathallis rubens,holoepiphyte,Malpighiaceae,Byrsonima,ligustrifolia,Byrsonima ligustrifolia,2014,2014,Presence_absence,1301,1770,18,Seasonal Forest,YES,
MENE2_31129,MENE2,E7555,ITACARE,BAHIA,BA,Brazil,,,-14.416667,-39.016667,Coordinates given in the herbarium record,7.3Km na estrada Serra Grande/Itacare. Conj. Sta. Cruz.,Angiosperms,Gesneriaceae,Drymonia,coccinea,Drymonia coccinea,hemiepiphyte,,,,,,,Presence_only,1,2102,25.8999996185303,,YES,
KERB_03246,KERB,E3246,SAO JOAQUIM,SANTA CATARINA,SC,Brazil,ABUNDANCE,,-28.471217,-49.83173,Study site,Rio Pelotas,Ferns,Polypodiaceae,Campyloneurum,austrobrasilianum,Campyloneurum austrobrasilianum,holoepiphyte,,,,,2014,2014,Abundance,1132,1638,19.6000003814697,Ombrophilous Forest,YES,
YANE_00051,YANE,E051,SAN PEDRO,MISIONES,N,Argentina,,Secondary Forest,-26.896583,-53.880556,Forest fragment,Esmeralda Provincial Park,Ferns,Polypodiaceae,Pecluma,sicca,Pecluma sicca,holoepiphyte,,,,,2017,2017,Presence_only,309,1839,23.7000007629395,,YES,Voucher: Marquez et al. 359 -LP-
MOZI_00019,MOZI,19,SETE BARRAS,SAO PAULO,SP,Brazil,,Forest,-24.1408,-48.0442,Forest fragment,"Base Saibadela, Parque Estadual Intervales",Angiosperms,Araceae,Philodendron,propinquum,Philodendron propinquum,hemiepiphyte,,,,,1994,2004,Presence_only,726,1430,20.7000007629395,Ombrophilous Forest,YES,
FUME_04239,FUME,E4258,LIMA DUARTE,MATO GROSSO DO SUL,MS,Brazil,,Cloud Forest,-21.70193,-43.87246,100,"Parque Estadual do Ibitipoca, Gruta do Piao",Ferns,Dryopteridaceae,Elaphoglossum,gayanum,Elaphoglossum gayanum,holoepiphyte,,,,,2014,2014,Presence_absence,1301,1770,18,Seasonal Forest,YES,
MENE2_13502,MENE2,E21365,PAULO LOPES,SANTA CATARINA,SC,Brazil,,,-27.878889,-48.761964,Coordinates given in the herbarium record,Sertao do Campo,Angiosperms,Melastomataceae,Pleiochiton,blepharodes,Pleiochiton blepharodes,holoepiphyte,,,,,,,Presence_only,380,1562,23.1000003814697,Ombrophilous Forest,YES,
CEBA_00408,CEBA,,GUARANI,MISIONES,N,Argentina,TRESSENS ET AL. 4667,,-27,-54.21667,,Reserva de Uso Multiple Guarani,Angiosperms,Gesneriaceae,Sinningia,douglasii,Sinningia douglasii,holoepiphyte,,,,,,,Presence_only,337,1745,24.2999992370605,,YES,
KERB_07686,KERB,E7686,FAZENDA RIO GRANDE,PARANA,PR,Brazil,ABUNDANCE,Mixed Ombrophilous Forest,-25.666271,-49.269229,Forest fragment,Fazenda Experimental Gralha Azul 2,Ferns,Polypodiaceae,Pleopeltis,hirsutissima,Pleopeltis hirsutissima,holoepiphyte,,,,,2015,2017,Abundance,910,1294,20.5,Ombrophilous Forest,YES,
MENE2_15171,MENE2,E22882,MORRO DO CHAPEU,BAHIA,BA,Brazil,,,-11.684444,-41.027222,Coordinates given in the herbarium record,Morrao.,Angiosperms,Orchidaceae,Anathallis,paranaensis,Anathallis paranaensis,holoepiphyte,,,,,,,Presence_only,938,727,21.7999992370605,Seasonal Forest,YES,
KERB_04408,KERB,E4408,ARAUCARIA,PARANA,PR,Brazil,ABUNDANCE,Secondary Forest,-25.600388,-49.410176,Forest fragment,Araucaria,Angiosperms,Orchidaceae,Campylocentrum,aromaticum,Campylocentrum aromaticum,holoepiphyte,,,,,2002,2006,Abundance,879,1292,21,Ombrophilous Forest,YES,
NUNE_02829,NUNE,AD1006,TERESOPOLIS,RIO DE JANEIRO,RJ,Brazil,C1000P11A1,Secondary Forest,-22.45,-42.98916667,80,Parque Nacional da Serra dos Orgaos -Estrada principal da Sede Teresopolis-,Angiosperms,Bromeliaceae,Vriesea,gigantea,Vriesea gigantea,holoepiphyte,,,,,2012,2016,Presence_only,1079,1743,20.6000003814697,Ombrophilous Forest,YES,507
FRAL_02410,FRAL,E2410,RIO PRETO,MATO GROSSO DO SUL,MS,Brazil,,Urban Green Area,-22.08972,-43.8275,100,Praca Barao de Santa Clara,Angiosperms,Bromeliaceae,Tillandsia,tricholepis,Tillandsia tricholepis,holoepiphyte,,,,,2017,2018,Presence_only,515,1431,24.2000007629395,Seasonal Forest,YES,
MENE2_28058,MENE2,E4484,NOVA FRIBURGO,RIO DE JANEIRO,RJ,Brazil,,,-22.2819,-42.5311,Coordinates given in the herbarium record,,Angiosperms,Bromeliaceae,Billbergia,macracantha,Billbergia macracantha,holoepiphyte,,,,,,,Presence_only,922,1372,21.7999992370605,Ombrophilous Forest,YES,
KERB_01086,KERB,E1086,PIRAQUARA,PARANA,PR,Brazil,ABUNDANCE,Mixed Ombrophilous Forest,-25.528984,-49.012214,Forest fragment,Haras Santo Antonio,Ferns,Dryopteridaceae,Elaphoglossum,glaziovii,Elaphoglossum glaziovii,holoepiphyte,Winteraceae,Drimys,brasiliensis,Drimys brasiliensis,2002,2006,Abundance,1015,1701,20.3999996185303,Ombrophilous Forest,YES,
ANNE_03085,ANNE,31560,MAJOR GERCINO,SANTA CATARINA,SC,Brazil,,Dense Ombrophilous Forest,-27.35,-48.95,Municipality,Reserva Indigena Aguas Claras,Ferns,Polypodiaceae,Microgramma,vacciniifolia,Microgramma vacciniifolia,holoepiphyte,,,,,2010,2010,Presence_only,252,1651,23,Ombrophilous Forest,YES,
PTEO_01087,PTEO,E1087,GRAO PARA,SANTA CATARINA,SC,Brazil,,Primary Forest,-28.17341,-49.392297,5,Parque Estadual da Serra Furada,Angiosperms,Bromeliaceae,Wittrockia,superba,Wittrockia superba,holoepiphyte,,,,,2011,2012,Presence_absence,530,1583,20.8999996185303,Savanna,YES,
MENE_00317,MENE,E0320,JUIZ DE FORA,MATO GROSSO DO SUL,MS,Brazil,,Urban Green Area,-21.7467,-43.3606,100,Museu Mariano Procopio,Ferns,Polypodiaceae,Microgramma,squamulosa,Microgramma squamulosa,holoepiphyte,Fabaceae,Erythrina,mulungu,Erythrina mulungu,2015,2016,Presence_only,686,1503,23.6000003814697,Seasonal Forest,YES,
FUME_02467,FUME,E2485,LIMA DUARTE,MATO GROSSO DO SUL,MS,Brazil,,Cloud Forest,-21.70188,-43.88374,100,"Parque Estadual do Ibitipoca, Gruta do Monjolinho",Angiosperms,Orchidaceae,Dichaea,cogniauxiana,Dichaea cogniauxiana,holoepiphyte,Asteraceae,Eremanthus,erythropappus,Eremanthus erythropappus,2014,2014,Presence_absence,1576,1692,19.1000003814697,Seasonal Forest,YES,
KERB_07599,KERB,E7599,FAZENDA RIO GRANDE,PARANA,PR,Brazil,ABUNDANCE,Mixed Ombrophilous Forest,-25.666271,-49.269229,Forest fragment,Fazenda Experimental Gralha Azul 2,Ferns,Polypodiaceae,Pecluma,sicca,Pecluma sicca,holoepiphyte,,,,,2015,2017,Abundance,910,1294,20.5,Ombrophilous Forest,YES,
KERB_01224,KERB,E1224,PIRAQUARA,PARANA,PR,Brazil,ABUNDANCE,Mixed Ombrophilous Forest,-25.528984,-49.012214,Forest fragment,Haras Santo Antonio,Angiosperms,Bromeliaceae,Aechmea,distichantha,Aechmea distichantha,holoepiphyte,Symplocaceae,Symplocos,glanduloso-marginata,Symplocos glanduloso-marginata,2002,2006,Abundance,1015,1701,20.3999996185303,Ombrophilous Forest,YES,
ANNE_03923,ANNE,24961,JOINVILLE,SANTA CATARINA,SC,Brazil,,Dense Ombrophilous Forest,-26.1833,-49.0333,Municipality,Serra Dona Francisca,Angiosperms,Piperaceae,Peperomia,glazioui,Peperomia glazioui,holoepiphyte,,,,,2010,2010,Presence_only,897,1646,20.7999992370605,Ombrophilous Forest,YES,
DGON_00190,DGON,E190,CAMPOS DO JORDAO,SAO PAULO,SP,Brazil,1,Cloud Forest,-22.7394,-45.5914,10,Parque Estadual de Campos do Jordao,Angiosperms,Cactaceae,Schlumbergera,opuntioides,Schlumbergera opuntioides,holoepiphyte,,,,,1980,1980,Presence_only,1686,1797,16.7999992370605,Ombrophilous Forest,YES,J. Cladui 18
KERB_11182,KERB,E11182,PARANAGUA,PARANA,PR,Brazil,ABUNDANCE,High Restinga Forest,-25.521936,-48.316041,Forest fragment,High height restinga forest,Angiosperms,Bromeliaceae,Vriesea,rodigasiana,Vriesea rodigasiana,holoepiphyte,Calophyllaceae,Calophyllum,brasiliense,Calophyllum brasiliense,2000,2002,Presence_only,,,,Ombrophilous Forest,YES,
FEMA_00162,FEMA,E162,JOINVILLE,SANTA CATARINA,SC,Brazil,3,,-26.28,-49.14,Coordinates given in the herbarium record,Rio Manso,Ferns,Polypodiaceae,Campyloneurum,atlanticum,Campyloneurum atlanticum,not possible to confirm,,,,,2017,2017,Presence_only,564,1586,21.2000007629395,Other,YES,"The specimens examined for this study were compiled from the following herbaria: MBM, MO, NY, P, and UPCB Cadorin 1121 -FURB-"
KERB_04379,KERB,E4379,ANTONINA,PARANA,PR,Brazil,ABUNDANCE,Secondary Forest,-25.378213,-48.800209,Forest fragment,RPPN Morro da mina,Angiosperms,Orchidaceae,Huntleya,meleagris,Huntleya meleagris,holoepiphyte,,,,,2006,2009,Presence_only,79,2008,26.1000003814697,Ombrophilous Forest,YES,
MENE2_06588,MENE2,E1508,ITAPOROROCA,PARAIBA,PB,Brazil,,,-6.82972,-35.2472,Coordinates given in the herbarium record,,Angiosperms,Bromeliaceae,Aechmea,leptantha,Aechmea leptantha,holoepiphyte,,,,,,,Presence_only,128,1112,26.7000007629395,,NO,
JABOT_02361,JABOT,322774,CAMPOS DO JORDAO,SAO PAULO,SP,Brazil,,,-22.73,-45.59,Municipality,,Angiosperms,Orchidaceae,Anathallis,radialis,Anathallis radialis,holoepiphyte,,,,,1932,1932,Presence_only,1686,1786,16.7999992370605,Ombrophilous Forest,YES,
MENE2_22796,MENE2,E29814,OROBO,PERNAMBUCO,PE,Brazil,,,-7.745,-35.6022,Coordinates given in the herbarium record,,Angiosperms,Bromeliaceae,Tillandsia,tenuifolia,Tillandsia tenuifolia,facultative,,,,,,,Presence_only,257,1160,25.2000007629395,,NO,
MINE_00371,MINE,371,CAMBARA DO SUL,RIO GRANDE DO SUL,RS,Brazil,30,Forest Interior,-29.03395833,-49.98168333,1.5,Nacional Aparados da Serra Park,Ferns,Dryopteridaceae,Rumohra,adiantiformis,Rumohra adiantiformis,facultative,,,,,2012,2015,Presence_only,920,1833,19.1000003814697,Ombrophilous Forest,YES,
MENE2_31761,MENE2,E8187,JUNDIAI,SAO PAULO,SP,Brazil,,,-23.183333,-46.883333,Coordinates given in the herbarium record,"Serra do Japi-Sentido bairro Eloy Chaves, proximo a represa do DAE.",Angiosperms,Orchidaceae,Epidendrum,chlorinum,Epidendrum chlorinum,holoepiphyte,,,,,,,Presence_only,1011,1338,21.5,Ombrophilous Forest,YES,
FUME_02669,FUME,E2688,LIMA DUARTE,MATO GROSSO DO SUL,MS,Brazil,,Cloud Forest,-21.70188,-43.88374,100,"Parque Estadual do Ibitipoca, Gruta do Monjolinho",Ferns,Polypodiaceae,Pleopeltis,macrocarpa,Pleopeltis macrocarpa,facultative,Monimiaceae,Mollinedia,engleriana,Mollinedia engleriana,2014,2014,Presence_absence,1576,1692,19.1000003814697,Seasonal Forest,YES,
CBOE_00621,CBOE,Tree134,SANTA CRUZ DO SUL,RIO GRANDE DO SUL,RS,Brazil,PA3,Araucaria Plantation,-29.44332,-52.402377,Central point in study site,Floresta Nacional de Sao Francisco de Paula.,Angiosperms,Bromeliaceae,Tillandsia,aeranthos,Tillandsia aeranthos,holoepiphyte,Araucariaceae,Araucaria,angustifolia,Araucaria angustifolia,2007,2007,Abundance,611,1359,23.1000003814697,Seasonal Forest,YES,
MENE2_11949,MENE2,E19953,OURO PRETO,MATO GROSSO DO SUL,MS,Brazil,,,-20.3039,-43.4814,Coordinates given in the herbarium record,"Pr. Antonioo Pereira, Serra do Frazao -Frascao-.",Angiosperms,Piperaceae,Peperomia,velloziana,Peperomia velloziana,holoepiphyte,,,,,,,Presence_only,861,1352,22.7999992370605,Seasonal Forest,YES,
MENE2_10969,MENE2,E19062,QUEDAS DO IGUACU,PARANA,PR,Brazil,,,-25.4497,-52.9081,Coordinates given in the herbarium record,,Angiosperms,Piperaceae,Peperomia,tetraphylla,Peperomia tetraphylla,holoepiphyte,,,,,,,Presence_only,563,1774,22.6000003814697,Seasonal Forest,YES,
ANNE_00544,ANNE,14092,ITAPOA,SANTA CATARINA,SC,Brazil,,Dense Ombrophilous Forest,-26,-48.6833,Municipality,"Rio Sai-Guacu, comunidade Quinze",Angiosperms,Araceae,Anthurium,gaudichaudianum,Anthurium gaudichaudianum,holoepiphyte,,,,,2009,2009,Presence_only,84,1884,25.1000003814697,Ombrophilous Forest,YES,
MENE2_29730,MENE2,E6156,MAMANGUAPE,PARAIBA,PB,Brazil,,,-6.83861,-35.1261,Coordinates given in the herbarium record,,Angiosperms,Orchidaceae,Catasetum,discolor,Catasetum discolor,holoepiphyte,,,,,,,Presence_only,35,1278,26.7999992370605,Other,YES,
KERB_12115,KERB,E12115,PINHAIS,PARANA,PR,Brazil,ABUNDANCE,Secondary Forest,-25.404914,-49.156269,Forest fragment,Alphaville,Angiosperms,Orchidaceae,Brasiliorchis,picta,Brasiliorchis picta,holoepiphyte,,,,,2002,2006,Presence_only,914,1469,20.7999992370605,Ombrophilous Forest,YES,
BARB_00250,BARB,E0250,SANTANA DE CATAGUASES,MATO GROSSO DO SUL,MS,Brazil,,Montane Seasonal Semideciduous Forest,-21.2276,-42.5609,Forest fragment,Serra do Relogio,Angiosperms,Orchidaceae,Stelis,papaquerensis,Stelis papaquerensis,holoepiphyte,,,,,2016,2018,Presence_only,461,1289,25.7999992370605,Seasonal Forest,YES,
MENE2_05155,MENE2,E13777,SANTA RITA DE JACUTINGA,MATO GROSSO DO SUL,MS,Brazil,,,-22.1494,-44.095,Coordinates given in the herbarium record,Santa Rita do Jacutinga,Angiosperms,Gesneriaceae,Nematanthus,crassifolius,Nematanthus crassifolius,holoepiphyte,,,,,,,Presence_only,609,1449,23.2000007629395,Seasonal Forest,YES,
MENE2_00489,MENE2,E0489,GUARATINGA,BAHIA,BA,Brazil,,,-16.5839,-39.7828,Coordinates given in the herbarium record,Km 10 Rod. Guaratinga/Sao Paulinho.,Angiosperms,Bromeliaceae,Aechmea,bromeliifolia,Aechmea bromeliifolia,holoepiphyte,,,,,,,Presence_only,180,1097,26.1000003814697,Ombrophilous Forest,YES,
KERB_07427,KERB,E7427,FAZENDA RIO GRANDE,PARANA,PR,Brazil,ABUNDANCE,Mixed Ombrophilous Forest,-25.666271,-49.269229,Forest fragment,Fazenda Experimental Gralha Azul 2,Ferns,Polypodiaceae,Campyloneurum,nitidum,Campyloneurum nitidum,facultative,,,,,2015,2017,Abundance,910,1294,20.5,Ombrophilous Forest,YES,
MENE2_19403,MENE2,E2673,ITAMBE,BAHIA,BA,Brazil,,,-15.264722,-40.574722,Coordinates given in the herbarium record,"Parque Nacional de Monte Pascoal, ao longo da Rod. p/ o park no entroncamento nature/Centro de conferencia.",Angiosperms,Araceae,Anthurium,comtum,Anthurium comtum,holoepiphyte,,,,,,,Presence_only,291,772,25.2999992370605,Ombrophilous Forest,YES,
FUME_04131,FUME,E4150,LIMA DUARTE,MATO GROSSO DO SUL,MS,Brazil,,Cloud Forest,-21.70193,-43.87246,100,"Parque Estadual do Ibitipoca, Gruta do Piao",Angiosperms,Cactaceae,Rhipsalis,pulchra,Rhipsalis pulchra,holoepiphyte,Myrtaceae,Eugenia,nutans,Eugenia nutans,2014,2014,Presence_absence,1301,1770,18,Seasonal Forest,YES,
KERB_06688,KERB,E6688,FAZENDA RIO GRANDE,PARANA,PR,Brazil,ABUNDANCE,Mixed Ombrophilous Forest,-25.661593,-49.277089,Forest fragment,Fazenda Experimental Gralha Azul,Ferns,Polypodiaceae,Niphidium,crassifolium,Niphidium crassifolium,holoepiphyte,,,,,2008,2015,Abundance,910,1304,20.3999996185303,Ombrophilous Forest,YES,
MENE2_06187,MENE2,E14715,LIMA DUARTE,MATO GROSSO DO SUL,MS,Brazil,,,-21.8425,-43.7931,Coordinates given in the herbarium record,,Angiosperms,Bromeliaceae,Nidularium,bicolor,Nidularium bicolor,holoepiphyte,,,,,,,Presence_only,850,1451,22.8999996185303,Seasonal Forest,YES,
KERB_05641,KERB,E5641,ARAUCARIA,PARANA,PR,Brazil,ABUNDANCE,Secondary Forest,-25.588749,-49.347156,Forest fragment,REPAR,Ferns,Polypodiaceae,Pleopeltis,hirsutissima,Pleopeltis hirsutissima,holoepiphyte,,,,,2000,2002,Abundance,914,1284,20.8999996185303,Ombrophilous Forest,YES,
NUNE_01244,NUNE,MBR,ANGRA DOS REIS,RIO DE JANEIRO,RJ,Brazil,,Secondary Forest,-23.183333,-44.225,Central point in study site,Morro da Praia Brava,Angiosperms,Bromeliaceae,Tillandsia,stricta,Tillandsia stricta,facultative,,,,,2001,2004,Abundance,298,1478,22.7000007629395,,YES,
FUME_00443,FUME,E0443,ARAPONGA,MATO GROSSO DO SUL,MS,Brazil,,Cloud Forest,-20.72175,-42.48216,20,"Parque Estadual Serra do Brigadeiro, Pico do Grama",Angiosperms,Orchidaceae,Epidendrum,chlorinum,Epidendrum chlorinum,holoepiphyte,,,,,2017,2017,Presence_absence,1524,1515,18.7999992370605,Seasonal Forest,YES,
PERE_01088,PERE,RP247,LUIS ANTONIO,SAO PAULO,SP,Brazil,,Forest Interior,-21.40737394,-47.8607387,10,rio da onca,Angiosperms,Moraceae,Ficus,citrifolia,Ficus citrifolia,hemiepiphyte,,,,,2007,2011,Presence_only,601,1415,24,Other,YES,"habito hemiepifitico; amostragem assistematica em uma area de ~ 50.000 ha entre as coordenadas -47,983 dd -21,409 dd e -47,835 dd -21,161 dd. habito terricola:nao"
FUME_07298,FUME,E7318,BAEPENDI,MATO GROSSO DO SUL,MS,Brazil,,Mixed Ombrophilous Forest,-22.142,-44.7328,2000,Parque Estadual da Serra do Papagaio,Angiosperms,Orchidaceae,Gomesa,longicornu,Gomesa longicornu,holoepiphyte,Podocarpaceae,Podocarpus,lambertii,Podocarpus lambertii,2012,2013,Presence_absence,1798,1890,17.1000003814697,Other,YES,
MENE2_08949,MENE2,E17226,CALDAS,MATO GROSSO DO SUL,MS,Brazil,,,-21.9666667,-46.3666667,Coordinates given in the herbarium record,Pocinhos do Rio Verde,Angiosperms,Piperaceae,Peperomia,corcovadensis,Peperomia corcovadensis,holoepiphyte,,,,,,,Presence_only,1326,1772,18.5,Other,YES,
MENE2_17894,MENE2,E25358,ANGUERA,BAHIA,BA,Brazil,,,-12.166944,-39.187778,Coordinates given in the herbarium record,Morro da Fazenda Retiro.,Angiosperms,Cactaceae,Rhipsalis,lindbergiana,Rhipsalis lindbergiana,holoepiphyte,,,,,,,Presence_only,184,776,24.5,Seasonal Forest,YES,
MENE2_03450,MENE2,E12227,JOINVILLE,SANTA CATARINA,SC,Brazil,,,-26.192511,-49.047789,Coordinates given in the herbarium record,Serra Dona Francisca,Angiosperms,Orchidaceae,Maxillaria,lindleyana,Maxillaria lindleyana,holoepiphyte,,,,,,,Presence_only,897,1629,21.5,Other,YES,
KERB_05949,KERB,E5949,CAMPINA GRANDE DO SUL,PARANA,PR,Brazil,ABUNDANCE,,-25.240888,-48.830907,Forest fragment,Morro Caratuva,Ferns,Polypodiaceae,Campyloneurum,fallax,Campyloneurum fallax,holoepiphyte,Winteraceae,Drimys,angustifolia,Drimys angustifolia,2009,2011,Abundance,1714,1907,16.7999992370605,Ombrophilous Forest,YES,
MENE2_23518,MENE2,E30470,IGARASSU,PERNAMBUCO,PE,Brazil,,,-7.830278,-35.0025,Coordinates given in the herbarium record,At Iguarassa,Angiosperms,Orchidaceae,Vanilla,gardneri,Vanilla gardneri,hemiepiphyte,,,,,,,Presence_only,62,1709,26.3999996185303,Ombrophilous Forest,YES,
MENE2_31503,MENE2,E7929,GUARATUBA,PARANA,PR,Brazil,,,-25.8828,-48.5747,Coordinates given in the herbarium record,Rio Vitorio,Angiosperms,Orchidaceae,Encyclia,patens,Encyclia patens,holoepiphyte,,,,,,,Presence_only,1,1979,25,,YES,
SIQU_00022,SIQU,S250,SOORETAMA,ESPIRITO SANTO,ES,Brazil,,Tableland Forest,-19.18495,-40.069308,Study site,Reserva Natural Vale,Angiosperms,Bromeliaceae,Hohenbergia,augusta,Hohenbergia augusta,holoepiphyte,,,,,2001,2001,Presence_only,48,1205,26.3999996185303,Ombrophilous Forest,YES,
MENE2_10598,MENE2,E18725,MONTE CASTELO,SANTA CATARINA,SC,Brazil,,,-26.82217,-50.309062,Coordinates given in the herbarium record,Campo do Areiao,Angiosperms,Piperaceae,Peperomia,rizzinii,Peperomia rizzinii,holoepiphyte,,,,,,,Presence_only,1229,1630,18.2999992370605,Ombrophilous Forest,YES,
MENE2_25790,MENE2,E32536,AFONSO CLAUDIO,ESPIRITO SANTO,ES,Brazil,,,-20.074444,-41.123889,Coordinates given in the herbarium record,"Estrada Garrafao, 3 Pontoes, Serra Pelada, mata Fria.",Angiosperms,Bromeliaceae,Vriesea,procera,Vriesea procera,facultative,,,,,,,Presence_only,523,1194,25.5,Ombrophilous Forest,YES,
JABOT_00566,JABOT,476958,ITATIAIA,RIO DE JANEIRO,RJ,Brazil,,,-22.44167,-44.60472,Coordinates given in the herbarium record,,Angiosperms,Orchidaceae,Epidendrum,armeniacum,Epidendrum armeniacum,holoepiphyte,,,,,2008,2008,Presence_only,1284,1550,20.7000007629395,Seasonal Forest,YES,
FUME_03479,FUME,E3498,LIMA DUARTE,MATO GROSSO DO SUL,MS,Brazil,,Cloud Forest,-21.69636,-43.89749,100,"Parque Estadual do Ibitipoca, Gruta do Cruzeiro",Angiosperms,Bromeliaceae,Vriesea,penduliflora,Vriesea penduliflora,holoepiphyte,Nyctaginaceae,Guapira,opposita,Guapira opposita,2014,2014,Presence_absence,1714,1771,18,Seasonal Forest,YES,
MENE2_22387,MENE2,E29442,ALTINHO,PERNAMBUCO,PE,Brazil,,,-8.5625,-36.5625,Coordinates given in the herbarium record,Sitio Demarcacao-Cortado pelo rio Una -6km do centro de Altinho-.,Angiosperms,Bromeliaceae,Tillandsia,stricta,Tillandsia stricta,facultative,,,,,,,Presence_only,,,,,NO,
MENE2_05063,MENE2,E13693,MASSARANDUBA,SANTA CATARINA,SC,Brazil,,,-26.55,-49.05,Coordinates given in the herbarium record,Serra do Jacu,Angiosperms,Gesneriaceae,Nematanthus,australis,Nematanthus australis,holoepiphyte,,,,,,,Presence_only,293,1629,22.7000007629395,Ombrophilous Forest,YES,
NUNE_00356,NUNE,A37,CACHOEIRAS DE MACACU,RIO DE JANEIRO,RJ,Brazil,,Secondary Forest,-22.43357861,-42.76680944,10,Guapiacu,Ferns,Polypodiaceae,Pleopeltis,astrolepis,Pleopeltis astrolepis,holoepiphyte,,,,,2017,2017,Abundance,151,1368,26.1000003814697,Ombrophilous Forest,YES,
ANNE_04028,ANNE,25130,PRAIA GRANDE,SANTA CATARINA,SC,Brazil,,Dense Ombrophilous Forest,-29.2,-50.0667,Municipality,Trilha do Rio do Boi,Angiosperms,Piperaceae,Peperomia,quadrifolia,Peperomia quadrifolia,holoepiphyte,,,,,2010,2010,Presence_only,513,1643,21.7999992370605,Savanna,YES,
MENE2_07897,MENE2,E1627,RIBEIRAO,PERNAMBUCO,PE,Brazil,,,-8.4456,-35.3467,Coordinates given in the herbarium record,,Angiosperms,Bromeliaceae,Aechmea,mertensii,Aechmea mertensii,holoepiphyte,,,,,,,Presence_only,152,1834,25.2999992370605,Ombrophilous Forest,YES,
FEMA_00622,FEMA,E622,MORRETES,PARANA,PR,Brazil,4,,-25.451944,-48.918611,Municipality,Parque Estadual Pico do Marumbi,Ferns,Dryopteridaceae,Elaphoglossum,glaziovii,Elaphoglossum glaziovii,holoepiphyte,,,,,2010,2014,Presence_only,1175,1894,17.6000003814697,Ombrophilous Forest,YES,"The specimens examined for this study were compiled from the following herbaria: AAU, B, BHCB, BM, BR, CEPEC, F, FLOR, FURB, GH, HB, HBR, HUEFS, INPA, K, M, MBM, MBML, MO, NY, R, RB, P, PH, PI, S, SP, SPF, UC, UPCB, and US Kozera 1232 -UPCB-"
JABOT_01694,JABOT,401807,LIMA DUARTE,MATO GROSSO DO SUL,MS,Brazil,,,-21.70306,-43.88417,Coordinates given in the herbarium record,,Angiosperms,Piperaceae,Peperomia,galioides,Peperomia galioides,holoepiphyte,,,,,2004,2004,Presence_only,1576,1692,19.1000003814697,Seasonal Forest,YES,
KERB_07796,KERB,E7796,FAZENDA RIO GRANDE,PARANA,PR,Brazil,ABUNDANCE,Mixed Ombrophilous Forest,-25.666271,-49.269229,Forest fragment,Fazenda Experimental Gralha Azul 2,Angiosperms,Bromeliaceae,Tillandsia,usneoides,Tillandsia usneoides,holoepiphyte,,,,,2015,2017,Abundance,910,1294,20.5,Ombrophilous Forest,YES,
ACLA_00013,ACLA,13,JUIZ DE FORA,MATO GROSSO DO SUL,MS,Brazil,,Urban Area,-21.73222,-43.36972,100,Mata do Krambeck,Angiosperms,Bromeliaceae,Billbergia,horrida,Billbergia horrida,holoepiphyte,Anacardiaceae,Mangifera,indica,Mangifera indica,2017,2018,Abundance,689,1519,23.2000007629395,Seasonal Forest,YES,
KAES_00481,KAES,E0481,MAR DE ESPANHA,MATO GROSSO DO SUL,MS,Brazil,1,Urban Green Area,-21.8666,-43.01059,100,Praca Barao de Ayuruoca,Angiosperms,Bromeliaceae,Tillandsia,recurvata,Tillandsia recurvata,facultative,Bignoniaceae,Tabebuia,sp.,Tabebuia sp.,2017,2018,Presence_only,596,1486,23.7999992370605,Seasonal Forest,YES,
KERB_00444,KERB,E0444,ANTONINA,PARANA,PR,Brazil,ABUNDANCE,Secondary Forest,-25.378213,-48.800209,Forest fragment,RPPN Morro da mina,Angiosperms,Araceae,Anthurium,scandens,Anthurium scandens,holoepiphyte,,,,,2006,2009,Presence_only,79,2008,26.1000003814697,Ombrophilous Forest,YES,
FUME_03051,FUME,E3070,LIMA DUARTE,MATO GROSSO DO SUL,MS,Brazil,,Cloud Forest,-21.69636,-43.89749,100,"Parque Estadual do Ibitipoca, Gruta do Cruzeiro",Angiosperms,Orchidaceae,Bulbophyllum,granulosum,Bulbophyllum granulosum,holoepiphyte,Nyctaginaceae,Guapira,opposita,Guapira opposita,2014,2014,Presence_absence,1714,1771,18,Seasonal Forest,YES,
KERB_03339,KERB,E3339,SAO JOAQUIM,SANTA CATARINA,SC,Brazil,ABUNDANCE,,-28.471217,-49.83173,Study site,Rio Pelotas,Angiosperms,Orchidaceae,Acianthera,langeana,Acianthera langeana,holoepiphyte,,,,,2014,2014,Abundance,1132,1638,19.6000003814697,Ombrophilous Forest,YES,
FUME_01724,FUME,E1735,LIMA DUARTE,MATO GROSSO DO SUL,MS,Brazil,,Cloud Forest,-21.71114,-43.89578,100,"Parque Estadual do Ibitipoca, Gruta dos Coelhos",Angiosperms,Orchidaceae,Prosthechea,allemanoides,Prosthechea allemanoides,holoepiphyte,Asteraceae,Eremanthus,erythropappus,Eremanthus erythropappus,2014,2014,Presence_absence,1576,1649,19.7000007629395,Seasonal Forest,YES,
MENE2_05131,MENE2,E13755,UNA,BAHIA,BA,Brazil,,,-15.15,-39.083333,Coordinates given in the herbarium record,"Reserva Biologica de Una, trilha do principe.",Angiosperms,Gesneriaceae,Nematanthus,corticola,Nematanthus corticola,holoepiphyte,,,,,,,Presence_only,16,1610,25.6000003814697,Ombrophilous Forest,YES,
FUME_04278,FUME,E4297,LIMA DUARTE,MATO GROSSO DO SUL,MS,Brazil,,Cloud Forest,-21.70193,-43.87246,100,"Parque Estadual do Ibitipoca, Gruta do Piao",Angiosperms,Bromeliaceae,Nidularium,ferdinandocoburgii,Nidularium ferdinandocoburgii,holoepiphyte,,,,,2014,2014,Presence_absence,1301,1770,18,Seasonal Forest,YES,
MENE2_28984,MENE2,E5410,IPAMERI,GOIAS,GO,Brazil,,,-17.71666667,-48.16666667,Coordinates given in the herbarium record,"Afluente do Rio Santo Antonio, corrego Samambaia",Angiosperms,Orchidaceae,Camaridium,ochroleucum,Camaridium ochroleucum,holoepiphyte,,,,,,,Presence_only,,,,,NO,
KESS_00831,KESS,E0831,SANTO ANTONIO DA PATRULHA,RIO GRANDE DO SUL,RS,Brazil,,,-29.8175,-50.5197,Municipality,,Angiosperms,Bromeliaceae,Vriesea,gigantea,Vriesea gigantea,holoepiphyte,,,,,,,Presence_only,141,1559,23.2999992370605,Seasonal Forest,YES,
MENE2_20412,MENE2,E27647,TAIO,SANTA CATARINA,SC,Brazil,,,-27.000278,-50.130556,Coordinates given in the herbarium record,Fazenda Taruma,Angiosperms,Bromeliaceae,Tillandsia,geminiflora,Tillandsia geminiflora,holoepiphyte,,,,,,,Presence_only,826,1538,20.7000007629395,Ombrophilous Forest,YES,
MENE2_08443,MENE2,E16766,AMPARO,SAO PAULO,SP,Brazil,,,-22.7,-46.76,Coordinates given in the herbarium record,"Amparo, Monte Alegre, Fazenda Santa Izabel",Angiosperms,Piperaceae,Peperomia,campinasana,Peperomia campinasana,holoepiphyte,,,,,,,Presence_only,859,1430,21.7999992370605,Ombrophilous Forest,YES,
MENE2_00271,MENE2,E0271,RIBEIRAO,PERNAMBUCO,PE,Brazil,,,-8.5144,-35.3778,Coordinates given in the herbarium record,Caxagua.,Angiosperms,Bromeliaceae,Aechmea,aquilega,Aechmea aquilega,holoepiphyte,,,,,,,Presence_only,146,1832,25.1000003814697,Ombrophilous Forest,YES,
BARB_00224,BARB,E0224,SANTANA DE CATAGUASES,MATO GROSSO DO SUL,MS,Brazil,,Montane Seasonal Semideciduous Forest,-21.2276,-42.5609,Forest fragment,Serra do Relogio,Angiosperms,Cactaceae,Rhipsalis,lindbergiana,Rhipsalis lindbergiana,holoepiphyte,,,,,2016,2018,Presence_only,461,1289,25.7999992370605,Seasonal Forest,YES,
MENE2_07866,MENE2,E16241,ALFREDO WAGNER,SANTA CATARINA,SC,Brazil,,,-27.7003,-49.3336,Coordinates given in the herbarium record,,Angiosperms,Orchidaceae,Trichocentrum,pumilum,Trichocentrum pumilum,holoepiphyte,,,,,,,Presence_only,664,1568,22.6000003814697,Ombrophilous Forest,YES,
KERB_04149,KERB,E4149,ANTONINA,PARANA,PR,Brazil,ABUNDANCE,Secondary Forest,-25.378213,-48.800209,Forest fragment,RPPN Morro da mina,Angiosperms,Bromeliaceae,Tillandsia,geminiflora,Tillandsia geminiflora,holoepiphyte,,,,,2006,2009,Presence_only,79,2008,26.1000003814697,Ombrophilous Forest,YES,
MENE2_09850,MENE2,E18045,ITAJU DO COLONIA,BAHIA,BA,Brazil,,,-15.166667,-39.583333,Coordinates given in the herbarium record,"Rod. Jussari/Palmira, entrada ca. 7,5Km percorrendo mais 1,7Km ate sede Faz. Teimoso. RPPN Sera do Teimoso.",Angiosperms,Piperaceae,Peperomia,magnoliifolia,Peperomia magnoliifolia,holoepiphyte,,,,,,,Presence_only,186,1095,24.7999992370605,Ombrophilous Forest,YES,
FRAL_01099,FRAL,E1099,JUIZ DE FORA,MATO GROSSO DO SUL,MS,Brazil,,Urban Green Area,-21.7769,-43.34305,100,Praca Garrastazu Medici,Ferns,Polypodiaceae,Microgramma,squamulosa,Microgramma squamulosa,holoepiphyte,Bignoniaceae,Spathodea,campanulata,Spathodea campanulata,2015,2016,Presence_only,692,1498,23.2999992370605,Seasonal Forest,YES,
FEMA_00501,FEMA,E501,SALESOPOLIS,SAO PAULO,SP,Brazil,4,Primary Forest,-23.633333,-45.866667,Municipality,Estacao Biologica de Boraceia,Ferns,Dryopteridaceae,Elaphoglossum,decoratum,Elaphoglossum decoratum,holoepiphyte,,,,,2010,2014,Presence_only,915,2314,19.2000007629395,Ombrophilous Forest,YES,"The specimens examined for this study were compiled from the following herbaria: AAU, B, BHCB, BM, BR, CEPEC, F, FLOR, FURB, GH, HB, HBR, HUEFS, INPA, K, M, MBM, MBML, MO, NY, R, RB, P, PH, PI, S, SP, SPF, UC, UPCB, and US Labiak 1101 -SP-"
MINE_00394,MINE,394,PRAIA GRANDE,SANTA CATARINA,SC,Brazil,32,Forest Interior,-29.16273889,-50.10022222,1.5,Nacional Aparados da Serra Park,Ferns,Dryopteridaceae,Elaphoglossum,sellowianum,Elaphoglossum sellowianum,holoepiphyte,,,,,2012,2015,Presence_only,948,1885,19.6000003814697,Savanna,YES,
MENE2_15725,MENE2,E23386,SAO PAULO,SAO PAULO,SP,Brazil,,,-23.5475,-46.6361,Coordinates given in the herbarium record,Jaragua,Angiosperms,Orchidaceae,Acianthera,saurocephala,Acianthera saurocephala,holoepiphyte,,,,,,,Presence_only,634,1341,21.6000003814697,Savanna,YES,
MENE_02198,MENE,E2216,LIMA DUARTE,MATO GROSSO DO SUL,MS,Brazil,,Cloud Forest,-21.71114,-43.89578,300,Parque Estadual do Ibitipoca,Angiosperms,Orchidaceae,Cattleya,coccinea,Cattleya coccinea,holoepiphyte,Asteraceae,Eremanthus,erythropappus,Eremanthus erythropappus,2016,2018,Abundance,1576,1649,19.7000007629395,Seasonal Forest,YES,
KERB_11787,KERB,E11787,PARANAGUA,PARANA,PR,Brazil,ABUNDANCE,Low Restinga Forest,-25.521936,-48.316041,Forest fragment,Low height restinga forest,Angiosperms,Orchidaceae,Octomeria,crassifolia,Octomeria crassifolia,holoepiphyte,Erythroxylaceae,Erythroxylum,umbu,Erythroxylum umbu,1997,1999,Presence_only,,,,Ombrophilous Forest,YES,
ANNE_03120,ANNE,25283,ITAPEMA,SANTA CATARINA,SC,Brazil,,Dense Ombrophilous Forest,-27.0833,-48.5833,Municipality,Canto da Praia,Angiosperms,Araceae,Monstera,praetermissa,Monstera praetermissa,hemiepiphyte,,,,,2010,2010,Presence_only,,,,,NO,
PTEO_00775,PTEO,E0775,GRAO PARA,SANTA CATARINA,SC,Brazil,,Primary Forest,-28.181391,-49.390262,5,Parque Estadual da Serra Furada,Ferns,Dryopteridaceae,Elaphoglossum,glaziovii,Elaphoglossum glaziovii,holoepiphyte,,,,,2011,2012,Presence_absence,530,1543,21.8999996185303,Ombrophilous Forest,YES,
MENE2_24741,MENE2,E31582,PETROPOLIS,RIO DE JANEIRO,RJ,Brazil,,,-22.505,-43.1786,Coordinates given in the herbarium record,,Angiosperms,Bromeliaceae,Vriesea,gradata,Vriesea gradata,holoepiphyte,,,,,,,Presence_only,895,1902,21.7999992370605,Ombrophilous Forest,YES,
MENE2_28089,MENE2,E4515,JUSSARI,BAHIA,BA,Brazil,,,-15.158611,-39.528889,Coordinates given in the herbarium record,"Rod. Jussari/Palmira, entrada ca. 7,5Km da sede do municipio, Faz. Teimoso. RPPN Serra do Teimoso.",Angiosperms,Bromeliaceae,Billbergia,morelii,Billbergia morelii,holoepiphyte,,,,,,,Presence_only,152,1134,24.5,Ombrophilous Forest,YES,
FEMA_00215,FEMA,E215,PIRAQUARA,PARANA,PR,Brazil,3,,-25.441944,-49.062778,Municipality,Veu de Noiva,Ferns,Polypodiaceae,Campyloneurum,atlanticum,Campyloneurum atlanticum,not possible to confirm,,,,,2017,2017,Presence_only,913,1565,20.8999996185303,Ombrophilous Forest,YES,"The specimens examined for this study were compiled from the following herbaria: MBM, MO, NY, P, and UPCB Hatschbach 25706 -MBM-"
MENE_01796,MENE,E1814,JUIZ DE FORA,MATO GROSSO DO SUL,MS,Brazil,,Urban Green Area,-21.7303,-43.3703,100,"Mata do Krambeck, Jardim Bot?nico da Universidade Federal de Juiz de Fora",Angiosperms,Orchidaceae,Polystachya,estrellensis,Polystachya estrellensis,holoepiphyte,,,,,2013,2013,Presence_only,689,1519,23.2000007629395,Seasonal Forest,YES,
AAMO_00305,AAMO,E0305,ARATACA,BAHIA,BA,Brazil,2,Dense Ombrophilous Forest,-15.16,-39.33,Study site,Parque Nacional da Serra das Lontras,Angiosperms,Orchidaceae,Epidendrum,flexuosum,Epidendrum flexuosum,holoepiphyte,,,,,2006,2014,Presence_only,150,1323,21.1000003814697,Ombrophilous Forest,YES,
MENE2_07484,MENE2,E15894,TAPIRAI,SAO PAULO,SP,Brazil,,,-23.9636,-47.5072,Coordinates given in the herbarium record,"Rodovia SP 79, apos a saida da cidade em direcao a Juquia, lado esquerdo. Propriedade da Sao Jose Administracao e Materias Primas.",Angiosperms,Orchidaceae,Gomesa,ranifera,Gomesa ranifera,holoepiphyte,,,,,,,Presence_only,928,1774,20.2000007629395,Ombrophilous Forest,YES,
FUME_05099,FUME,E5118,LIMA DUARTE,MATO GROSSO DO SUL,MS,Brazil,,Cloud Forest,-21.7086,-43.87404,100,"Parque Estadual do Ibitipoca, Gruta dos Viajantes",Angiosperms,Piperaceae,Peperomia,tetraphylla,Peperomia tetraphylla,holoepiphyte,Nyctaginaceae,Guapira,opposita,Guapira opposita,2014,2014,Presence_absence,1301,1667,19.5,Seasonal Forest,YES,
MENE2_12346,MENE2,E20314,CACHOEIRAS DE MACACU,RIO DE JANEIRO,RJ,Brazil,,,-22.4333333,-42.8333333,Coordinates given in the herbarium record,"Granja Monte Olivete, margem do rio Bananal, atras do Sitio Sao Jorge.",Angiosperms,Araceae,Philodendron,crassinervium,Philodendron crassinervium,hemiepiphyte,,,,,,,Presence_only,582,1569,24.3999996185303,Ombrophilous Forest,YES,
CEBA_00183,CEBA,,EL DORADO,MISIONES,N,Argentina,MULGURA ET AL. 393 -SI 032088-,,-27.426931,-55.946706,Municipality,,Ferns,Polypodiaceae,Pecluma,filicula,Pecluma filicula,holoepiphyte,,,,,,,Presence_only,109,1644,26.1000003814697,,NO,"Ruta 12 y Ayo. Parecha, 175 m s.m., 5-IX-1985"
KAES_00535,KAES,E0535,MAR DE ESPANHA,MATO GROSSO DO SUL,MS,Brazil,1,Urban Green Area,-21.8666,-43.01059,100,Praca Barao de Ayuruoca,Angiosperms,Bromeliaceae,Tillandsia,recurvata,Tillandsia recurvata,facultative,Rutaceae,Murraya,paniculata,Murraya paniculata,2017,2018,Presence_only,596,1486,23.7999992370605,Seasonal Forest,YES,
GOSI_01460,GOSI,E1222,PARANAGUA,PARANA,PR,Brazil,,Secondary Forest,-25.52,-48.509,Municipality,,Angiosperms,Bromeliaceae,Vriesea,inflata,Vriesea inflata,holoepiphyte,,,,,2014,2017,Presence_only,1,2036,24.8999996185303,,YES,
MENE2_16518,MENE2,E24107,GUARAQUECABA,PARANA,PR,Brazil,,,-25.3067,-48.3289,Coordinates given in the herbarium record,"Reserva Natural de Salto Morato, Quiosques",Angiosperms,Orchidaceae,Prosthechea,bulbosa,Prosthechea bulbosa,holoepiphyte,,,,,,,Presence_only,1,2198,26.1000003814697,,YES,
PTEO_00004,PTEO,E0004,CRICIUMA,SANTA CATARINA,SC,Brazil,,Urban Green Area,-28.691238,-49.431008,5,Parque Ecologico Municipal Jose Milanese,Angiosperms,Araceae,Anthurium,gaudichaudianum,Anthurium gaudichaudianum,holoepiphyte,Fabaceae,Piptadenia,gonoacantha,Piptadenia gonoacantha,2010,2011,Presence_absence,117,1345,23.7999992370605,Ombrophilous Forest,YES,
KERB_07814,KERB,E7814,FAZENDA RIO GRANDE,PARANA,PR,Brazil,ABUNDANCE,Mixed Ombrophilous Forest,-25.666271,-49.269229,Forest fragment,Fazenda Experimental Gralha Azul 2,Angiosperms,Bromeliaceae,Vriesea,friburgensis,Vriesea friburgensis,holoepiphyte,,,,,2015,2017,Abundance,910,1294,20.5,Ombrophilous Forest,YES,
GOSI_02201,GOSI,E1719,PRAIA GRANDE,SANTA CATARINA,SC,Brazil,,Secondary Forest,-29.197,-49.95,Municipality,,Angiosperms,Bromeliaceae,Vriesea,platynema,Vriesea platynema,facultative,,,,,2014,2017,Presence_only,117,1434,23.3999996185303,Ombrophilous Forest,YES,
KESS_00475,KESS,E0475,ALMENARA,MATO GROSSO DO SUL,MS,Brazil,,Forest Fragment,-16.0701,-40.8331,Sampled tree,,Angiosperms,Bromeliaceae,Vriesea,psittacina,Vriesea psittacina,holoepiphyte,,,,,,,Presence_only,382,979,23.6000003814697,Seasonal Forest,YES,
FRAL_02332,FRAL,E2332,RIO PRETO,MATO GROSSO DO SUL,MS,Brazil,,Urban Green Area,-22.08972,-43.8275,100,Praca Barao de Santa Clara,Angiosperms,Bromeliaceae,Tillandsia,recurvata,Tillandsia recurvata,facultative,Strelitziaceae,Ravenala,madagascariensis,Ravenala madagascariensis,2017,2018,Presence_only,515,1431,24.2000007629395,Seasonal Forest,YES,
MENE2_31472,MENE2,E7898,ESPERANCA,PARAIBA,PB,Brazil,,,-7.023,-35.8572,Coordinates given in the herbarium record,,Angiosperms,Orchidaceae,Encyclia,oncidioides,Encyclia oncidioides,holoepiphyte,,,,,,,Presence_only,410,926,23,,NO,
ALME_00009,ALME,E009,INDAIATUBA,SAO PAULO,SP,Brazil,O.J.G.ALMEIDA 011,Rural Zone,-23.112777,-47.185,200,"Est side of the Buruzinho river, close to Convivio Reconquista neighbourhood",Angiosperms,Cactaceae,Rhipsalis,cereuscula,Rhipsalis cereuscula,holoepiphyte,,,,,2009,2013,Presence_only,610,1285,22.6000003814697,Other,YES,
CEBA_00172,CEBA,,IGUAZU,MISIONES,N,Argentina,KERMES 36961-SI-,Forest,-27.426931,-55.946706,Municipality,,Ferns,Pteridaceae,Vittaria,graminifolia,Vittaria graminifolia,holoepiphyte,,,,,,,Presence_only,109,1644,26.1000003814697,,NO,"Puerto Pampa, 09-04-1901"
JABOT_02803,JABOT,548741,ITARARE,SAO PAULO,SP,Brazil,,,-24.11,-49.34,Municipality,,Angiosperms,Piperaceae,Peperomia,glazioui,Peperomia glazioui,holoepiphyte,,,,,2005,2005,Presence_only,721,1306,22.6000003814697,Savanna,YES,
JABOT_01177,JABOT,371323,ARGIRITA,MATO GROSSO DO SUL,MS,Brazil,,,-21.56472,-42.82556,Coordinates given in the herbarium record,,Angiosperms,Bromeliaceae,Portea,petropolitana,Portea petropolitana,holoepiphyte,,,,,1998,1998,Presence_only,505,1333,25.2999992370605,Seasonal Forest,YES,
JABOT_00780,JABOT,513112,ITAGUAI,RIO DE JANEIRO,RJ,Brazil,,,-22.74444,-43.78556,Coordinates given in the herbarium record,,Angiosperms,Bromeliaceae,Billbergia,pyramidalis,Billbergia pyramidalis,holoepiphyte,,,,,2011,2011,Presence_only,219,1401,25.5,Ombrophilous Forest,YES,
MENE2_21980,MENE2,E29072,PRAIA GRANDE,SANTA CATARINA,SC,Brazil,,,-29.205,-50.074444,Coordinates given in the herbarium record,Trilha do Rio do Boi,Angiosperms,Bromeliaceae,Tillandsia,stricta,Tillandsia stricta,facultative,,,,,,,Presence_only,513,1643,21.7999992370605,Savanna,YES,
MENE2_20044,MENE2,E27312,MAMANGUAPE,PARAIBA,PB,Brazil,,,-6.710388889,-35.19536111,Coordinates given in the herbarium record,Reserva Biologica Guaribas-Trilha do Poste de Cimento.,Angiosperms,Bromeliaceae,Tillandsia,bulbosa,Tillandsia bulbosa,holoepiphyte,,,,,,,Presence_only,141,1176,25.8999996185303,Seasonal Forest,YES,
CBUZ_00084,CBUZ,E0084,CURITIBA,PARANA,PR,Brazil,1,Riparian Forest,-25.437188,-49.255886,Municipality,,Angiosperms,Orchidaceae,Capanemia,micromera,Capanemia micromera,holoepiphyte,,,,,2007,2017,Presence_only,914,1366,21.1000003814697,Ombrophilous Forest,YES,
MENE2_12428,MENE2,E20389,ITACARE,BAHIA,BA,Brazil,,,-14.416667,-39.016667,Coordinates given in the herbarium record,,Angiosperms,Araceae,Philodendron,fragrantissimum,Philodendron fragrantissimum,hemiepiphyte,,,,,,,Presence_only,1,2102,25.8999996185303,,YES,
PERB_01687,PERB,E1830,NATIVIDADE DA SERRA,SAO PAULO,SP,Brazil,,,-23.4058,-45.3814,Municipality,"P.E.Serra do Mar, Nucleo Caraguatatuba",Angiosperms,Gesneriaceae,Nematanthus,gregarius,Nematanthus gregarius,holoepiphyte,,,,,2000,2000,Presence_only,888,1585,20.2999992370605,Ombrophilous Forest,YES,Example
GOSI_01352,GOSI,E1635,SETE BARRAS,SAO PAULO,SP,Brazil,,Secondary Forest,-24.388,-47.926,Municipality,,Angiosperms,Bromeliaceae,Vriesea,philippocoburgii,Vriesea philippocoburgii,facultative,,,,,2014,2017,Presence_only,70,1629,26.2000007629395,Ombrophilous Forest,YES,
MENE2_05024,MENE2,E13658,ITUPORANGA,SANTA CATARINA,SC,Brazil,,,-27.360833,-49.503056,Coordinates given in the herbarium record,Rio do Norte,Angiosperms,Gesneriaceae,Nematanthus,australis,Nematanthus australis,holoepiphyte,,,,,,,Presence_only,706,1581,21.5,Ombrophilous Forest,YES,
NUNE_00266,NUNE,M06,CACHOEIRAS DE MACACU,RIO DE JANEIRO,RJ,Brazil,,Secondary Forest,-22.43349278,-42.76680278,10,Guapiacu,Angiosperms,Araceae,Monstera,adansonii,Monstera adansonii,hemiepiphyte,Meliaceae,Guarea,guidonia,Guarea guidonia,2017,2017,Abundance,151,1368,26.1000003814697,Ombrophilous Forest,YES,
KERB_08035,KERB,E8035,GUARAPUAVA,PARANA,PR,Brazil,ABUNDANCE,,-25.521863,-51.416667,Forest fragment,Rio Sao Jeronimo,Ferns,Polypodiaceae,Microgramma,squamulosa,Microgramma squamulosa,holoepiphyte,Aquifoliaceae,Ilex,theezans,Ilex theezans,2003,2003,Abundance,984,1735,19.7000007629395,Savanna,YES,
KERB_08676,KERB,E8676,GUARAPUAVA,PARANA,PR,Brazil,ABUNDANCE,Flooded Forest,-25.521863,-51.416667,Forest fragment,Rio Sao Jeronimo,Angiosperms,Orchidaceae,Acianthera,sonderiana,Acianthera sonderiana,holoepiphyte,Euphorbiaceae,Gymnanthes,klotzschiana,Gymnanthes klotzschiana,2003,2003,Abundance,984,1735,19.7000007629395,Savanna,YES,
KERB_09962,KERB,E9962,MORRETES,PARANA,PR,Brazil,ABUNDANCE,Dense Ombrophilous Forest,-25.447705,-48.929986,Forest fragment,Morro Facaozinho,Angiosperms,Orchidaceae,Pabstiella,colorata,Pabstiella colorata,holoepiphyte,,,,,2000,2001,Presence_only,1175,1714,22.2000007629395,Ombrophilous Forest,YES,
NUNE_02121,NUNE,AD298,GUAPIMIRIM,RIO DE JANEIRO,RJ,Brazil,1B3,Secondary Forest,-22.47444444,-42.99972222,Study site,Vale do Garrafao,Angiosperms,Araceae,Philodendron,propinquum,Philodendron propinquum,hemiepiphyte,,,,,2007,2008,Abundance,689,1730,22.7000007629395,Ombrophilous Forest,YES,
MARC_00132,MARC,E0132,PORTO FERREIRA,SAO PAULO,SP,Brazil,1,Ecotone between Forest and Densely Treed Savannah (Cerradao),-21.816667,-47.416667,Forest fragment,Parque Estadual de Porto Ferreira,Angiosperms,Orchidaceae,Miltonia,flavescens,Miltonia flavescens,holoepiphyte,,,,,2013,2014,Presence_only,610,1305,23.2999992370605,Seasonal Forest,YES,
MENE2_15625,MENE2,E23295,GUARATUBA,PARANA,PR,Brazil,,,-25.8828,-48.5747,Coordinates given in the herbarium record,,Angiosperms,Orchidaceae,Acianthera,saundersiana,Acianthera saundersiana,holoepiphyte,,,,,,,Presence_only,1,1979,25,,YES,
APAU_00017,APAU,E0017,JUIZ DE FORA,MATO GROSSO DO SUL,MS,Brazil,1,Secondary Seasonal Semideciduous Forest,-21.760924,-43.348817,Municipality,,Angiosperms,Bromeliaceae,Tillandsia,usneoides,Tillandsia usneoides,holoepiphyte,,,,,2010,2014,Presence_only,686,1499,23.6000003814697,Seasonal Forest,YES,
CBOE_00185,CBOE,Tree31,SAO FRANCISCO DE PAULA,RIO GRANDE DO SUL,RS,Brazil,FO2,Mixed Ombrophilous Forest,-29.408905,-50.38645,Central point in study site,Floresta Nacional de Sao Francisco de Paula.,Angiosperms,Piperaceae,Peperomia,tetraphylla,Peperomia tetraphylla,holoepiphyte,Araucariaceae,Araucaria,angustifolia,Araucaria angustifolia,2007,2007,Abundance,917,2088,19.6000003814697,Savanna,YES,
MENE2_01417,MENE2,E10379,UNA,BAHIA,BA,Brazil,,,-15.16,-39.083334,Coordinates given in the herbarium record,"Reserva Biologica do Mico-IeOo -IBAMA-, 46 km north on BA-001 between Ilheus and Una",Angiosperms,Araceae,Heteropsis,rigidifolia,Heteropsis rigidifolia,hemiepiphyte,,,,,,,Presence_only,16,1580,25.5,Ombrophilous Forest,YES,
MENE2_05269,MENE2,E13880,PARIQUERA-ACU,SAO PAULO,SP,Brazil,,,-24.608333,-47.876944,Coordinates given in the herbarium record,Estacao Experimental do Instituto Agrono,Angiosperms,Gesneriaceae,Nematanthus,fissus,Nematanthus fissus,holoepiphyte,,,,,,,Presence_only,79,1625,25.8999996185303,Ombrophilous Forest,YES,
KERB_12638,KERB,E12638,PIRAQUARA,PARANA,PR,Brazil,ABUNDANCE,Mixed Ombrophilous Forest,-25.528984,-49.012214,Forest fragment,Haras Santo Antonio,Ferns,Polypodiaceae,Pleopeltis,hirsutissima,Pleopeltis hirsutissima,holoepiphyte,Winteraceae,Drimys,brasiliensis,Drimys brasiliensis,2002,2006,Abundance,1015,1701,20.3999996185303,Ombrophilous Forest,YES,
ANNE_05043,ANNE,17903,BLUMENAU,SANTA CATARINA,SC,Brazil,,Dense Ombrophilous Forest,-27.0833,-49.1333,Municipality,Area Virgem do Parque Nacional da Serra do Itajai,Angiosperms,Cactaceae,Rhipsalis,elliptica,Rhipsalis elliptica,holoepiphyte,,,,,2009,2009,Presence_only,608,1653,21.7999992370605,Ombrophilous Forest,YES,
KERB_07224,KERB,E7224,FAZENDA RIO GRANDE,PARANA,PR,Brazil,ABUNDANCE,Mixed Ombrophilous Forest,-25.661593,-49.277089,Forest fragment,Fazenda Experimental Gralha Azul,Ferns,Polypodiaceae,Pecluma,sicca,Pecluma sicca,holoepiphyte,Canellaceae,Cinnamodendron,dinisii,Cinnamodendron dinisii,2008,2015,Abundance,910,1304,20.3999996185303,Ombrophilous Forest,YES,
KERB_00044,KERB,E0044,SAN PEDRO,MISIONES,N,Argentina,ABUNDANCE,Secondary Forest,-26.519551,-53.991776,Forest fragment,Parque Provincial Cruce Caballero,Ferns,Polypodiaceae,Pleopeltis,pleopeltifolia,Pleopeltis pleopeltifolia,holoepiphyte,,,,,2005,2005,Presence_only,572,1861,22.7000007629395,,YES,
MENE2_23530,MENE2,E30481,BONITO,BAHIA,BA,Brazil,,,-11.828889,-41.305,Coordinates given in the herbarium record,Burado da Duda.,Angiosperms,Orchidaceae,Vanilla,palmarum,Vanilla palmarum,hemiepiphyte,,,,,,,Presence_only,918,708,21.5,Seasonal Forest,YES,
MENE2_11990,MENE2,E19990,SENGES,PARANA,PR,Brazil,,,-24.1128,-49.4636,Coordinates given in the herbarium record,,Angiosperms,Araceae,Philodendron,appendiculatum,Philodendron appendiculatum,hemiepiphyte,,,,,,,Presence_only,709,1242,23.6000003814697,Savanna,YES,
MENE2_21083,MENE2,E28257,CERRO CORA,RIO GRANDE DO NORTE,RN,Brazil,,,-6.066667,-36.366667,Coordinates given in the herbarium record,Fazenda Tupa.,Angiosperms,Bromeliaceae,Tillandsia,mallemontii,Tillandsia mallemontii,holoepiphyte,,,,,,,Presence_only,,,,,NO,
MENE2_07329,MENE2,E15753,CASIMIRO DE ABREU,RIO DE JANEIRO,RJ,Brazil,,,-22.5,-42.25,Coordinates given in the herbarium record,Area da parcela 9.,Angiosperms,Orchidaceae,Gomesa,flexuosa,Gomesa flexuosa,holoepiphyte,,,,,,,Presence_only,69,1114,25.8999996185303,Ombrophilous Forest,YES,
ZANI_00055,ZANI,E0055,MARCELINO RAMOS,RIO GRANDE DO SUL,RS,Brazil,,Riparian Forest,-27.4120499,-52.00048477,Forest fragment,Estreito Augusto Cesar,Angiosperms,Orchidaceae,Cattleya,cernua,Cattleya cernua,holoepiphyte,,,,,1998,1999,Presence_only,376,1746,24.1000003814697,Ombrophilous Forest,YES,census
MENE2_12347,MENE2,E20315,CACHOEIRAS DE MACACU,RIO DE JANEIRO,RJ,Brazil,,,-22.4183334,-42.7386111,Coordinates given in the herbarium record,Parque Estadual Tres Picos.,Angiosperms,Araceae,Philodendron,crassinervium,Philodendron crassinervium,hemiepiphyte,,,,,,,Presence_only,226,1414,25.6000003814697,Ombrophilous Forest,YES,
KERA_00107,KERA,E0107,TORRES,RIO GRANDE DO SUL,RS,Brazil,2,Subtropical Restinga,-29.35781,-49.757112,Study site,Faxinal,Ferns,Hymenophyllaceae,Hymenophyllum,polyanthos,Hymenophyllum polyanthos,holoepiphyte,,,,,1986,1986,Presence_only,5,1410,23.3999996185303,Other,YES,
KERB_11954,KERB,E11954,PARANAGUA,PARANA,PR,Brazil,ABUNDANCE,Low Restinga Forest,-25.521936,-48.316041,Forest fragment,Low height restinga forest,Ferns,Polypodiaceae,Microgramma,vacciniifolia,Microgramma vacciniifolia,holoepiphyte,Lauraceae,Ocotea,pulchella,Ocotea pulchella,1997,1999,Presence_only,,,,Ombrophilous Forest,YES,
KERA_00762,KERA,E0762,CURITIBA,PARANA,PR,Brazil,,Mixed Ombrophilous Forest,-25.475137,-49.32217,Forest fragment,Bosque da Fazendinha,Angiosperms,Piperaceae,Peperomia,catharinae,Peperomia catharinae,holoepiphyte,,,,,2001,2002,Presence_only,915,1352,21,Ombrophilous Forest,YES,
KERB_12320,KERB,E12320,PIRAQUARA,PARANA,PR,Brazil,ABUNDANCE,Mixed Ombrophilous Forest,-25.528984,-49.012214,Forest fragment,Haras Santo Antonio,Angiosperms,Bromeliaceae,Vriesea,friburgensis,Vriesea friburgensis,holoepiphyte,Sapindaceae,Matayba,elaeagnoides,Matayba elaeagnoides,2002,2006,Abundance,1015,1701,20.3999996185303,Ombrophilous Forest,YES,
MENE2_08423,MENE2,E16748,CAMOCIM DE SAO FELIX,PERNAMBUCO,PE,Brazil,,,-8.381944,-35.843889,Coordinates given in the herbarium record,Brejo dos Cavalos,Angiosperms,Piperaceae,Peperomia,alata,Peperomia alata,holoepiphyte,,,,,,,Presence_only,561,753,22.2999992370605,,NO,
ANNE_02699,ANNE,22493,FLORIANOPOLIS,SANTA CATARINA,SC,Brazil,,Dense Ombrophilous Forest,-27.7167,-48.5333,Municipality,Parque Municipal da Lagoa do Peri,Angiosperms,Orchidaceae,Isochilus,linearis,Isochilus linearis,holoepiphyte,,,,,2010,2010,Presence_only,63,1514,23.2000007629395,Ombrophilous Forest,YES,
MENE2_12908,MENE2,E20825,ILHEUS,BAHIA,BA,Brazil,,,-14.781944,-39.069167,Coordinates given in the herbarium record,Parque Municipal da Boa Esperanca.,Angiosperms,Araceae,Philodendron,pedatum,Philodendron pedatum,hemiepiphyte,,,,,,,Presence_only,1,1882,25.5,,YES,
KERB_00620,KERB,E0620,ANTONINA,PARANA,PR,Brazil,ABUNDANCE,Secondary Forest,-25.378213,-48.800209,Forest fragment,RPPN Morro da mina,Angiosperms,Melastomataceae,Pleiochiton,blepharodes,Pleiochiton blepharodes,holoepiphyte,,,,,2006,2009,Presence_only,79,2008,26.1000003814697,Ombrophilous Forest,YES,
CBOE_00440,CBOE,Tree73,SAO FRANCISCO DE PAULA,RIO GRANDE DO SUL,RS,Brazil,FO3,Mixed Ombrophilous Forest,-29.422903,-50.388865,Central point in study site,Floresta Nacional de Sao Francisco de Paula.,Ferns,Polypodiaceae,Campyloneurum,austrobrasilianum,Campyloneurum austrobrasilianum,holoepiphyte,Aquifoliaceae,Ilex,paraguariensis,Ilex paraguariensis,2007,2007,Abundance,917,2084,19.6000003814697,Savanna,YES,
JABOT_03631,JABOT,373059,NOVA IGUACU,RIO DE JANEIRO,RJ,Brazil,,,-22.75,-43.45,Municipality,,Angiosperms,Piperaceae,Peperomia,glabella,Peperomia glabella,holoepiphyte,,,,,2002,2002,Presence_only,37,1411,26.5,Ombrophilous Forest,YES,
MENE_02242,MENE,E2260,LIMA DUARTE,MATO GROSSO DO SUL,MS,Brazil,,Cloud Forest,-21.71114,-43.89578,300,Parque Estadual do Ibitipoca,Angiosperms,Orchidaceae,Cattleya,coccinea,Cattleya coccinea,holoepiphyte,Asteraceae,Eremanthus,erythropappus,Eremanthus erythropappus,2016,2018,Abundance,1576,1649,19.7000007629395,Seasonal Forest,YES,
NUNE_00264,NUNE,M05,CACHOEIRAS DE MACACU,RIO DE JANEIRO,RJ,Brazil,,Secondary Forest,-22.43349306,-42.76679833,10,Guapiacu,Angiosperms,Bromeliaceae,Hohenbergia,augusta,Hohenbergia augusta,holoepiphyte,Meliaceae,Guarea,guidonia,Guarea guidonia,2017,2017,Abundance,151,1368,26.1000003814697,Ombrophilous Forest,YES,
PERE_00129,PERE,RP507,CRAVINHOS,SAO PAULO,SP,Brazil,,Forest Interior,-21.39533,-47.82426,2000,Fragmento no interior da fazenda Canto da Mata,Angiosperms,Moraceae,Ficus,citrifolia,Ficus citrifolia,hemiepiphyte,,,,,2007,2011,Abundance,610,1440,23.3999996185303,Other,YES,Fragmento de 196 ha; habito terricola habito terricola:sim
MENE2_20317,MENE2,E27560,INAJA,PERNAMBUCO,PE,Brazil,,,-8.655,-38.02555556,Coordinates given in the herbarium record,Divisa dos Municipios de Inaja e Floresta. Reserva Biologica de Serra Negra.,Angiosperms,Bromeliaceae,Tillandsia,gardneri,Tillandsia gardneri,facultative,,,,,,,Presence_only,,,,,NO,
MENE2_11532,MENE2,E19574,LEBON REGIS,SANTA CATARINA,SC,Brazil,,,-26.819825,-50.674349,Coordinates given in the herbarium record,Serra da Esperanca,Angiosperms,Piperaceae,Peperomia,trineuroides,Peperomia trineuroides,holoepiphyte,,,,,,,Presence_only,1219,1680,18.8999996185303,Savanna,YES,
PTEO_00221,PTEO,E0221,CRICIUMA,SANTA CATARINA,SC,Brazil,,Urban Green Area,-28.690469,-49.432548,5,Parque Ecologico Municipal Jose Milanese,Angiosperms,Bromeliaceae,Vriesea,gigantea,Vriesea gigantea,holoepiphyte,,,,,2010,2011,Presence_absence,117,1345,23.7999992370605,Ombrophilous Forest,YES,
KERB_04551,KERB,E4551,ARAUCARIA,PARANA,PR,Brazil,ABUNDANCE,Secondary Forest,-25.600388,-49.410176,Forest fragment,Araucaria,Angiosperms,Orchidaceae,Acianthera,hygrophila,Acianthera hygrophila,holoepiphyte,,,,,2002,2006,Abundance,879,1292,21,Ombrophilous Forest,YES,
FUME_04866,FUME,E4885,LIMA DUARTE,MATO GROSSO DO SUL,MS,Brazil,,Cloud Forest,-21.7086,-43.87404,100,"Parque Estadual do Ibitipoca, Gruta dos Viajantes",Ferns,Aspleniaceae,Asplenium,serra,Asplenium serra,facultative,Myrtaceae,Eugenia,nutans,Eugenia nutans,2014,2014,Presence_absence,1301,1667,19.5,Seasonal Forest,YES,
JABOT_00195,JABOT,441967,TERESOPOLIS,RIO DE JANEIRO,RJ,Brazil,,,-22.45639,-42.99917,Coordinates given in the herbarium record,,Angiosperms,Gesneriaceae,Sinningia,douglasii,Sinningia douglasii,holoepiphyte,,,,,2007,2007,Presence_only,1079,1746,20.3999996185303,Ombrophilous Forest,YES,
MENE2_24327,MENE2,E31206,ANTONINA,PARANA,PR,Brazil,,,-25.4311,-48.7401,Coordinates given in the herbarium record,,Angiosperms,Bromeliaceae,Vriesea,erythrodactylon,Vriesea erythrodactylon,holoepiphyte,,,,,,,Presence_only,86,2085,25.7999992370605,Ombrophilous Forest,YES,
PERB_00818,PERB,E0878,MANGARATIBA,RIO DE JANEIRO,RJ,Brazil,,,-22.9597,-44.0406,Municipality,"Reserva Ecologica Rio das Pedras, -RPPN- IBAMA-, proximidades do Poco do Rio Grande.",Angiosperms,Gesneriaceae,Codonanthe,venosa,Codonanthe venosa,holoepiphyte,,,,,1998,1998,Presence_only,130,1487,25.7000007629395,,YES,Example
KERB_07371,KERB,E7371,FAZENDA RIO GRANDE,PARANA,PR,Brazil,ABUNDANCE,Mixed Ombrophilous Forest,-25.666271,-49.269229,Forest fragment,Fazenda Experimental Gralha Azul 2,Angiosperms,Orchidaceae,Brasiliorchis,picta,Brasiliorchis picta,holoepiphyte,,,,,2015,2017,Abundance,910,1294,20.5,Ombrophilous Forest,YES,
AAMO_00442,AAMO,E0442,ALMADINA,BAHIA,BA,Brazil,3,Dense Ombrophilous Forest,-14.7,-39.6,Study site,Reserva Particular da Serra do Corcovado,Angiosperms,Cactaceae,Rhipsalis,neves-armondii,Rhipsalis neves-armondii,holoepiphyte,,,,,2011,2015,Presence_only,252,1223,22.3999996185303,Ombrophilous Forest,YES,
MENE2_13211,MENE2,E21100,UNA,BAHIA,BA,Brazil,,,-15.15,-39.083333,Coordinates given in the herbarium record,,Angiosperms,Araceae,Philodendron,surinamense,Philodendron surinamense,hemiepiphyte,,,,,,,Presence_only,16,1610,25.6000003814697,Ombrophilous Forest,YES,
MENE2_04010,MENE2,E12736,CARIACICA,ESPIRITO SANTO,ES,Brazil,,,-20.2913889,-40.5194445,Coordinates given in the herbarium record,"RESERVA FlorestaL DUAS BOCAS, mata DO PAU AMARELO. .",Angiosperms,Orchidaceae,Brasiliorchis,picta,Brasiliorchis picta,holoepiphyte,,,,,,,Presence_only,589,1260,23.8999996185303,Ombrophilous Forest,YES,
MENE2_31168,MENE2,E7594,RIO CLARO,RIO DE JANEIRO,RJ,Brazil,,,-22.7231,-44.1356,Coordinates given in the herbarium record,Rio do Braco.,Angiosperms,Bromeliaceae,Edmundoa,ambigua,Edmundoa ambigua,holoepiphyte,,,,,,,Presence_only,645,1413,23.5,Ombrophilous Forest,YES,
MENE2_02726,MENE2,E11569,SAO SEBASTIAO,SAO PAULO,SP,Brazil,,,-23.76,-45.4097,Coordinates given in the herbarium record,,Angiosperms,Orchidaceae,Lockhartia,lunifera,Lockhartia lunifera,holoepiphyte,,,,,,,Presence_only,57,1641,26.3999996185303,Ombrophilous Forest,YES,
JABOT_00087,JABOT,513809,IGARASSU,PERNAMBUCO,PE,Brazil,,,-7.78556,-35.02083,Coordinates given in the herbarium record,,Angiosperms,Araceae,Monstera,adansonii,Monstera adansonii,hemiepiphyte,,,,,2008,2008,Presence_only,80,1596,25.7000007629395,Ombrophilous Forest,YES,
KERB_03097,KERB,E3097,ITAPOA,SANTA CATARINA,SC,Brazil,ABUNDANCE,Forest Fragment,-26.176814,-48.600791,Study site,Balneario Figueira do Pontal,Angiosperms,Araceae,Anthurium,comtum,Anthurium comtum,holoepiphyte,,,,,2017,2017,Presence_only,,,,Ombrophilous Forest,YES,
JABOT_01259,JABOT,613096,CAMPINA GRANDE DO SUL,PARANA,PR,Brazil,,,-25.06917,-48.79833,Coordinates given in the herbarium record,,Angiosperms,Orchidaceae,Acianthera,pubescens,Acianthera pubescens,holoepiphyte,,,,,2014,2014,Presence_only,769,1597,22.8999996185303,Ombrophilous Forest,YES,
MENE2_31579,MENE2,E8005,UNA,BAHIA,BA,Brazil,,,-15.15,-39.083333,Coordinates given in the herbarium record,Reserva Biologica do Mico-leao. Entrada KM 46 BA-001 Ilheus/Una.,Angiosperms,Orchidaceae,Encyclia,unaensis,Encyclia unaensis,holoepiphyte,,,,,,,Presence_only,16,1610,25.6000003814697,Ombrophilous Forest,YES,
FUME_06103,FUME,E6123,SANTA RITA DE IBITIPOCA,MATO GROSSO DO SUL,MS,Brazil,,Cloud Forest,-21.67837,-43.88229,100,"Parque Estadual do Ibitipoca, Gruta dos Tres Arcos",Angiosperms,Orchidaceae,Epidendrum,chlorinum,Epidendrum chlorinum,holoepiphyte,Lauraceae,Ocotea,odorifera,Ocotea odorifera,,,Presence_absence,1714,1772,18,Seasonal Forest,YES,
MESI_00009,MESI,E0009,NATAL,RIO GRANDE DO NORTE,RN,Brazil,1,Restinga,-5.85,-35.1833,Forest fragment,Parque Estadual Dunas do Natal,Liverworts,Lejeuneaceae,Lejeunea,laetevirens,Lejeunea laetevirens,facultative,,,,,2010,2010,Presence_only,,,,,YES,
MENE2_12133,MENE2,E20120,TORRES,RIO GRANDE DO SUL,RS,Brazil,,,-29.3353,-49.7269,Coordinates given in the herbarium record,,Angiosperms,Araceae,Philodendron,bipinnatifidum,Philodendron bipinnatifidum,hemiepiphyte,,,,,,,Presence_only,,,,,YES,
NUNE_00446,NUNE,EA66,CACHOEIRAS DE MACACU,RIO DE JANEIRO,RJ,Brazil,,Secondary Forest,-22.43361056,-42.76674167,10,Guapiacu,Ferns,Polypodiaceae,Pleopeltis,pleopeltifolia,Pleopeltis pleopeltifolia,holoepiphyte,Anacardiaceae,Mangifera,indica,Mangifera indica,2017,2017,Abundance,151,1368,26.1000003814697,Ombrophilous Forest,YES,
MENE2_12711,MENE2,E20646,MONTE BELO,MATO GROSSO DO SUL,MS,Brazil,,,-21.3264,-46.3675,Coordinates given in the herbarium record,Fazenda Lagoa. Instituto Sul Mineiro de Estudo e Preservacao da Natureza. mata do Mundo Novo.,Angiosperms,Araceae,Philodendron,oblongum,Philodendron oblongum,hemiepiphyte,,,,,,,Presence_only,910,1493,22.2000007629395,Seasonal Forest,YES,
KESS_01675,KESS,E1675,PARANAGUA,PARANA,PR,Brazil,,,-25.52,-48.5092,Municipality,,Angiosperms,Bromeliaceae,Vriesea,carinata,Vriesea carinata,holoepiphyte,,,,,,,Presence_only,1,2036,24.8999996185303,,YES,
KERB_03472,KERB,E3472,SAO JOAQUIM,SANTA CATARINA,SC,Brazil,ABUNDANCE,,-28.471217,-49.83173,Study site,Rio Pelotas,Angiosperms,Bromeliaceae,Tillandsia,stricta,Tillandsia stricta,facultative,,,,,2014,2014,Abundance,1132,1638,19.6000003814697,Ombrophilous Forest,YES,
ANNE_02801,ANNE,21093,PAULO LOPES,SANTA CATARINA,SC,Brazil,,Dense Ombrophilous Forest,-28.0667,-48.8667,Municipality,Chicao,Ferns,Polypodiaceae,Leucotrichum,schenckii,Leucotrichum schenckii,holoepiphyte,,,,,2010,2010,Presence_only,690,1616,21.2999992370605,Ombrophilous Forest,YES,
MENE_01881,MENE,E1899,OLARIA,MATO GROSSO DO SUL,MS,Brazil,,Cloud Forest,-21.85,-43.9333,250,Serra do Cruz,Angiosperms,Araceae,Philodendron,appendiculatum,Philodendron appendiculatum,hemiepiphyte,,,,,2010,2012,Presence_only,914,1483,22.2999992370605,Seasonal Forest,YES,
COUT_00604,COUT,E0584,ALEGRE,ESPIRITO SANTO,ES,Brazil,,Seasonal Semideciduous Forest,-20.681667,-41.520833,Forest fragment,Sao Joao do Norte,Angiosperms,Orchidaceae,Laelia,gloriosa,Laelia gloriosa,holoepiphyte,,,,,2008,2008,Presence_only,284,1136,25.7999992370605,Seasonal Forest,YES,
GOSI_00131,GOSI,E2125,URUCUCA,BAHIA,BA,Brazil,,Secondary Forest,-14.593,-39.284,Municipality,,Angiosperms,Bromeliaceae,Vriesea,sandrae,Vriesea sandrae,holoepiphyte,,,,,2014,2017,Presence_only,85,1585,25.3999996185303,Ombrophilous Forest,YES,
NUNE_00674,NUNE,E0220,CACHOEIRAS DE MACACU,RIO DE JANEIRO,RJ,Brazil,,Pasture,-22.430778,-42.753472,10,Guapiacu,Angiosperms,Bromeliaceae,Neoregelia,concentrica,Neoregelia concentrica,holoepiphyte,Meliaceae,Guarea,guidonia,Guarea guidonia,2017,2018,Abundance,151,1361,26.2000007629395,Ombrophilous Forest,YES,
MENE2_25904,MENE2,E3264,IGARASSU,PERNAMBUCO,PE,Brazil,,,-7.8308334,-35.0011111,Coordinates given in the herbarium record,Usina Sao Jose.  Piedade.,Angiosperms,Araceae,Anthurium,pentaphyllum,Anthurium pentaphyllum,hemiepiphyte,,,,,,,Presence_only,62,1709,26.3999996185303,Ombrophilous Forest,YES,
MENE2_24926,MENE2,E31750,TURVO,SANTA CATARINA,SC,Brazil,,,-28.9261,-49.6792,Coordinates given in the herbarium record,,Angiosperms,Bromeliaceae,Vriesea,incurvata,Vriesea incurvata,holoepiphyte,,,,,,,Presence_only,130,1336,23.6000003814697,Ombrophilous Forest,YES,
MINE_00723,MINE,723,CAMBARA DO SUL,RIO GRANDE DO SUL,RS,Brazil,54,Forest Interior,-29.16174444,-50.07452778,1.5,Nacional Aparados da Serra Park,Ferns,Polypodiaceae,Microgramma,squamulosa,Microgramma squamulosa,holoepiphyte,,,,,2012,2015,Presence_only,1018,1884,19.3999996185303,Savanna,YES,
MENE2_23018,MENE2,E30016,CALDAS,MATO GROSSO DO SUL,MS,Brazil,,,-21.9666667,-46.3666667,Coordinates given in the herbarium record,Pedra Branca,Angiosperms,Bromeliaceae,Tillandsia,usneoides,Tillandsia usneoides,holoepiphyte,,,,,,,Presence_only,1326,1772,18.5,Other,YES,
MENE2_29501,MENE2,E5927,CORTES,PERNAMBUCO,PE,Brazil,,,-8.4703,-35.5411,Coordinates given in the herbarium record,,Angiosperms,Bromeliaceae,Canistrum,pickelii,Canistrum pickelii,holoepiphyte,,,,,,,Presence_only,300,1795,23.8999996185303,Ombrophilous Forest,YES,
KERB_12338,KERB,E12338,PIRAQUARA,PARANA,PR,Brazil,ABUNDANCE,Mixed Ombrophilous Forest,-25.528984,-49.012214,Forest fragment,Haras Santo Antonio,Ferns,Polypodiaceae,Pleopeltis,pleopeltidis,Pleopeltis pleopeltidis,holoepiphyte,Lauraceae,Ocotea,corymbosa,Ocotea corymbosa,2002,2006,Abundance,1015,1701,20.3999996185303,Ombrophilous Forest,YES,
MENE2_16044,MENE2,E23676,RIO DO SUL,SANTA CATARINA,SC,Brazil,,,-27.090008,-49.590003,Coordinates given in the herbarium record,Fazenda Mirador,Angiosperms,Orchidaceae,Pabstiella,trifida,Pabstiella trifida,holoepiphyte,,,,,,,Presence_only,536,1564,21.1000003814697,Ombrophilous Forest,YES,
MARC_00216,MARC,E0216,PIRASSUNUNGA,SAO PAULO,SP,Brazil,3,Riparian Forest,-21.942222,-47.472222,Forest fragment,Fazenda da USP,Angiosperms,Bromeliaceae,Tillandsia,recurvata,Tillandsia recurvata,facultative,,,,,2013,2013,Presence_only,613,1288,23.1000003814697,Savanna,YES,
KERB_06035,KERB,E6035,CAMPINA GRANDE DO SUL,PARANA,PR,Brazil,ABUNDANCE,,-25.240888,-48.830907,Forest fragment,Morro Caratuva,Angiosperms,Orchidaceae,Octomeria,diaphana,Octomeria diaphana,holoepiphyte,Winteraceae,Drimys,angustifolia,Drimys angustifolia,2009,2011,Abundance,1714,1907,16.7999992370605,Ombrophilous Forest,YES,
FUME_02722,FUME,E2741,LIMA DUARTE,MATO GROSSO DO SUL,MS,Brazil,,Cloud Forest,-21.70188,-43.88374,100,"Parque Estadual do Ibitipoca, Gruta do Monjolinho",Ferns,Polypodiaceae,Cochlidium,punctatum,Cochlidium punctatum,holoepiphyte,Lauraceae,Ocotea,laxa,Ocotea laxa,2014,2014,Presence_absence,1576,1692,19.1000003814697,Seasonal Forest,YES,
KERB_05558,KERB,E5558,ARAUCARIA,PARANA,PR,Brazil,ABUNDANCE,Secondary Forest,-25.588749,-49.347156,Forest fragment,REPAR,Angiosperms,Orchidaceae,Pabstiella,aveniformis,Pabstiella aveniformis,holoepiphyte,,,,,2000,2002,Abundance,914,1284,20.8999996185303,Ombrophilous Forest,YES,
KERB_05516,KERB,E5516,ARAUCARIA,PARANA,PR,Brazil,ABUNDANCE,Secondary Forest,-25.588749,-49.347156,Forest fragment,REPAR,Ferns,Polypodiaceae,Pleopeltis,pleopeltifolia,Pleopeltis pleopeltifolia,holoepiphyte,,,,,2000,2002,Abundance,914,1284,20.8999996185303,Ombrophilous Forest,YES,
JABOT_01426,JABOT,329093,PRAIA GRANDE,SANTA CATARINA,SC,Brazil,,,-29.14056,-49.96,Coordinates given in the herbarium record,,Angiosperms,Bromeliaceae,Vriesea,friburgensis,Vriesea friburgensis,holoepiphyte,,,,,1998,1998,Presence_only,196,1539,22.3999996185303,Savanna,YES,
FRAN_01548,FRAN,E1551,MIMOSO DO SUL,ESPIRITO SANTO,ES,Brazil,1,Primary Forest,-20.936667,-41.553333,Forest fragment,Pedra dos Pontoes:primeira mata nebular,Angiosperms,Bromeliaceae,Vriesea,flava,Vriesea flava,holoepiphyte,Myrtaceae,Eugenia,rostrata,Eugenia rostrata,2016,2016,Abundance,634,1391,20.3999996185303,Seasonal Forest,YES,
MENE2_08795,MENE2,E17086,ALEGRETE,RIO GRANDE DO SUL,RS,Brazil,,,-29.7831,-55.7919,Coordinates given in the herbarium record,Lageadinho,Angiosperms,Piperaceae,Peperomia,corcovadensis,Peperomia corcovadensis,holoepiphyte,,,,,,,Presence_only,,,,,NO,
MENE2_04734,MENE2,E13394,ITAJU DO COLONIA,BAHIA,BA,Brazil,,,-15.166667,-39.583333,Coordinates given in the herbarium record,"Serra do Teimoso, 7.5Km ao N de Jussari na Rod. p/ Palmira, depois 2Km ao W pra Faz. Teimoso, depois 45min. A W voltando pra Faz. Teimoso.",Angiosperms,Araceae,Monstera,adansonii,Monstera adansonii,hemiepiphyte,,,,,,,Presence_only,186,1095,24.7999992370605,Ombrophilous Forest,YES,
JABOT_02173,JABOT,419223,BANANAL,SAO PAULO,SP,Brazil,,,-22.68,-44.32,Municipality,,Angiosperms,Orchidaceae,Octomeria,gracilis,Octomeria gracilis,holoepiphyte,,,,,1936,1936,Presence_only,439,1439,23.7000007629395,Ombrophilous Forest,YES,
PTEO_00434,PTEO,E0434,GRAO PARA,SANTA CATARINA,SC,Brazil,,Primary Forest,-28.185117,-49.389316,5,Parque Estadual da Serra Furada,Angiosperms,Gesneriaceae,Nematanthus,tessmannii,Nematanthus tessmannii,holoepiphyte,,,,,2011,2012,Presence_absence,399,1518,22.3999996185303,Ombrophilous Forest,YES,
PTEO_00598,PTEO,E0598,GRAO PARA,SANTA CATARINA,SC,Brazil,,Primary Forest,-28.184273,-49.389546,5,Parque Estadual da Serra Furada,Angiosperms,Piperaceae,Peperomia,catharinae,Peperomia catharinae,holoepiphyte,,,,,2011,2012,Presence_absence,530,1518,22.3999996185303,Ombrophilous Forest,YES,
KOJU_00082,KOJU,AS010,HERVEIRAS,RIO GRANDE DO SUL,RS,Brazil,,Isolated tree,-29.431583,-52.672111,Municipality,"Next to Balneario Tio Juba, on roadside",Lichens,Parmeliaceae,Punctelia,constantimontium,Punctelia constantimontium,facultative,,,,,2004,2004,Presence_only,611,1478,22.6000003814697,Seasonal Forest,YES,Coletor Adriano A. Spielmann
KERB_11231,KERB,E11231,PARANAGUA,PARANA,PR,Brazil,ABUNDANCE,Low Restinga Forest,-25.521936,-48.316041,Forest fragment,Low height restinga forest,Angiosperms,Bromeliaceae,Aechmea,nudicaulis,Aechmea nudicaulis,holoepiphyte,Pentaphylacaceae,Ternstroemia,brasiliensis,Ternstroemia brasiliensis,1997,1999,Presence_only,,,,Ombrophilous Forest,YES,
MENE2_33389,MENE2,E9815,CUBATAO,SAO PAULO,SP,Brazil,,,-23.883333,-46.416667,Coordinates given in the herbarium record,Cubatao,Angiosperms,Orchidaceae,Gongora,bufonia,Gongora bufonia,holoepiphyte,,,,,,,Presence_only,25,2652,25.2999992370605,Ombrophilous Forest,YES,
KERB_03634,KERB,E3634,SAO JOAQUIM,SANTA CATARINA,SC,Brazil,ABUNDANCE,,-28.482429,-49.832046,Study site,Rio Pelotas,Ferns,Aspleniaceae,Asplenium,gastonis,Asplenium gastonis,facultative,,,,,2014,2014,Abundance,1132,1635,19.7999992370605,Ombrophilous Forest,YES,
MENE2_19137,MENE2,E26488,OLARIA,MATO GROSSO DO SUL,MS,Brazil,,,-21.8916,-44.0722,Coordinates given in the herbarium record,Serra do Cruz,Angiosperms,Gesneriaceae,Sinningia,cooperi,Sinningia cooperi,holoepiphyte,,,,,,,Presence_only,1372,1652,19.7000007629395,Seasonal Forest,YES,
MENE2_20765,MENE2,E27968,ITAGUACU,ESPIRITO SANTO,ES,Brazil,,,-19.797222,-40.775,Coordinates given in the herbarium record,Alto Misterioso,Angiosperms,Bromeliaceae,Tillandsia,kautskyi,Tillandsia kautskyi,holoepiphyte,,,,,,,Presence_only,644,1307,22.8999996185303,Ombrophilous Forest,YES,
MENE2_08415,MENE2,E16740,SENHOR DO BONFIM,BAHIA,BA,Brazil,,,-10.3786111,-40.2061111,Coordinates given in the herbarium record,Fazenda Passaginha. Subida da Serra da Maravilha .,Angiosperms,Piperaceae,Peperomia,alata,Peperomia alata,holoepiphyte,,,,,,,Presence_only,,,,,NO,
MENE2_16991,MENE2,E24537,LINHARES,ESPIRITO SANTO,ES,Brazil,,,-19.0816,-40.0348,Coordinates given in the herbarium record,"Reserva Florestal da Vale do Rio Doce,",Angiosperms,Bromeliaceae,Quesnelia,quesneliana,Quesnelia quesneliana,holoepiphyte,,,,,,,Presence_only,43,1210,26.2000007629395,Ombrophilous Forest,YES,
KERB_11044,KERB,E11044,PARANAGUA,PARANA,PR,Brazil,ABUNDANCE,High Restinga Forest,-25.521936,-48.316041,Forest fragment,High height restinga forest,Angiosperms,Orchidaceae,Polystachya,concreta,Polystachya concreta,holoepiphyte,Calophyllaceae,Calophyllum,brasiliense,Calophyllum brasiliense,2000,2002,Presence_only,,,,Ombrophilous Forest,YES,
MENE2_23436,MENE2,E30396,BOMBINHAS,SANTA CATARINA,SC,Brazil,,,-27.138,-48.517,Coordinates given in the herbarium record,Praia de Zimbros,Angiosperms,Orchidaceae,Vanilla,chamissonis,Vanilla chamissonis,hemiepiphyte,,,,,,,Presence_only,111,1613,23.8999996185303,Ombrophilous Forest,YES,
KERB_12092,KERB,E12092,PARANAGUA,PARANA,PR,Brazil,ABUNDANCE,Low Restinga Forest,-25.521936,-48.316041,Forest fragment,Low height restinga forest,Ferns,Pteridaceae,Vittaria,lineata,Vittaria lineata,holoepiphyte,Lauraceae,Ocotea,pulchella,Ocotea pulchella,1997,1999,Presence_only,,,,Ombrophilous Forest,YES,
KERB_06789,KERB,E6789,FAZENDA RIO GRANDE,PARANA,PR,Brazil,ABUNDANCE,Mixed Ombrophilous Forest,-25.661593,-49.277089,Forest fragment,Fazenda Experimental Gralha Azul,Ferns,Polypodiaceae,Campyloneurum,austrobrasilianum,Campyloneurum austrobrasilianum,holoepiphyte,,,,,2008,2015,Abundance,910,1304,20.3999996185303,Ombrophilous Forest,YES,
KERB_09779,KERB,E9779,MORRETES,PARANA,PR,Brazil,ABUNDANCE,Dense Ombrophilous Forest,-25.447705,-48.929986,Forest fragment,Morro Facaozinho,Ferns,Hymenophyllaceae,Hymenophyllum,polyanthos,Hymenophyllum polyanthos,holoepiphyte,,,,,2000,2001,Presence_only,1175,1714,22.2000007629395,Ombrophilous Forest,YES,
MENE2_16564,MENE2,E24149,NOVA FRIBURGO,RIO DE JANEIRO,RJ,Brazil,,,-22.281944,-42.531111,Coordinates given in the herbarium record,Macae de Cima,Angiosperms,Orchidaceae,Prosthechea,calamaria,Prosthechea calamaria,holoepiphyte,,,,,,,Presence_only,922,1372,21.7999992370605,Ombrophilous Forest,YES,
MENE2_15230,MENE2,E22936,SANTA TERESA,ESPIRITO SANTO,ES,Brazil,,,-19.780833,-40.604167,Coordinates given in the herbarium record,Vinte e Cinco de Julho,Angiosperms,Orchidaceae,Pabstiella,pellifeloidis,Pabstiella pellifeloidis,holoepiphyte,,,,,,,Presence_only,303,1162,26.7999992370605,Ombrophilous Forest,YES,
CEBA_00168,CEBA,,GENERAL MANUEL BELGRANO,MISIONES,N,Argentina,MORRONE ET AL. 944-SI-,Forest,-25.83333,-53.98333,,Parque Provincial Urugua-i,Angiosperms,Piperaceae,Peperomia,urocarpa,Peperomia urocarpa,holoepiphyte,,,,,,,Presence_only,359,1779,24.2000007629395,,YES,"Ruta Nacional 101, 10 km de Deseado camino a Bernardo de Irigoyen, 360 m s.m., 17-02-1996"
