scrubbed_species_binomial,verbatim_family,verbatim_scientific_name,family_matched,name_matched,name_matched_author,higher_plant_group,scrubbed_taxonomic_status,scrubbed_family,scrubbed_author,latitude,longitude,date_collected,datasource,dataset,dataowner,custodial_institution_codes,collection_code,datasource_id,is_new_world
Casearia eichleriana,Salicaceae,Casearia eichleriana Sleumer,Salicaceae,Casearia eichleriana,Sleumer,flowering plants,Accepted,Salicaceae,Sleumer,,,1986-11-18,MO,MO,MO,MO,,280,1
Eragrostis maypurensis,Poaceae,Eragrostis maypurensis Steud.,Poaceae,Eragrostis maypurensis,(Kunth) Steud.,flowering plants,Accepted,Poaceae,(Kunth) Steud.,-13.17078,-47.824956,2014-06-07,GBIF,UnB,UnB,UnB,UB,3120,1
Mimosa sensitiva,Fabaceae,Mimosa sensitiva L.,Fabaceae,Mimosa sensitiva,L.,flowering plants,Accepted,Fabaceae,L.,-20.390833,-43.651389,2011-05-17,GBIF,UEFS,UEFS,UEFS,HUEFS,2756,1
Aegiphila integrifolia,Lamiaceae,Aegiphila integrifolia (Jacq.) Moldenke,Lamiaceae,Aegiphila integrifolia,(Jacq.) Jacq.,flowering plants,Accepted,Lamiaceae,(Jacq.) Jacq.,-7.195278,-48.434722,2010-05-15,GBIF,UNITINS,UNITINS,UNITINS,HUTO,2430,1
,Orchidaceae,Acianthera Scheidw.,Orchidaceae,Acianthera,Scheidw.,flowering plants,Accepted,Orchidaceae,Scheidw.,,,,GBIF,Comissão Executiva do Plano da Lavoura Cacaueira (CEPLAC),Comissão Executiva do Plano da Lavoura Cacaueira (CEPLAC),Comissão Executiva do Plano da Lavoura Cacaueira (CEPLAC),CEPEC,2724,1
Rhodospatha venosa,Araceae,Rhodospatha venosa,Araceae,Rhodospatha venosa,Gleason,flowering plants,Accepted,Araceae,Gleason,-2,-60,2010-08-10,SpeciesLink,IFAM - CMZL,IFAM - CMZL,IFAM - CMZL,EAFM,964,1
Ditassa succedanea,Apocynaceae,Ditassa succedanea Rapini,Apocynaceae,Ditassa succedanea,Rapini,flowering plants,Accepted,Apocynaceae,Rapini,-18.007222,-43.615833,2001-02-15,GBIF,Universidade Federal de Minas Gerais (UFMG),Universidade Federal de Minas Gerais (UFMG),Universidade Federal de Minas Gerais (UFMG),BHCB,2515,1
Sebastiania macrocarpa,Euphorbiaceae,Sebastiania macrocarpa,Euphorbiaceae,Sebastiania macrocarpa,Müll. Arg.,flowering plants,Accepted,Euphorbiaceae,Müll. Arg.,-8.454722,-39.404722,2009-01-21,SpeciesLink,UNIVASF,UNIVASF,UNIVASF,HVASF,786,1
Caladium bicolor,Araceae,Caladium bicolor (Aiton) Vent.,Araceae,Caladium bicolor,(Aiton) Vent.,flowering plants,Accepted,Araceae,(Aiton) Vent.,-7.696667,-34.960278,2009-05-25,GBIF,JBRJ,JBRJ,JBRJ,RB,1928,1
Amaioua intermedia,Rubiaceae,Amaioua intermedia Mart.,Rubiaceae,Amaioua intermedia,Mart.,flowering plants,Accepted,Rubiaceae,Mart.,-23.4339,-45.0711,1959-03-11,GBIF,IAC,IAC,IAC,IAC,3493,1
Mikania officinalis,Asteraceae,Mikania officinalis Mart.,Asteraceae,Mikania officinalis,Mart.,flowering plants,Accepted,Asteraceae,Mart.,-17.024167,-48.801389,2008-12-15,GBIF,UFG,UFG,UFG,UFG,3801,1
,Myrtaceae,Myrcia DC.,Myrtaceae,Myrcia,DC.,flowering plants,Accepted,Myrtaceae,DC.,-20.766667,-42.033333,1992-03-03,GBIF,JBRJ,JBRJ,JBRJ,RB,1928,1
Chiococca alba,Rubiaceae,Chiococca alba Hitchc.,Rubiaceae,Chiococca alba,(L.) Hitchc.,flowering plants,Accepted,Rubiaceae,(L.) Hitchc.,-16.0375,-47.30944,,GBIF,Cenargen,Cenargen,Cenargen,CEN,3199,1
,,Plantae,Plantaginaceae,Plantago,L.,flowering plants,Accepted,Plantaginaceae,L.,-10,-67.83,1980-10-12,GBIF,Instituto Nacional de Pesquisas da Amazônia (INPA),Instituto Nacional de Pesquisas da Amazônia (INPA),Instituto Nacional de Pesquisas da Amazônia (INPA),"Coleção Botânica, Instituto Nacional de Pesquisas da Amazônia (INPA)",2095,1
Lastreopsis amplissima,Dryopteridaceae,Lastreopsis amplissima (C.Presl) Tindale,Dryopteridaceae,Lastreopsis amplissima,(C. Presl) Tindale,ferns and allies,Accepted,Dryopteridaceae,(C. Presl) Tindale,-25.25,-48.833333,2007-09-29,GBIF,UFPR,UFPR,UFPR,UPCB,2201,1
Xylosma pseudosalzmanii,flacourtiaceae,xylosma pseudosalzmanii,Salicaceae,Xylosma pseudosalzmanii,Sleumer,flowering plants,Accepted,Salicaceae,Sleumer,-23.6939,-47.0672,2000-03-01,SpeciesLink,FAPESP,FAPESP,FAPESP,SinBiota,196,1
Pouteria anomala,Sapotaceae,Sapotaceae Pouteria anomala,Sapotaceae,Pouteria anomala,(Pires) T.D. Penn.,flowering plants,Accepted,Sapotaceae,(Pires) T.D. Penn.,,,2005-12-10,TEAM,Manaus,Eduardo Eler,,,42,1
Xyris lucida,Xyridaceae,Xyris lucida Malme,Xyridaceae,Xyris lucida,Malme,flowering plants,Accepted,Xyridaceae,Malme,-25.889722,-48.956389,2013-11-16,GBIF,UFRGS,UFRGS,UFRGS,ICN,2637,1
Tetrapterys anisoptera,Malpighiaceae,Tetrapterys anisoptera A.Juss.,Malpighiaceae,Tetrapterys anisoptera,A. Juss.,flowering plants,Accepted,Malpighiaceae,A. Juss.,-10.8339,-52.8731,,GBIF,F,F,F,Botany,3567,1
Tillandsia tenuifolia,Bromeliaceae,Tillandsia tenuifolia L.,Bromeliaceae,Tillandsia tenuifolia,L.,flowering plants,Accepted,Bromeliaceae,L.,-23.933333,-48.553889,2007-10-23,GBIF,JBRJ,JBRJ,JBRJ,RB,1928,1
,Bignoniaceae,Mansoa DC.,Bignoniaceae,Mansoa,DC.,flowering plants,Accepted,Bignoniaceae,DC.,-14.125833,-42.434167,,GBIF,Comissão Executiva do Plano da Lavoura Cacaueira (CEPLAC),Comissão Executiva do Plano da Lavoura Cacaueira (CEPLAC),Comissão Executiva do Plano da Lavoura Cacaueira (CEPLAC),CEPEC,2724,1
Ouratea floribunda,Ochnaceae,Ouratea floribunda Engl.,Ochnaceae,Ouratea floribunda,Engl.,flowering plants,Accepted,Ochnaceae,Engl.,-15.77972,-47.92944,1976-03-24,NY,NY,NY,NY,Herbarium,104,1
,Lentibulariaceae,Lentibulariaceae,Lentibulariaceae,Lentibulariaceae,Rich.,flowering plants,Accepted,Lentibulariaceae,Rich.,-20.111111,-43.893333,2010-04-22,GBIF,Universidade Federal de Minas Gerais (UFMG),Universidade Federal de Minas Gerais (UFMG),Universidade Federal de Minas Gerais (UFMG),BHCB,2515,1
,Euphorbiaceae,Acalypha L.,Euphorbiaceae,Acalypha,L.,flowering plants,Accepted,Euphorbiaceae,L.,-13.148056,-46.659722,2000-10-31,GBIF,"Instituto de Botânica, IBT","Instituto de Botânica, IBT","Instituto de Botânica, IBT",SP,3012,1
,Cyperaceae,Eleocharis,Cyperaceae,Eleocharis,R. Br.,flowering plants,Accepted,Cyperaceae,R. Br.,-13.483333,-39.033333,2006-08-12,SpeciesLink,UFBA,UFBA,UFBA,ALCB,1028,1
,Poaceae,Echinochloa P.Beauv.,Poaceae,Echinochloa,P. Beauv.,flowering plants,Accepted,Poaceae,P. Beauv.,-12.705833,-39.392222,2010-03-21,GBIF,UEFS,UEFS,UEFS,HUEFS,2756,1
Ischnosiphon gracilis,Marantaceae,Ischnosiphon gracilis Körn.,Marantaceae,Ischnosiphon gracilis,(Rudge) Körn.,flowering plants,Accepted,Marantaceae,(Rudge) Körn.,-12.166667,-37.966667,2013-08-21,GBIF,UEFS,UEFS,UEFS,HUEFS,2756,1
Cyrtopodium virescens,Orchidaceae,Cyrtopodium virescens,Orchidaceae,Cyrtopodium virescens,Rchb. f. & Warm.,flowering plants,Accepted,Orchidaceae,Rchb. f. & Warm.,,,1994-10-05,SpeciesLink,UnB,UnB,UnB,UB,1227,1
,Apocynaceae,Temnadenia Miers & Woodson,Apocynaceae,Temnadenia,,flowering plants,Accepted,Apocynaceae,,-18.069444,-40.183333,2006-12-04,GBIF,MBML,MBML,MBML,MBML-HERBARIO,3510,1
Anemopaegma album,Bignoniaceae,Anemopaegma album Mart.,Bignoniaceae,Anemopaegma album,Mart.,flowering plants,No opinion,Bignoniaceae,Mart.,-11.39,-41.01,1977-03-04,GBIF,UNICAMP,UNICAMP,UNICAMP,UEC,2136,1
Psychotria lupulina,Rubiaceae,Psychotria lupulina Benth.,Rubiaceae,Psychotria lupulina,Benth.,flowering plants,Accepted,Rubiaceae,Benth.,,,,GBIF,Comissão Executiva do Plano da Lavoura Cacaueira (CEPLAC),Comissão Executiva do Plano da Lavoura Cacaueira (CEPLAC),Comissão Executiva do Plano da Lavoura Cacaueira (CEPLAC),CEPEC,2724,1
,Rubiaceae,Rubiaceae Sabicea M1,Rubiaceae,Sabicea,Aubl.,flowering plants,Accepted,Rubiaceae,Aubl.,-5.778,-51.003,,SALVIAS,Gentry Transect Dataset,James S. MIller,,,14,1
,Lauraceae,Lauraceae Ocotea MA sp 11,Lauraceae,Ocotea,Aubl.,flowering plants,Accepted,Lauraceae,Aubl.,-2.6185037,-60.2098673,2011-09-22,TEAM,Manaus,Eduardo Eler,,,42,1
Croton organensis,Euphorbiaceae,Croton organensis,Euphorbiaceae,Croton organensis,Baill.,flowering plants,Accepted,Euphorbiaceae,Baill.,-22.867812,-45.737645,2006-11-05,SpeciesLink,IAC,IAC,IAC,IAC,1365,1
Pecluma truncorum,Polypodiaceae,Pecluma truncorum (Lindm.) Price,Polypodiaceae,Pecluma truncorum,(Lindm.) M.G. Price,ferns and allies,Accepted,Polypodiaceae,(Lindm.) M.G. Price,-25.483333,-48.983333,2004-12-17,GBIF,UFPR,UFPR,UFPR,UPCB,2201,1
Pouteria decorticans,Sapotaceae,Sapotaceae Pouteria decorticans,Sapotaceae,Pouteria decorticans,T.D. Penn.,flowering plants,Accepted,Sapotaceae,T.D. Penn.,,,2004-04-11,TEAM,Caxiuanã,Fernanda Santos,,,36,1
Attalea pindobassu,Arecaceae,Attalea pindobassu Bondar,Arecaceae,Attalea pindobassu,Bondar,flowering plants,Accepted,Arecaceae,Bondar,-11.733333,-40.566667,1988-08-20,GBIF,IPA,IPA,IPA,IPA,3347,1
Monstera adansonii,Araceae,Monstera adansonii Schott,Araceae,Monstera adansonii,Schott,flowering plants,Accepted,Araceae,Schott,-14.8,-39.166667,1998-03-30,GBIF,UESC,UESC,UESC,UESC,3702,1
,Myrtaceae,Psidium L.,Myrtaceae,Psidium,L.,flowering plants,Accepted,Myrtaceae,L.,-15.721389,-48.933333,2017-08-14,GBIF,Jardim Botânico de Brasília (JBB),Jardim Botânico de Brasília (JBB),Jardim Botânico de Brasília (JBB),HEPH,2371,1
Macroptilium bracteatum,Fabaceae,Macroptilium bracteatum (Nees & Mart.) Maréchal & Baudet,Fabaceae,Macroptilium bracteatum,(Nees & Mart.) Maréchal & Baudet,flowering plants,Accepted,Fabaceae,(Nees & Mart.) Maréchal & Baudet,-11.111111,-42.721389,2000-04-11,GBIF,Universidade Federal da Bahia (UFBA),Universidade Federal da Bahia (UFBA),Universidade Federal da Bahia (UFBA),ALCB,2879,1
Paepalanthus sphaerocephalus,Eriocaulaceae,Paepalanthus sphaerocephalus,Eriocaulaceae,Paepalanthus sphaerocephalus,Ruhland,flowering plants,Accepted,Eriocaulaceae,Ruhland,-16.7686,-47.6136,1973-04-05,SpeciesLink,UnB,UnB,UnB,UB,1227,1
Bishopiella elegans,Asteraceae,Bishopiella elegans R.M.King & H.Rob.,Asteraceae,Bishopiella elegans,R.M. King & H. Rob.,flowering plants,Accepted,Asteraceae,R.M. King & H. Rob.,-13.25,-41.9,1991-12-31,GBIF,US,US,US,Botany,3271,1
,Chrysobalanaceae,Hirtella L.,Chrysobalanaceae,Hirtella,L.,flowering plants,Accepted,Chrysobalanaceae,L.,-14.54167,-49.0725,,GBIF,Cenargen,Cenargen,Cenargen,CEN,3199,1
Lipocarpha micrantha,Cyperaceae,Lipocarpha micrantha (Vahl) G.C.Tucker,Cyperaceae,Lipocarpha micrantha,(Vahl) G.C. Tucker,flowering plants,Accepted,Cyperaceae,(Vahl) G.C. Tucker,-6.357222,-38.461667,2008-05-30,GBIF,UFERSA,UFERSA,UFERSA,MOSS,1570,1
,Ptychomitriaceae,Ptychomitrium Fürnr.,Ptychomitriaceae,Ptychomitrium,Fürnr.,bryophytes,Accepted,Ptychomitriaceae,Fürnr.,-27.569444,-52.020278,1983-04-23,GBIF,IBt,IBt,IBt,SP-BRYOPHYTA,1670,1
Noisettia orchidiflora,Violaceae,Noisettia orchidiflora Ging.,Violaceae,Noisettia orchidiflora,(Rudge) Ging.,flowering plants,Accepted,Violaceae,(Rudge) Ging.,-25.441944,-48.918056,2014-02-08,GBIF,Universidade Tecnológica Federal do Paraná (UTFPR),Universidade Tecnológica Federal do Paraná (UTFPR),Universidade Tecnológica Federal do Paraná (UTFPR),HCF,2459,1
Ptychomitrium sellowianum,Ptychomitriaceae,Ptychomitrium sellowianum (Müll. Hal.) A. Jaeger,Ptychomitriaceae,Ptychomitrium sellowianum,(Müll. Hal.) A. Jaeger,bryophytes,Accepted,Ptychomitriaceae,(Müll. Hal.) A. Jaeger,-28.88333,-50.4,1989-07-01,MO,MO,MO,MO,,280,1
Rhynchospora tenuis,Cyperaceae,Rhynchospora tenuis,Cyperaceae,Rhynchospora tenuis,Willd. ex Link,flowering plants,Accepted,Cyperaceae,Willd. ex Link,-13.533333,-41.916667,1974-01-22,SpeciesLink,UNICAMP,UNICAMP,UNICAMP,UEC,1030,1
,Rubiaceae,Alibertia A.Rich. ex DC.,Rubiaceae,Alibertia,A. Rich. ex DC.,flowering plants,Accepted,Rubiaceae,A. Rich. ex DC.,-7.476667,-36.888889,2002-12-20,GBIF,UFPB,UFPB,UFPB,JPB,3165,1
Tetragastris panamensis,Burseraceae,Tetragastris panamensis (Engl.) Kuntze,Burseraceae,Tetragastris panamensis,(Engl.) Kuntze,flowering plants,Accepted,Burseraceae,(Engl.) Kuntze,-10.93889,-69.4975,1997-10-19,NY,NY,NY,NY,Herbarium,104,1
Chamaecrista desvauxii,Fabaceae,Chamaecrista desvauxii var. latifolia (Benth.) H.S.Irwin & Barneby,Fabaceae,Chamaecrista desvauxii var. latifolia,(Benth.) H.S. Irwin & Barneby,flowering plants,Accepted,Fabaceae,(Benth.) H.S. Irwin & Barneby,-5.32,-41.55,1994-04-20,GBIF,K,K,K,Herbarium,3716,1
Zygia racemosa,Fabaceae,Zygia racemosa (Ducke) Barneby & J.W.Grimes,Fabaceae,Zygia racemosa,(Ducke) Barneby & J.W. Grimes,flowering plants,Accepted,Fabaceae,(Ducke) Barneby & J.W. Grimes,-2.883333,-59.966667,1995-08-08,GBIF,UFV,UFV,UFV,VIC,1882,1
Inga cinnamomea,Fabaceae,Inga cinnamomea Spruce ex Benth.,Fabaceae,Inga cinnamomea,Spruce ex Benth.,flowering plants,Accepted,Fabaceae,Spruce ex Benth.,-10.8339,-52.8731,1851-06-01,GBIF,F,F,F,Botany,3567,1
Cuphea sessilifolia,Lythraceae,Cuphea sessilifolia Mart.,Lythraceae,Cuphea sessilifolia,Mart.,flowering plants,Accepted,Lythraceae,Mart.,-10.8339,-52.8731,,GBIF,F,F,F,Botany,3567,1
Miconia hyemalis,Melastomataceae,Miconia hyemalis A.St.-Hil. & Naudin,Melastomataceae,Miconia hyemalis,A. St.-Hil. & Naudin,flowering plants,Accepted,Melastomataceae,A. St.-Hil. & Naudin,-25.059,-49.026,2006-09-07,GBIF,UFPR,UFPR,UFPR,UPCB,2201,1
Helicostylis tomentosa,Moraceae,Helicostylis tomentosa Rusby,Moraceae,Helicostylis tomentosa,(Poepp. & Endl.) Rusby,flowering plants,Accepted,Moraceae,(Poepp. & Endl.) Rusby,-10.8339,-52.8731,,GBIF,F,F,F,Botany,3567,1
Posoqueria latifolia,Rubiaceae,Posoqueria latifolia (Rudge) Roem. & Schult.,Rubiaceae,Posoqueria latifolia,(Rudge) Schult.,flowering plants,Accepted,Rubiaceae,(Rudge) Schult.,-7.50611,-63.02056,1966-11-23,NY,NY,NY,NY,Herbarium,104,1
,Euphorbiaceae,Hevea,Euphorbiaceae,Hevea,Aubl.,flowering plants,Accepted,Euphorbiaceae,Aubl.,-4.368306,-70.037778,1983-06-01,SpeciesLink,PUCRS,PUCRS,PUCRS,MPUC,681,1
,Lejeuneaceae,Lejeuneaceae,,Lejeuneaceae,,bryophytes,Accepted,Lejeuneaceae,,-23.643889,-46.137778,1983-07-25,GBIF,IBt,IBt,IBt,SP-BRYOPHYTA,1670,1
Hymenaea stigonocarpa,Fabaceae,Hymenaea stigonocarpa var. stigonocarpa,Fabaceae,Hymenaea stigonocarpa var. stigonocarpa,,flowering plants,Accepted,Fabaceae,,-14.246667,-43.838611,2002-04-16,GBIF,UEFS,UEFS,UEFS,HUEFS,2756,1
Protium unifoliolatum,Burseraceae,Protium unifoliolatum Engl.,Burseraceae,Protium unifoliolatum,Engl.,flowering plants,Accepted,Burseraceae,Engl.,-1.583333,-55.53,1981-08-05,GBIF,Instituto Nacional de Pesquisas da Amazônia (INPA),Instituto Nacional de Pesquisas da Amazônia (INPA),Instituto Nacional de Pesquisas da Amazônia (INPA),"Coleção Botânica, Instituto Nacional de Pesquisas da Amazônia (INPA)",2095,1
,Melastomataceae,Sp.,Melastomataceae,Melastomataceae,Juss.,flowering plants,Accepted,Melastomataceae,Juss.,-6.6977777778,-35.1661111111,2003-02-02,SpeciesLink,UFPB,UFPB,UFPB,JPB,306,1
Senegalia polyphylla,Fabaceae,Senegalia polyphylla (DC.) Britton & Rose,Fabaceae,Senegalia polyphylla,(DC.) Britton & Rose,flowering plants,Accepted,Fabaceae,(DC.) Britton & Rose,-10.566667,-63.583333,1987-04-22,GBIF,"Instituto de Botânica, IBT","Instituto de Botânica, IBT","Instituto de Botânica, IBT",SP,3012,1
Stylosanthes guianensis,Fabaceae,Stylosanthes guianensis var. vulgaris M.B.Ferreira & Sousa Costa,Fabaceae,Stylosanthes guianensis var. vulgaris,M.B. Ferreira & Sousa Costa,flowering plants,Accepted,Fabaceae,(Aubl.) Sw.,-1.75,-47.46667,,GBIF,Cenargen,Cenargen,Cenargen,CEN,3199,1
Caraipa densifolia,Calophyllaceae,Caraipa densifolia Mart.,Calophyllaceae,Caraipa densifolia,Mart.,flowering plants,Accepted,Calophyllaceae,Mart.,-12.473333,-50.201944,2009-07-12,GBIF,"Instituto de Botânica, IBT","Instituto de Botânica, IBT","Instituto de Botânica, IBT",SP,3012,1
Sorghastrum setosum,Poaceae,Sorghastrum setosum (Griseb.) Hitchc.,Poaceae,Sorghastrum setosum,(Griseb.) Hitchc.,flowering plants,Accepted,Poaceae,(Griseb.) Hitchc.,-7.58333,-57.58333,1974-02-16,MO,MO,MO,MO,,280,1
,Rhamnaceae,Rhamnaceae,Rhamnaceae,Rhamnaceae,Juss.,flowering plants,Accepted,Rhamnaceae,Juss.,-7.583333,-60.666667,1985-04-24,GBIF,JBRJ,JBRJ,JBRJ,RB,1928,1
,Heliconiaceae,Sp.,Heliconiaceae,Heliconiaceae,Nakai,flowering plants,Accepted,Heliconiaceae,Nakai,-13.7170555556,-39.6371388889,2011-11-25,SpeciesLink,UESB,UESB,UESB,HUESB,1224,1
Lepidopilum scabrisetum,Daltoniaceae,"Lepidopilum scabrisetum Steere, 1948",Daltoniaceae,Lepidopilum scabrisetum,(Schwägr.) Steere,bryophytes,Accepted,Daltoniaceae,(Schwägr.) Steere,-23.656389,-47.2225,1983-05-29,GBIF,IBt,IBt,IBt,SP-BRYOPHYTA,1670,1
Euploca procumbens,Heliotropiaceae,Euploca procumbens (Mill.) Diane & Hilger,Boraginaceae,Euploca procumbens,(Mill.) Diane & Hilger,flowering plants,Accepted,Boraginaceae,(Mill.) Diane & Hilger,-8.423389,-38.046333,2010-10-22,GBIF,UNIVASF,UNIVASF,UNIVASF,HVASF,1825,1
,Pontederiaceae,Heteranthera Ruiz & Pav.,Pontederiaceae,Heteranthera,Ruiz & Pav.,flowering plants,Accepted,Pontederiaceae,Ruiz & Pav.,-5.403611,-37.633056,2009-12-04,GBIF,UFERSA,UFERSA,UFERSA,MOSS,1570,1
,Myrtaceae,Myrtaceae,Myrtaceae,Myrtaceae,Juss.,flowering plants,Accepted,Myrtaceae,Juss.,-20.266667,-40.533333,2008-05-06,SpeciesLink,UFMG,UFMG,UFMG,BHCB,501,1
,Verbenaceae,Lantana L.,Verbenaceae,Lantana,L.,flowering plants,Accepted,Verbenaceae,L.,-10.738333,-37.811111,2011-02-11,GBIF,"Universidade Federal de Sergipe, UFS","Universidade Federal de Sergipe, UFS","Universidade Federal de Sergipe, UFS",ASE,3114,1
Byrsonima coccolobifolia,Malpighiaceae,Byrsonima coccolobifolia Kunth,Malpighiaceae,Byrsonima coccolobifolia,Kunth,flowering plants,Accepted,Malpighiaceae,Kunth,-22.180278,-47.883056,1994-04-17,GBIF,USP,USP,USP,SPF,3527,1
,Asteraceae,Pamphalea Lag.,Asteraceae,Pamphalea,Lag.,flowering plants,Accepted,Asteraceae,Lag.,-27.816111,-50.326111,2016-10-09,GBIF,"Universidade Regional de Blumenau, FURB","Universidade Regional de Blumenau, FURB","Universidade Regional de Blumenau, FURB",FURB,1646,1
Cyclodium heterodon,Dryopteridaceae,Cyclodium heterodon var. abbreviatum (C. Presl) A.R. Sm.,Dryopteridaceae,Cyclodium heterodon var. abbreviatum,(C. Presl) A.R. Sm.,ferns and allies,Accepted,Dryopteridaceae,(C. Presl) A.R. Sm.,-13.89083,-39.45916,2003-03-19,MO,MO,MO,MO,,280,1
,Rapateaceae,Rapateaceae,Rapateaceae,Rapateaceae,Dumort.,flowering plants,Accepted,Rapateaceae,Dumort.,1.380417,-60.98,2011-01-25,GBIF,Instituto Nacional de Pesquisas da Amazônia (INPA),Instituto Nacional de Pesquisas da Amazônia (INPA),Instituto Nacional de Pesquisas da Amazônia (INPA),"Coleção Botânica, Instituto Nacional de Pesquisas da Amazônia (INPA)",2095,1
Sisyrinchium vaginatum,Iridaceae,Sisyrinchium vaginatum Spreng.,Iridaceae,Sisyrinchium vaginatum,Spreng.,flowering plants,Accepted,Iridaceae,Spreng.,-15.964444,-47.819444,,GBIF,Cenargen,Cenargen,Cenargen,CEN,3199,1
,Violaceae,Noisettia Kunth,Violaceae,Noisettia,Kunth,flowering plants,Accepted,Violaceae,Kunth,-20.026667,-40.492222,2007-11-30,GBIF,MBML,MBML,MBML,MBML-HERBARIO,3510,1
,Asteraceae(=Compositae),Achyrocline,Asteraceae,Achyrocline,(Less.) DC.,flowering plants,Accepted,Asteraceae,(Less.) DC.,-24.715,-47.8811,1994-05-17,SpeciesLink,IAC,IAC,IAC,IAC,1365,1
,,Plantae,Plantaginaceae,Plantago,L.,flowering plants,Accepted,Plantaginaceae,L.,-19.45,-57.75,1995-08-18,GBIF,Empresa Brasileira de Pesquisa Agropecuária (EMBRAPA),Empresa Brasileira de Pesquisa Agropecuária (EMBRAPA),Empresa Brasileira de Pesquisa Agropecuária (EMBRAPA),CPAP,2018,1
Turnera chamaedrifolia,Turneraceae,Turnera chamaedrifolia Cambess.,Passifloraceae,Turnera chamaedrifolia,Cambess.,flowering plants,Accepted,Passifloraceae,Cambess.,-12.683333,-38.316667,2005-11-12,GBIF,Universidade Federal da Bahia (UFBA),Universidade Federal da Bahia (UFBA),Universidade Federal da Bahia (UFBA),ALCB,2879,1
Ocotea mandioccana,Lauraceae,Ocotea mandiocana,Lauraceae,Ocotea mandioccana,,flowering plants,No opinion,Lauraceae,,-28.466667,-48.766667,1994-04-10,SpeciesLink,UNESC,UNESC,UNESC,CRI,538,1
Gouania pyrifolia,Rhamnaceae,Gouania pyrifolia Reissek,Rhamnaceae,Gouania pyrifolia,Reissek,flowering plants,Accepted,Rhamnaceae,Reissek,-6.72222,-35.14778,,GBIF,Cenargen,Cenargen,Cenargen,CEN,3199,1
Tapirira guianensis,Anacardiaceae,Tapirira guianensis Aubl.,Anacardiaceae,Tapirira guianensis,Aubl.,flowering plants,Accepted,Anacardiaceae,Aubl.,-11.939722,-40.546389,2006-12-21,GBIF,Universidade Federal da Bahia (UFBA),Universidade Federal da Bahia (UFBA),Universidade Federal da Bahia (UFBA),ALCB,2879,1
Myrcia mischophylla,Myrtaceae,Myrcia mischophylla Kiaersk.,Myrtaceae,Myrcia mischophylla,Kiaersk.,flowering plants,Accepted,Myrtaceae,Kiaersk.,-13.830556,-42.651389,2014-10-18,GBIF,JBRJ,JBRJ,JBRJ,RB,1928,1
Connarus suberosus,Connaraceae,Connarus suberosus Planch. var. suberosus,Connaraceae,Connarus suberosus var. suberosus,,flowering plants,Accepted,Connaraceae,,-11.233,-45.417,1994-10-14,NY,NY,NY,NY,Herbarium,104,1
Psidium brownianum,Myrtaceae,Psidium brownianum Mart. ex DC.,Myrtaceae,Psidium brownianum,Mart. ex DC.,flowering plants,Accepted,Myrtaceae,Mart. ex DC.,-18.77,-40.4475,2009-01-14,GBIF,MBML,MBML,MBML,MBML-HERBARIO,3510,1
,Convolvulaceae,Evolvulus L.,Convolvulaceae,Evolvulus,L.,flowering plants,Accepted,Convolvulaceae,L.,-13.516667,-42,1988-12-17,GBIF,FTG,FTG,FTG,Herbarium,3743,1
Cissampelos pareira,Menispermaceae,Cissampelos pareira L.,Menispermaceae,Cissampelos pareira,L.,flowering plants,Accepted,Menispermaceae,L.,-23.230444,-46.935778,2007-12-04,GBIF,"Universidade Estadual Paulista, UNESP","Universidade Estadual Paulista, UNESP","Universidade Estadual Paulista, UNESP",HRCB,2238,1
Pera bicolor,Peraceae,Pera bicolor Müll.Arg.,Euphorbiaceae,Pera bicolor,(Klotzsch) Müll. Arg.,flowering plants,Accepted,Euphorbiaceae,(Klotzsch) Müll. Arg.,-10.982222,-55.777778,2011-04-02,GBIF,UNEMAT,UNEMAT,UNEMAT,HERBAM,1849,1
Cordia trichoclada,Boraginaceae,Cordia trichoclada DC.,Boraginaceae,Cordia trichoclada,DC.,flowering plants,Accepted,Boraginaceae,DC.,-14.78194,-39.06916,1994-09-18,MO,MO,MO,MO,,280,1
,Humiriaceae,Humiriaceae,Humiriaceae,Humiriaceae,A. Juss.,flowering plants,Accepted,Humiriaceae,A. Juss.,-11,-40,1996-03-31,SpeciesLink,UFBA,UFBA,UFBA,ALCB,1028,1
Eschweilera bracteosa,Lecythidaceae,Lecythidaceae Eschweilera bracteosa,Lecythidaceae,Eschweilera bracteosa,(Poepp. ex O. Berg) Miers,flowering plants,Accepted,Lecythidaceae,(Poepp. ex O. Berg) Miers,-2.4313394,-59.794235,2008-08-25,TEAM,Manaus,Eduardo Eler,,,42,1
Myrsine guianensis,myrsinaceae,rapanea guianensis,Primulaceae,Rapanea guianensis,Aubl.,flowering plants,Accepted,Primulaceae,(Aubl.) Kuntze,-20.1225,-47.3861,2001-04-03,SpeciesLink,FAPESP,FAPESP,FAPESP,SinBiota,196,1
Pagamea acrensis,Rubiaceae,Pagamea acrensis Steyerm.,Rubiaceae,Pagamea acrensis,Steyerm.,flowering plants,Accepted,Rubiaceae,Steyerm.,0.33333,-67.33333,1987-11-13,MO,MO,MO,MO,,280,1
,Vitaceae,Cissus L.,Vitaceae,Cissus,L.,flowering plants,Accepted,Vitaceae,L.,-6.578056,-37.25,2006-04-15,GBIF,UEFS,UEFS,UEFS,HUEFS,2756,1
,Solanaceae,Indet,Solanaceae,Solanaceae,Juss.,flowering plants,Accepted,Solanaceae,Juss.,-23.605833,-46.078056,2004-09-01,SpeciesLink,UMC,UMC,UMC,HUMC,1273,1
Ipomoea chiliantha,Convolvulaceae,Ipomoea chiliantha Hallier f.,Convolvulaceae,Ipomoea chiliantha,Hallier f.,flowering plants,Accepted,Convolvulaceae,Hallier f.,-19.076944,-57.701944,1995-08-18,GBIF,Fundação Universidade Federal de Mato Grosso do Sul (UFMS),Fundação Universidade Federal de Mato Grosso do Sul (UFMS),Fundação Universidade Federal de Mato Grosso do Sul (UFMS),CGMS,2258,1
Pterolepis glomerata,Melastomataceae,Pterolepis glomerata (Rottb.) Miq.,Melastomataceae,Pterolepis glomerata,(Rottb.) Miq.,flowering plants,Accepted,Melastomataceae,(Rottb.) Miq.,-13.6,-41.8,2004-06-12,GBIF,JBRJ,JBRJ,JBRJ,RB,1928,1
Metzgeria liebmanniana,Metzgeriaceae,Metzgeria liebmaniana Lindenb. & Gottsche,Metzgeriaceae,Metzgeria liebmanniana,Lindenb. & Gottsche,bryophytes,Accepted,Metzgeriaceae,Lindenb. & Gottsche,-7.903056,-36.044167,1980-08-24,GBIF,IBt,IBt,IBt,SP-BRYOPHYTA,1670,1
Mimosa multiplex,Mimosaceae,Mimosa multiplex Benth.,Fabaceae,Mimosa multiplex,Benth.,flowering plants,Accepted,Fabaceae,Benth.,-19.92083,-43.93778,1958-12-21,NY,NY,NY,NY,Herbarium,104,1
Scleria latifolia,Cyperaceae,Scleria latifolia Sw.,Cyperaceae,Scleria latifolia,Sw.,flowering plants,Accepted,Cyperaceae,Sw.,-23.968,-51.089833,2014-10-17,GBIF,Universidade Tecnológica Federal do Paraná (UTFPR),Universidade Tecnológica Federal do Paraná (UTFPR),Universidade Tecnológica Federal do Paraná (UTFPR),HCF,2459,1
Philodendron roseopetiolatum,Araceae,Philodendron roseopetiolatum Nadruz & Mayo,Araceae,Philodendron roseopetiolatum,Nadruz & Mayo,flowering plants,Accepted,Araceae,Nadruz & Mayo,-27.056667,-49.087778,2007-12-13,GBIF,"Universidade Regional de Blumenau, FURB","Universidade Regional de Blumenau, FURB","Universidade Regional de Blumenau, FURB",FURB,1646,1
Senna hirsuta,Fabaceae,Senna hirsuta var. streptocarpa H.S.Irwin & Barneby,Fabaceae,Senna hirsuta var. streptocarpa,H.S. Irwin & Barneby,flowering plants,Accepted,Fabaceae,H.S. Irwin & Barneby,-29.914444,-56.033333,2006-11-18,GBIF,UEFS,UEFS,UEFS,HUEFS,2756,1
Rhabdadenia madida,Apocynaceae,Rhabdadenia macrostoma (Benth.) Müll.Arg.,Apocynaceae,Rhabdadenia macrostoma,(Benth.) Müll. Arg.,flowering plants,Accepted,Apocynaceae,(Vell.) Miers,-4.245278,-61.63,1955-01-31,GBIF,Instituto Nacional de Pesquisas da Amazônia (INPA),Instituto Nacional de Pesquisas da Amazônia (INPA),Instituto Nacional de Pesquisas da Amazônia (INPA),"Coleção Botânica, Instituto Nacional de Pesquisas da Amazônia (INPA)",2095,1
Terminalia phaeocarpa,COMBRETACEAE,Terminalia phaeocarpa Eichler,Combretaceae,Terminalia phaeocarpa,Eichler,flowering plants,Accepted,Combretaceae,Eichler,-15.9925,-47.8947222,1989-07-12,SpeciesLink,JBRJ,JBRJ,JBRJ,JBRJ_RB,249,1
Melanopsidium nigrum,RUBIACEAE,Melanopsidium nigrum,Rubiaceae,Melanopsidium nigrum,Colla,flowering plants,Accepted,Rubiaceae,Colla,-20.602457,-40.425684,2007-06-05,SpeciesLink,CVRD,CVRD,CVRD,CVRD,657,1
Verbesina macrophylla,Asteraceae,Verbesina macrophylla S.F.Blake,Asteraceae,Verbesina macrophylla,(Cass.) S.F. Blake,flowering plants,Accepted,Asteraceae,(Cass.) S.F. Blake,-11.405278,-40.550556,2013-08-13,GBIF,JBRJ,JBRJ,JBRJ,RB,1928,1
Rinorea guianensis,Violaceae,Violaceae Rinorea guianensis,Violaceae,Rinorea guianensis,Aubl.,flowering plants,Accepted,Violaceae,Aubl.,-1.73408,-51.51098,2005-04-03,TEAM,Caxiuanã,Fernanda Santos,,,36,1
Banisteriopsis oxyclada,Malpighiaceae,Banisteriopsis oxyclada (A. Juss.) B. Gates,Malpighiaceae,Banisteriopsis oxyclada,(A. Juss.) B. Gates,flowering plants,Accepted,Malpighiaceae,(A. Juss.) B. Gates,-5.45,-45.417,1984-04-02,NY,NY,NY,NY,Herbarium,104,1
Hydrolea spinosa,Hydroleaceae,Hydrolea spinosa L.,Hydroleaceae,Hydrolea spinosa,L.,flowering plants,Accepted,Hydroleaceae,L.,-14.198333,-49.291944,2013-06-14,GBIF,UnB,UnB,UnB,UB,3120,1
,Lecythidaceae,Lecythidaceae Eschweilera unknown,Lecythidaceae,Eschweilera,Mart. ex DC.,flowering plants,Accepted,Lecythidaceae,Mart. ex DC.,-1.72358,-51.4309,2009-10-17,TEAM,Caxiuanã,Fernanda Santos,,,36,1
Mimosa taimbensis,Fabaceae,Mimosa taimbensis Burkart,Fabaceae,Mimosa taimbensis,Burkart,flowering plants,Accepted,Fabaceae,Burkart,,,2007-10-04,GBIF,"Universidade Regional de Blumenau, FURB","Universidade Regional de Blumenau, FURB","Universidade Regional de Blumenau, FURB",FURB,1646,1
Vernonia westiniana,Asteraceae,Vernonia westiniana Less.,Asteraceae,Vernonia westiniana,Less.,flowering plants,Accepted,Asteraceae,Less.,-22.87025,-47.07717,1949-04-27,GBIF,IAC,IAC,IAC,IAC,3493,1
Erythroxylum deciduum,Erythroxylaceae,Erythroxylum deciduum A.St.-Hil.,Erythroxylaceae,Erythroxylum deciduum,A. St.-Hil.,flowering plants,Accepted,Erythroxylaceae,A. St.-Hil.,-20.249669,-43.604944,2007-10-13,GBIF,Universidade Federal de Minas Gerais (UFMG),Universidade Federal de Minas Gerais (UFMG),Universidade Federal de Minas Gerais (UFMG),BHCB,2515,1
Aechmea lingulatoides,Bromeliaceae,Aechmea lingulatoides Leme & H.Luther,Bromeliaceae,Aechmea lingulatoides,Leme & H. Luther,flowering plants,Accepted,Bromeliaceae,Leme & H. Luther,-11.066667,-41.166667,2003-10-07,GBIF,JBRJ,JBRJ,JBRJ,RB,1928,1
Genipa americana,Rubiaceae,Genipa americana L.,Rubiaceae,Genipa americana,L.,flowering plants,Accepted,Rubiaceae,L.,-3.5,-45.5,1983-09-03,GBIF,JBRJ,JBRJ,JBRJ,RB,1928,1
,Sapindaceae,Sapindaceae Matayba MA sp,Sapindaceae,Matayba,Aubl.,flowering plants,Accepted,Sapindaceae,Aubl.,-2.9289898,-59.9468382,2008-08-13,TEAM,Manaus,Eduardo Eler,,,42,1
Gurania subumbellata,Cucurbitaceae,Gurania subumbellata (Miq.) Cogn.,Cucurbitaceae,Gurania subumbellata,(Miq.) Cogn.,flowering plants,Accepted,Cucurbitaceae,(Miq.) Cogn.,-15.39167,-39.56528,2007-01-23,NY,NY,NY,NY,Herbarium,104,1
,Xyridaceae,Xyris scoparia N.Mota & Wand.,Xyridaceae,Xyris,L.,flowering plants,Accepted,Xyridaceae,L.,-18.207194,-43.330833,2007-02-24,GBIF,Universidade Federal de Minas Gerais (UFMG),Universidade Federal de Minas Gerais (UFMG),Universidade Federal de Minas Gerais (UFMG),BHCB,2515,1
Habenaria pratensis,Orchidaceae,Habenaria pratensis,Orchidaceae,Habenaria pratensis,(Lindl.) Rchb. f.,flowering plants,Accepted,Orchidaceae,(Lindl.) Rchb. f.,,,2011-11-11,SpeciesLink,UFS,UFS,UFS,ASE,690,1
Algrizea minor,Myrtaceae,"Algrizea minor Sobral, Faria & Proença",Myrtaceae,Algrizea minor,"Sobral, Faria & Proença",flowering plants,Accepted,Myrtaceae,"Sobral, Faria & Proença",-12.664722,-39.598333,2016-10-11,GBIF,Universidade Federal dos Vales do Jequitinhonha e Mucuri (UFVJM),Universidade Federal dos Vales do Jequitinhonha e Mucuri (UFVJM),Universidade Federal dos Vales do Jequitinhonha e Mucuri (UFVJM),HDJF,2939,1
Chamaecrista pohliana,Fabaceae,Chamaecrista pohliana (Benth.) H.S.Irwin & Barneby,Fabaceae,Chamaecrista pohliana,(Benth.) H.S. Irwin & Barneby,flowering plants,Accepted,Fabaceae,(Benth.) H.S. Irwin & Barneby,-15.950833,-47.871667,2008-12-24,GBIF,"Universidade Federal do Ceará, UFC","Universidade Federal do Ceará, UFC","Universidade Federal do Ceará, UFC",EAC,2420,1
Phoradendron crassifolium,Viscaceae,Phoradendron crassifolium (Pohl ex DC.) Eichler,Santalaceae,Phoradendron crassifolium,(Pohl ex DC.) Eichler,flowering plants,Accepted,Santalaceae,(Pohl ex DC.) Eichler,-23.62028,-45.40972,1961-05-20,NY,NY,NY,NY,Herbarium,104,1
Hymenophyllum caudiculatum,Hymenophyllaceae,Hymenophyllum caudiculatum Mart.,Hymenophyllaceae,Hymenophyllum caudiculatum,Mart.,ferns and allies,Accepted,Hymenophyllaceae,Mart.,-25.6,-48.666667,2006-05-17,GBIF,UFPR,UFPR,UFPR,UPCB,2201,1
Lindackeria paludosa,Flacourtiaceae,Lindackeria paludosa,Achariaceae,Lindackeria paludosa,(Benth.) Gilg,flowering plants,Accepted,Achariaceae,(Benth.) Gilg,-10.2,-59,1973-01-01,SpeciesLink,INPA,INPA,INPA,INPA-Herbario,619,1
,Meliaceae,Trichilia P.Browne,Meliaceae,Trichilia,P. Browne,flowering plants,Accepted,Meliaceae,P. Browne,-12.532361,-40.259083,2005-02-04,GBIF,"Escola Superior de Agricultura Luiz de Queiroz, ESALQ","Escola Superior de Agricultura Luiz de Queiroz, ESALQ","Escola Superior de Agricultura Luiz de Queiroz, ESALQ",ESA,2472,1
Jatropha ribifolia,Euphorbiaceae,Jatropha ribifolia,Euphorbiaceae,Jatropha ribifolia,(Pohl) Baill.,flowering plants,Accepted,Euphorbiaceae,(Pohl) Baill.,-9.328056,-40.551936,2010-03-18,SpeciesLink,UNIVASF,UNIVASF,UNIVASF,HVASF,786,1
Eschweilera atropetiolata,Lecythidaceae,Eschweilera atropetiolata S. A. Mori,Lecythidaceae,Eschweilera atropetiolata,S.A. Mori,flowering plants,Accepted,Lecythidaceae,S.A. Mori,-2.41625,-59.74583,1989-02-09,NY,NY,NY,NY,Herbarium,104,1
,Euphorbiaceae,Tragia L.,Euphorbiaceae,Tragia,L.,flowering plants,Accepted,Euphorbiaceae,L.,-30.65,-54.01666,1996-02-08,MO,MO,MO,MO,,280,1
Hebanthe pulverulenta,Amaranthaceae,Hebanthe pulverulenta Mart.,Amaranthaceae,Hebanthe pulverulenta,Mart.,flowering plants,Accepted,Amaranthaceae,Mart.,-10.8339,-52.8731,1927-11-02,GBIF,F,F,F,Botany,3567,1
,Lauraceae,Ocotea Aubl.,Lauraceae,Ocotea,Aubl.,flowering plants,Accepted,Lauraceae,Aubl.,-7.108889,-48.229167,2010-05-16,GBIF,UNITINS,UNITINS,UNITINS,HUTO,2430,1
,Rubiaceae,Schradera Vahl,Rubiaceae,Schradera,Vahl,flowering plants,Accepted,Rubiaceae,Vahl,-14.770278,-39.202778,2005-11-21,GBIF,UFPB,UFPB,UFPB,JPB,3165,1
Celtis iguanaea,Cannabaceae,Celtis iguanaea Sarg.,Cannabaceae,Celtis iguanaea,(Jacq.) Sarg.,flowering plants,Accepted,Cannabaceae,(Jacq.) Sarg.,-17.728333,-50.078056,2012-10-09,GBIF,UnB,UnB,UnB,UB,3120,1
Naucleopsis caloneura,Moraceae,Naucleopsis caloneura Ducke,Moraceae,Naucleopsis caloneura,(Huber) Ducke,flowering plants,Accepted,Moraceae,(Huber) Ducke,-2.423797,-60.293039,2011-06-11,GBIF,"Instituto Federal de Educação, Ciência e Tecnologia (IFAM)","Instituto Federal de Educação, Ciência e Tecnologia (IFAM)","Instituto Federal de Educação, Ciência e Tecnologia (IFAM)",EAFM,1566,1
Aechmea saxicola,Bromeliaceae,Aechmea saxicola L.B.Sm.,Bromeliaceae,Aechmea saxicola,L.B. Sm.,flowering plants,Accepted,Bromeliaceae,L.B. Sm.,-19.148333,-40.4575,2006-08-24,GBIF,MBML,MBML,MBML,MBML-HERBARIO,3510,1
,Lejeuneaceae,Lopholejeunea (Spruce) Schiffn.,Lejeuneaceae,Lopholejeunea,,bryophytes,Accepted,Lejeuneaceae,,-0.65,-66.916667,1979-07-12,GBIF,IBt,IBt,IBt,SP-BRYOPHYTA,1670,1
Cestrum pedicellatum,Solanaceae,Cestrum pedicellatum Sendtn.,Solanaceae,Cestrum pedicellatum,Sendtn.,flowering plants,Accepted,Solanaceae,Sendtn.,-16.07083,-57.67889,1980-02-15,NY,NY,NY,NY,Herbarium,104,1
Machaerium quinata,Fabaceae,Machaerium quinata (Aubl.) Sandwith,Fabaceae,Machaerium quinata,(Aubl.) Sandwith,flowering plants,Accepted,Fabaceae,(Aubl.) Sandwith,-1.5,-59.5,1986-03-21,NY,NY,NY,NY,Herbarium,104,1
Henriettea martiusii,Melastomataceae,Henriettea martiusii (DC.) Naud.,Melastomataceae,Henriettea martiusii,(DC.) Naudin,flowering plants,Accepted,Melastomataceae,(DC.) Naudin,-2.5,-61,1979-06-25,GBIF,Instituto Nacional de Pesquisas da Amazônia (INPA),Instituto Nacional de Pesquisas da Amazônia (INPA),Instituto Nacional de Pesquisas da Amazônia (INPA),"Coleção Botânica, Instituto Nacional de Pesquisas da Amazônia (INPA)",2095,1
,Fabroniaceae,Dimerodontium Mitt.,Fabroniaceae,Dimerodontium,Mitt.,bryophytes,Accepted,Fabroniaceae,Mitt.,-24.251111,-49.705833,1983-01-12,GBIF,IBt,IBt,IBt,SP-BRYOPHYTA,1670,1
,Sematophyllaceae,Sematophyllum Mitt.,Sematophyllaceae,Sematophyllum,Mitt.,bryophytes,Accepted,Sematophyllaceae,Mitt.,-18.307222,-44.602778,2011-11-30,GBIF,UnB,UnB,UnB,UB,3120,1
Leandra australis,Melastomataceae,Leandra australis Cogn.,Melastomataceae,Leandra australis,(Cham.) Cogn.,flowering plants,Accepted,Melastomataceae,(Cham.) Cogn.,-10.8339,-52.8731,,GBIF,F,F,F,Botany,3567,1
Turnera hilaireana,Turneraceae,Turnera hilaireana Urb.,Passifloraceae,Turnera hilaireana,Urb.,flowering plants,Accepted,Passifloraceae,Urb.,-20.46,-43.588889,2002-11-13,GBIF,"Escola Superior de Agricultura Luiz de Queiroz, ESALQ","Escola Superior de Agricultura Luiz de Queiroz, ESALQ","Escola Superior de Agricultura Luiz de Queiroz, ESALQ",ESA,2472,1
Evolvulus glomeratus,Convolvulaceae,Evolvulus glomeratus,Convolvulaceae,Evolvulus glomeratus,Nees & C. Mart.,flowering plants,Accepted,Convolvulaceae,Nees & C. Mart.,-7.994722,-37.371944,2000-06-21,SpeciesLink,IPA,IPA,IPA,IPA,894,1
Triplaris gardneriana,Polygonaceae,Triplaris gardneriana Wedd.,Polygonaceae,Triplaris gardneriana,Wedd.,flowering plants,Accepted,Polygonaceae,Wedd.,-5.7925,-37.556667,2014-08-17,GBIF,Universidade Federal da Bahia (UFBA),Universidade Federal da Bahia (UFBA),Universidade Federal da Bahia (UFBA),ALCB,2879,1
Tibouchina martialis,Melastomataceae,Tibouchina martialis,Melastomataceae,Tibouchina martialis,(Cham.) Cogn.,flowering plants,Accepted,Melastomataceae,(Cham.) Cogn.,-25.233333,-50,2004-12-20,SpeciesLink,UFPR,UFPR,UFPR,UPCB,1244,1
,Piperaceae,Peperomia Ruiz & Pav.,Piperaceae,Peperomia,Ruiz & Pav.,flowering plants,Accepted,Piperaceae,Ruiz & Pav.,-22.461944,-43.013611,2005-09-23,GBIF,JBRJ,JBRJ,JBRJ,RB,1928,1
Miconia fasciculata,Melastomataceae,Miconia fasciculata Gardner,Melastomataceae,Miconia fasciculata,Gardner,flowering plants,Accepted,Melastomataceae,Gardner,-26.910278,-49.411389,2010-03-30,GBIF,"Universidade Regional de Blumenau, FURB","Universidade Regional de Blumenau, FURB","Universidade Regional de Blumenau, FURB",FURB,1646,1
Unonopsis stipitata,Annonaceae,Unonopsis stipitata Diels,Annonaceae,Unonopsis stipitata,Diels,flowering plants,Accepted,Annonaceae,Diels,0.25,-66.666667,2008-10-24,GBIF,JBRJ,JBRJ,JBRJ,RB,1928,1
,Convolvulaceae,Ipomoea L.,Convolvulaceae,Ipomoea,L.,flowering plants,Accepted,Convolvulaceae,L.,-9.593889,-42.913889,2000-03-02,GBIF,UESC,UESC,UESC,UESC,3702,1
,Poaceae,Poaceae,Poaceae,Poaceae,Barnhart,flowering plants,Accepted,Poaceae,Barnhart,-23.2,-45.766667,2013-02-15,GBIF,IF,IF,IF,SPSF,2774,1
,Rubiaceae,Psychotria L.,Rubiaceae,Psychotria,L.,flowering plants,Accepted,Rubiaceae,L.,,,2012-10-04,GBIF,JBRJ,JBRJ,JBRJ,RB,1928,1
Dolichandra unguis-cati,Bignoniaceae,Dolichandra unguis-cati (L.) L.G.Lohmann,Bignoniaceae,Dolichandra unguis-cati,(L.) L.G. Lohmann,flowering plants,Accepted,Bignoniaceae,(L.) L.G. Lohmann,-10.8339,-52.8731,1979-12-31,GBIF,F,F,F,Botany,3567,1
,MARANTACEAE,Ischnosiphon,Marantaceae,Ischnosiphon,Körn.,flowering plants,Accepted,Marantaceae,Körn.,-20.088056,-40.476389,2007-07-18,SpeciesLink,MBML,MBML,MBML,MBML-Herbario,125,1
Tabernaemontana macrocalyx,Apocynaceae,Tabernaemontana macrocalyx Müll. Arg.,Apocynaceae,Tabernaemontana macrocalyx,Müll. Arg.,flowering plants,Accepted,Apocynaceae,Müll. Arg.,-7.583,-57.517,1974-02-07,NY,NY,NY,NY,Herbarium,104,1
Adiantum pentadactylon,Pteridaceae,Adiantum pentadactylon Langsd. & Fisch.,Pteridaceae,Adiantum pentadactylon,Langsd. & Fisch.,ferns and allies,Accepted,Pteridaceae,Langsd. & Fisch.,-28.168333,-48.958333,2010-04-10,GBIF,"Universidade Regional de Blumenau, FURB","Universidade Regional de Blumenau, FURB","Universidade Regional de Blumenau, FURB",FURB,1646,1
Psychotria deflexa,Rubiaceae,Psychotria deflexa DC.,Rubiaceae,Psychotria deflexa,DC.,flowering plants,Accepted,Rubiaceae,DC.,,,1983-09-19,GBIF,JBRJ,JBRJ,JBRJ,RB,1928,1
,Arecaceae,Geonoma,Arecaceae,Geonoma,Willd.,flowering plants,Accepted,Arecaceae,Willd.,-11,-58.43,1997-07-12,SpeciesLink,ESALQ,ESALQ,ESALQ,ESA,479,1
Gouania trichodonta,Rhamnaceae,Gouania trichodonta Reissek,Rhamnaceae,Gouania trichodonta,Reissek,flowering plants,Accepted,Rhamnaceae,Reissek,-9.451667,-55.901111,2008-08-26,GBIF,UNEMAT,UNEMAT,UNEMAT,HERBAM,1849,1
,Velloziaceae,Vellozia Vand.,Velloziaceae,Vellozia,Vand.,flowering plants,Accepted,Velloziaceae,Vand.,-13.333333,-41.85,1993-12-21,GBIF,UEFS,UEFS,UEFS,HUEFS,2756,1
,Rubiaceae,Psychotria L.,Rubiaceae,Psychotria,L.,flowering plants,Accepted,Rubiaceae,L.,,,2000-11-30,GBIF,MBML,MBML,MBML,MBML-HERBARIO,3510,1
Heterocoma ekmaniana,Asteraceae,"Heterocoma ekmaniana (Philipson) Loeuille, J.N.Nakaj. & Semir",Asteraceae,Heterocoma ekmaniana,"(Philipson) B. Loeuille, J.N. Nakaj. & Semir",flowering plants,Accepted,Asteraceae,"(Philipson) B. Loeuille, J.N. Nakaj. & Semir",-13.943889,-47.696111,2009-04-15,GBIF,UFU,UFU,UFU,HUFU,2245,1
Carpotroche crispidentata,Achariaceae,Carpotroche crispidentata Ducke,Achariaceae,Carpotroche crispidentata,Ducke,flowering plants,Accepted,Achariaceae,Ducke,-2.883333,-59.97,1976-08-10,GBIF,Instituto Nacional de Pesquisas da Amazônia (INPA),Instituto Nacional de Pesquisas da Amazônia (INPA),Instituto Nacional de Pesquisas da Amazônia (INPA),"Coleção Botânica, Instituto Nacional de Pesquisas da Amazônia (INPA)",2095,1
Faramea latifolia,Rubiaceae,Faramea latifolia DC.,Rubiaceae,Faramea latifolia,(Cham. & Schltdl.) DC.,flowering plants,Accepted,Rubiaceae,(Cham. & Schltdl.) DC.,-9.965833,-50.119167,1999-03-27,GBIF,JBRJ,JBRJ,JBRJ,RB,1928,1
Myrcia guianensis,Myrtaceae,Myrcia decrescens (O.Berg) Mattos,Myrtaceae,Myrcia decrescens,(O.Berg) Mattos,flowering plants,Accepted,Myrtaceae,(Aubl.) DC.,-15.926389,-47.905556,2006-09-15,GBIF,UnB,UnB,UnB,UB,3120,1
Eugenia protenta,Myrtaceae,Eugenia protenta McVaugh,Myrtaceae,Eugenia protenta,McVaugh,flowering plants,Accepted,Myrtaceae,McVaugh,,,1995-10-13,GBIF,US,US,US,Botany,3271,1
Sacoglottis guianensis,Humiriaceae,Humiriaceae Sacoglottis guianensis,Humiriaceae,Sacoglottis guianensis,Benth.,flowering plants,Accepted,Humiriaceae,Benth.,-1.72963,-51.48499,2005-10-23,TEAM,Caxiuanã,Fernanda Santos,,,36,1
,Orchidaceae,Habenaria Willd.,Orchidaceae,Habenaria,Willd.,flowering plants,Accepted,Orchidaceae,Willd.,,,1999-02-26,GBIF,IAC,IAC,IAC,IAC,3493,1
,Polygonaceae,Polygonaceae Coccoloba M1,Polygonaceae,Coccoloba,P. Browne,flowering plants,Accepted,Polygonaceae,P. Browne,-5.778,-51.003,,SALVIAS,Gentry Transect Dataset,James S. MIller,,,14,1
Crotalaria unifoliolata,Fabaceae,Crotalaria unifoliolata Benth.,Fabaceae,Crotalaria unifoliolata,Benth.,flowering plants,Accepted,Fabaceae,Benth.,-15.77972,-47.92944,1966-01-09,NY,NY,NY,NY,Herbarium,104,1
Irlbachia poeppigii,Gentianaceae,Irlbachia poeppigii (Griseb.) L.Cobb & Maas,Gentianaceae,Irlbachia poeppigii,(Griseb.) L. Cobb & Maas,flowering plants,Accepted,Gentianaceae,(Griseb.) L. Cobb & Maas,-10.8339,-52.8731,,GBIF,F,F,F,Botany,3567,1
,Cannabaceae,Celtis L.,Cannabaceae,Celtis,L.,flowering plants,Accepted,Cannabaceae,L.,-9.979444,-66.801389,2003-10-04,GBIF,JBRJ,JBRJ,JBRJ,RB,1928,1
Passiflora alata,Passifloraceae,Passiflora alata Curtis,Passifloraceae,Passiflora alata,Curtis,flowering plants,Accepted,Passifloraceae,Curtis,-16.85,-39.15,1998-09-12,MO,,,,,280,1
,Malvaceae,Malvaceae,Malvaceae,Malvaceae,Juss.,flowering plants,Accepted,Malvaceae,Juss.,-11.373611,-40.587222,2006-12-23,SpeciesLink,UFBA,UFBA,UFBA,ALCB,1028,1
Hebanthe pulverulenta,Amaranthaceae,Hebanthe pulverulenta Mart.,Amaranthaceae,Hebanthe pulverulenta,Mart.,flowering plants,Accepted,Amaranthaceae,Mart.,-19.891389,-40.818889,1998-09-10,GBIF,MBML,MBML,MBML,MBML-HERBARIO,3510,1
Capsicum flexuosum,Solanaceae,Capsicum flexuosum Sendtn.,Solanaceae,Capsicum flexuosum,Sendtn.,flowering plants,Accepted,Solanaceae,Sendtn.,-28.195555,-50.753611,,GBIF,Cenargen,Cenargen,Cenargen,CEN,3199,1
,Convolvulaceae,Merremia Dennst. ex Endl.,Convolvulaceae,Merremia,Dennst. ex Endl.,flowering plants,Accepted,Convolvulaceae,Dennst. ex Endl.,-13.2724,-41.3005,2001-07-16,GBIF,"Escola Superior de Agricultura Luiz de Queiroz, ESALQ","Escola Superior de Agricultura Luiz de Queiroz, ESALQ","Escola Superior de Agricultura Luiz de Queiroz, ESALQ",ESA,2472,1
Inga stenoptera,Fabaceae,Inga stenoptera Benth.,Fabaceae,Inga stenoptera,Benth.,flowering plants,Accepted,Fabaceae,Benth.,-1.9,-52.233333,2008-12-16,GBIF,JBRJ,JBRJ,JBRJ,RB,1928,1
,Fabaceae,Inga Mill.,Fabaceae,Inga,Mill.,flowering plants,Accepted,Fabaceae,Mill.,-18.978472,-40.747028,2007-11-22,GBIF,MBML,MBML,MBML,MBML-HERBARIO,3510,1
Echinopepon racemosus,CUCURBITACEAE,Echinopepon racemosus (Steud.) C.Jeffrey,Cucurbitaceae,Echinopepon racemosus,(Steud.) C. Jeffrey,flowering plants,Accepted,Cucurbitaceae,(Steud.) C. Jeffrey,-21.7166667,-43.8833333,2005-03-16,SpeciesLink,JBRJ,JBRJ,JBRJ,JBRJ_RB,249,1
Steinchisma laxum,Poaceae,Steinchisma laxum (Sw.) Zuloaga,Poaceae,Steinchisma laxum,(Sw.) Zuloaga,flowering plants,Accepted,Poaceae,(Sw.) Zuloaga,-22.678611,-53.223889,2011-08-25,GBIF,UEM,UEM,UEM,HUEM,2180,1
Unonopsis guatterioides,Annonaceae,Unonopsis guatterioides A.DC. ex R.E.Fr.,Annonaceae,Unonopsis guatterioides,(A. DC.) R.E. Fr.,flowering plants,Accepted,Annonaceae,(A. DC.) R.E. Fr.,-13.783333,-48.366666,,GBIF,Cenargen,Cenargen,Cenargen,CEN,3199,1
Ficus obtusiuscula,Moraceae,Ficus obtusiuscula Miq.,Moraceae,Ficus obtusiuscula,(Miq.) Miq.,flowering plants,Accepted,Moraceae,(Miq.) Miq.,-22.789133,-53.317272,1992-04-11,GBIF,UEM,UEM,UEM,HUEM,2180,1
,GRAMINEAE,Chusquea,Poaceae,Chusquea,Kunth,flowering plants,Accepted,Poaceae,Kunth,-20.5275,-41.101944,2008-07-18,SpeciesLink,MBML,MBML,MBML,MBML-Herbario,125,1
Lundia densiflora,Bignoniaceae,Lundia densiflora DC.,Bignoniaceae,Lundia densiflora,DC.,flowering plants,Accepted,Bignoniaceae,DC.,-8.93361,-72.56166,2001-04-30,MO,"MO, NY","MO, NY","MO, NY",,280,1
,Meliaceae,Meliaceae,Meliaceae,Meliaceae,Juss.,flowering plants,Accepted,Meliaceae,Juss.,-20.848889,-41.1125,2008-04-22,GBIF,MBML,MBML,MBML,MBML-HERBARIO,3510,1
,Solanaceae,Solanum caelicola Giacomin & Stehmann,Solanaceae,Solanum,L.,flowering plants,Accepted,Solanaceae,L.,-19.341111,-40.554722,2008-04-18,GBIF,MBML,MBML,MBML,MBML-HERBARIO,3510,1
Dioclea malacocarpa,Fabaceae,Dioclea malacocarpa Ducke,Fabaceae,Dioclea malacocarpa,Ducke,flowering plants,Accepted,Fabaceae,Ducke,-4.05,-49.9,1981-11-12,NY,NY,NY,NY,Herbarium,104,1
Melochia villosa,Malvaceae,Melochia villosa (Mill.) Fawc. & Rendle,Malvaceae,Melochia villosa,(Mill.) Fawc. & Rendle,flowering plants,Accepted,Malvaceae,(Mill.) Fawc. & Rendle,-21.892278,-45.1755,2017-02-07,GBIF,UFSJ,UFSJ,UFSJ,HUFSJ,3170,1
Hirtella paniculata,Chrysobalanaceae,Hirtella paniculata,Chrysobalanaceae,Hirtella paniculata,Sw.,flowering plants,Accepted,Chrysobalanaceae,Sw.,1.25,-60.45,1987-01-01,SpeciesLink,INPA,INPA,INPA,INPA-Herbario,619,1
Ternstroemia alnifolia,Pentaphylacaceae,Ternstroemia alnifolia Wawra,Pentaphylacaceae,Ternstroemia alnifolia,Wawra,flowering plants,Accepted,Pentaphylacaceae,Wawra,-11,-40,1986-11-18,GBIF,UEFS,UEFS,UEFS,HUEFS,2756,1
Acanthospermum australe,Asteraceae,Acanthospermum australe (Loefl.) Kuntze,Asteraceae,Acanthospermum australe,(Loefl.) Kuntze,flowering plants,Accepted,Asteraceae,(Loefl.) Kuntze,-28.713889,-49.300278,1997-01-20,GBIF,UNESC,UNESC,UNESC,CRI,2747,1
Alansmia reclinata,Polypodiaceae,Alansmia reclinata (Brack.) Moguel & M.Kessler,Grammitidaceae,Alansmia reclinata,(Brack.) Moguel & M. Kessler,ferns and allies,Accepted,Grammitidaceae,(Brack.) Moguel & M. Kessler,-25.455833,-48.929722,2006-12-15,GBIF,UFPR,UFPR,UFPR,UPCB,2201,1
Anthodiscus amazonicus,Caryocaraceae,Anthodiscus amazonicus Gleason & A. C. Sm.,Caryocaraceae,Anthodiscus amazonicus,Gleason & A.C. Sm.,flowering plants,Accepted,Caryocaraceae,Gleason & A.C. Sm.,-15.86,-38.88,1985-01-12,NY,NY,NY,NY,Herbarium,104,1
Habranthus irwinianus,Amaryllidaceae,Habranthus irwinianus Ravenna,Amaryllidaceae,Habranthus irwinianus,Ravenna,flowering plants,Accepted,Amaryllidaceae,Ravenna,-6.707222,-47.583888,,GBIF,Cenargen,Cenargen,Cenargen,CEN,3199,1
,Fabaceae,Machaerium Pers.,Fabaceae,Machaerium,Pers.,flowering plants,Accepted,Fabaceae,Pers.,-12.666667,-41.816667,1992-09-14,GBIF,UFPI,UFPI,UFPI,TEPB,2593,1
Swartzia apetala,Fabaceae,Swartzia apetala Raddi,Fabaceae,Swartzia apetala,Raddi,flowering plants,Accepted,Fabaceae,Raddi,-12.716667,-39.7,1996-09-28,GBIF,USP,USP,USP,SPF,3527,1
Cyclodium meniscioides,Dryopteridaceae,Cyclodium meniscioides,Dryopteridaceae,Cyclodium meniscioides,(Willd.) C. Presl,ferns and allies,Accepted,Dryopteridaceae,(Willd.) C. Presl,-12.816667,-51.766667,1968-08-05,SpeciesLink,UnB,UnB,UnB,UB,1227,1
Tabernaemontana salzmannii,Apocynaceae,Tabernaemontana salzmannii A.DC.,Apocynaceae,Tabernaemontana salzmannii,A. DC.,flowering plants,Accepted,Apocynaceae,A. DC.,-12.038333,-38.090556,2008-10-01,GBIF,Empresa Brasileira de Pesquisa Agropecuária (EMBRAPA),Empresa Brasileira de Pesquisa Agropecuária (EMBRAPA),Empresa Brasileira de Pesquisa Agropecuária (EMBRAPA),HTSA,2018,1
,Euphorbiaceae,Microstachys A.Juss.,Euphorbiaceae,Microstachys,A. Juss.,flowering plants,Accepted,Euphorbiaceae,A. Juss.,-20.195278,-41.005,2008-07-10,GBIF,UEFS,UEFS,UEFS,HUEFS,2756,1
Allophylus excelsus,Sapindaceae,Allophylus excelsus (Triana & Planch.) Radlk.,Sapindaceae,Allophylus excelsus,(Triana & Planch.) Radlk.,flowering plants,Accepted,Sapindaceae,(Triana & Planch.) Radlk.,-9.18333,-72.68333,1993-04-04,MO,MO,MO,MO,,280,1
,Clusiaceae,Clusia,Clusiaceae,Clusia,L.,flowering plants,Accepted,Clusiaceae,L.,-2.4,-59.716667,1990-01-01,SpeciesLink,INPA,INPA,INPA,INPA-Herbario,619,1
Helicteres krapovickasii,Malvaceae,Helicteres krapovickasii Cristóbal,Malvaceae,Helicteres krapovickasii,Cristóbal,flowering plants,Accepted,Malvaceae,Cristóbal,-10.55,-46.133333,2001-05-07,GBIF,UnB,UnB,UnB,UB,3120,1
Couratari macrosperma,Lecythidaceae,Couratari macrosperma A.C.Sm.,Lecythidaceae,Couratari macrosperma,A.C. Sm.,flowering plants,Accepted,Lecythidaceae,A.C. Sm.,-19.014861,-40.546,2008-05-03,GBIF,MBML,MBML,MBML,MBML-HERBARIO,3510,1
Clitoria fairchildiana,Fabaceae,Clitoria fairchildiana R.A.Howard,Fabaceae,Clitoria fairchildiana,R.A. Howard,flowering plants,Accepted,Fabaceae,R.A. Howard,-9.436111,-40.735833,2012-12-12,GBIF,UFPE,UFPE,UFPE,UFP,2854,1
,Sapindaceae,Paullinia L.,Sapindaceae,Paullinia,L.,flowering plants,Accepted,Sapindaceae,L.,-26.819722,-52.470278,2015-09-24,GBIF,"Universidade Regional de Blumenau, FURB","Universidade Regional de Blumenau, FURB","Universidade Regional de Blumenau, FURB",FURB,1646,1
Guatteria sellowiana,Annonaceae,Guatteria sellowiana Schltdl.,Annonaceae,Guatteria sellowiana,Schltdl.,flowering plants,Accepted,Annonaceae,Schltdl.,-15.916666,-48.016666,,GBIF,Cenargen,Cenargen,Cenargen,CEN,3199,1
,Vitaceae,Cissus L.,Vitaceae,Cissus,L.,flowering plants,Accepted,Vitaceae,L.,-2.843889,-54.924167,2015-05-16,GBIF,JBRJ,JBRJ,JBRJ,RB,1928,1
,Cyperaceae,Cyperus,Cyperaceae,Cyperus,L.,flowering plants,Accepted,Cyperaceae,L.,,,1964-08-23,SpeciesLink,UnB,UnB,UnB,UB,1227,1
Tachigali subvelutina,Fabaceae,Tachigali subvelutina (Benth.) Oliveira-Filho,Fabaceae,Tachigali subvelutina,(Benth.) Oliveira-Filho,flowering plants,Accepted,Fabaceae,(Benth.) Oliveira-Filho,-13.606944,-41.766111,2004-11-01,GBIF,UEFS,UEFS,UEFS,HUEFS,2756,1
Sida rhombifolia,Malvaceae,Sida rhombifolia L.,Malvaceae,Sida rhombifolia,L.,flowering plants,Accepted,Malvaceae,L.,-5.61666,-45.91666,1970-01-16,MO,MO,MO,MO,,280,1
Solanum palinacanthum,Solanaceae,Solanum palinacanthum Dunal,Solanaceae,Solanum palinacanthum,Dunal,flowering plants,Accepted,Solanaceae,Dunal,-16.131472,-57.978083,2010-05-07,GBIF,Universidade do Estado de Mato Grosso (UNEMAT),Universidade do Estado de Mato Grosso (UNEMAT),Universidade do Estado de Mato Grosso (UNEMAT),HPAN,1711,1
Serpocaulon meniscifolium,Polypodiaceae,Serpocaulon meniscifolium (Langsd. & Fisch.) A.R.Sm.,Polypodiaceae,Serpocaulon meniscifolium,(Langsd. & Fisch.) A.R. Sm.,ferns and allies,Accepted,Polypodiaceae,(Langsd. & Fisch.) A.R. Sm.,-27.724167,-48.535,2010-03-10,GBIF,"Universidade Regional de Blumenau, FURB","Universidade Regional de Blumenau, FURB","Universidade Regional de Blumenau, FURB",FURB,1646,1
Rhynchospora albiceps,Cyperaceae,Rhynchospora albiceps Kunth,Cyperaceae,Rhynchospora albiceps,Kunth,flowering plants,Accepted,Cyperaceae,Kunth,-16.55,-42.9,1987-11-03,GBIF,UFRGS,UFRGS,UFRGS,ICN,2637,1
Dichorisandra thyrsiflora,COMMELINACEAE,Dichorisandra thyrsiflora,Commelinaceae,Dichorisandra thyrsiflora,J.C. Mikan,flowering plants,Accepted,Commelinaceae,J.C. Mikan,-19.925556,-40.635556,1998-12-15,SpeciesLink,MBML,MBML,MBML,MBML-Herbario,125,1
Axonopus capillaris,Poaceae,Axonopus capillaris (Lam.) Chase,Poaceae,Axonopus capillaris,(Lam.) Chase,flowering plants,Accepted,Poaceae,(Lam.) Chase,-12.6,-38.9,1924-12-29,NY,NY,NY,NY,Herbarium,104,1
Aechmea araneosa,BROMELIACEAE,Aechmea araneosa L.B. Smith,Bromeliaceae,Aechmea araneosa,L.B. Sm.,flowering plants,Accepted,Bromeliaceae,L.B. Sm.,-19.835,-40.5705556,1999-08-10,SpeciesLink,JBRJ,JBRJ,JBRJ,JBRJ_RB,249,1
Adiantum terminatum,Pteridaceae,Adiantum terminatum,Pteridaceae,Adiantum terminatum,Kunze ex Miq.,ferns and allies,Accepted,Pteridaceae,Kunze ex Miq.,-7.5833333333,-35.5,1998-10-30,SpeciesLink,UFPE,UFPE,UFPE,UFP,1010,1
Carica quercifolia,Caricaceae,Carica quercifolia,Caricaceae,Carica quercifolia,(A.St.Hil.) Hieron.,flowering plants,Accepted,Caricaceae,(A.St.Hil.) Hieron.,-23.420833,-48.492694,2005-05-05,SpeciesLink,IAC,IAC,IAC,IAC,1365,1
Psidium guineense,Myrtaceae,Psidium guineense Sw.,Myrtaceae,Psidium guineense,Sw.,flowering plants,Accepted,Myrtaceae,Sw.,-22.222778,-44.729167,2008-05-16,GBIF,Universidade Federal de Minas Gerais (UFMG),Universidade Federal de Minas Gerais (UFMG),Universidade Federal de Minas Gerais (UFMG),BHCB,2515,1
,Boraginaceae,Boraginaceae,Boraginaceae,Boraginaceae,Juss.,flowering plants,Accepted,Boraginaceae,Juss.,-20.319722,-40.3375,1992-01-20,SpeciesLink,UFES,UFES,UFES,VIES,1307,1
,Rubiaceae,Rubiaceae,Rubiaceae,Rubiaceae,Juss.,flowering plants,Accepted,Rubiaceae,Juss.,-15.391667,-39.565278,2006-04-09,GBIF,UFPB,UFPB,UFPB,JPB,3165,1
Pitcairnia flammea,Bromeliaceae,Pitcairnia flammea Lindl.,Bromeliaceae,Pitcairnia flammea,Lindl.,flowering plants,Accepted,Bromeliaceae,Lindl.,-25.514444,-49.007222,2012-10-04,GBIF,JBRJ,JBRJ,JBRJ,RB,1928,1
Siparuna brasiliensis,Siparunaceae,Siparuna brasiliensis A.DC.,Siparunaceae,Siparuna brasiliensis,(Spreng.) A. DC.,flowering plants,Accepted,Siparunaceae,(Spreng.) A. DC.,-23.75,-46.25,1985-04-22,GBIF,"Universidade Estadual Paulista, UNESP","Universidade Estadual Paulista, UNESP","Universidade Estadual Paulista, UNESP",BOTU,2238,1
Campomanesia phaea,Myrtaceae,Campomanesia phaea (O.Berg) Mattos,Myrtaceae,Campomanesia phaea,(O. Berg) Mattos,flowering plants,No opinion,Myrtaceae,(O. Berg) Mattos,-23.654722,-45.959444,2000-04-24,GBIF,Universidade Federal de Goiás (UFG),Universidade Federal de Goiás (UFG),Universidade Federal de Goiás (UFG),HJ,1627,1
,Orchidaceae,Trichocentrum cepula (Hoffmanns.) J.M.H.Shaw,Orchidaceae,Trichocentrum,Poepp. & Endl.,flowering plants,Accepted,Orchidaceae,Poepp. & Endl.,,,1963-09-01,GBIF,"Instituto de Botânica, IBT","Instituto de Botânica, IBT","Instituto de Botânica, IBT",SP,3012,1
Siparuna guianensis,Siparunaceae,Siparuna guianensis Aubl.,Siparunaceae,Siparuna guianensis,Aubl.,flowering plants,Accepted,Siparunaceae,Aubl.,-19.5,-42.633333,2006-03-26,GBIF,FZB-BH,FZB-BH,FZB-BH,BHZB,3177,1
Periandra gracilis,Fabaceae,Periandra gracilis H.S.Irwin & Arroyo,Fabaceae,Periandra gracilis,H.S. Irwin & Arroyo,flowering plants,Accepted,Fabaceae,H.S. Irwin & Arroyo,-15.676111,-47.881111,2011-10-21,GBIF,UEFS,UEFS,UEFS,HUEFS,2756,1
Solanum caavurana,Solanaceae,Solanum caavurana,Solanaceae,Solanum caavurana,Vell.,flowering plants,Accepted,Solanaceae,Vell.,-20.658056,-40.510833,1989-03-03,SpeciesLink,UFES,UFES,UFES,VIES,1307,1
Mandevilla sancta,Apocynaceae,Mandevilla sancta (Stadelm.) Woodson,Apocynaceae,Mandevilla sancta,(Stadelm.) Woodson,flowering plants,Accepted,Apocynaceae,(Stadelm.) Woodson,-11.33,-41.9,1986-05-16,GBIF,UNICAMP,UNICAMP,UNICAMP,UEC,2136,1
Guatteria pogonopus,ANNONACEAE,Guatteria pogonopus,Annonaceae,Guatteria pogonopus,Mart.,flowering plants,Accepted,Annonaceae,Mart.,-19.9075,-40.553056,2001-09-18,SpeciesLink,MBML,MBML,MBML,MBML-Herbario,125,1
Weissia controversa,Pottiaceae,Weissia controversa Hedw.,Pottiaceae,Weissia controversa,Hedw.,bryophytes,Accepted,Pottiaceae,Hedw.,-29.1666667,-51.1666667,2004-07-07,MO,MO,MO,MO,,280,1
,Begoniaceae,Begonia L.,Begoniaceae,Begonia,L.,flowering plants,Accepted,Begoniaceae,L.,-26.784167,-49.411389,2012-02-15,GBIF,"Universidade Regional de Blumenau, FURB","Universidade Regional de Blumenau, FURB","Universidade Regional de Blumenau, FURB",FURB,1646,1
Cuphea ericoides,Lythraceae,Cuphea ericoides Cham. & Schltdl.,Lythraceae,Cuphea ericoides,Cham. & Schltdl.,flowering plants,Accepted,Lythraceae,Cham. & Schltdl.,-13.57889,-41.84111,,GBIF,Cenargen,Cenargen,Cenargen,CEN,3199,1
Hyptis proteoides,Lamiaceae,Hyptis proteoides A.St.-Hil. ex Benth.,Lamiaceae,Hyptis proteoides,A. St.-Hil. ex Benth.,flowering plants,Accepted,Lamiaceae,A. St.-Hil. ex Benth.,-19.348889,-43.577222,2013-10-16,GBIF,JBRJ,JBRJ,JBRJ,RB,1928,1
Hyperbaena domingensis,Menispermaceae,Hyperbaena domingensis Benth.,Menispermaceae,Hyperbaena domingensis,(DC.) Benth.,flowering plants,Accepted,Menispermaceae,(DC.) Benth.,-11.406667,-37.440556,2012-04-16,GBIF,UNITINS,UNITINS,UNITINS,HUTO,2430,1
Cratylia argentea,Fabaceae,Cratylia argentea Kuntze,Fabaceae,Cratylia argentea,(Desv.) Kuntze,flowering plants,Accepted,Fabaceae,(Desv.) Kuntze,-19.006111,-54.518611,2002-09-16,GBIF,Empresa Brasileira de Pesquisa Agropecuária (EMBRAPA),Empresa Brasileira de Pesquisa Agropecuária (EMBRAPA),Empresa Brasileira de Pesquisa Agropecuária (EMBRAPA),CPAP,2018,1
Zanthoxylum hamadryadicum,RUTACEAE,Zanthoxylum hamadryadicum J.R.Pirani,Rutaceae,Zanthoxylum hamadryadicum,Pirani,flowering plants,Accepted,Rutaceae,Pirani,-3.8,-41.0666667,1978-03-15,SpeciesLink,JBRJ,JBRJ,JBRJ,JBRJ_RB,249,1
Rhipsalis russellii,Cactaceae,Rhipsalis russellii Britton & Rose,Cactaceae,Rhipsalis russellii,Britton & Rose,flowering plants,Accepted,Cactaceae,Britton & Rose,,,,GBIF,Comissão Executiva do Plano da Lavoura Cacaueira (CEPLAC),Comissão Executiva do Plano da Lavoura Cacaueira (CEPLAC),Comissão Executiva do Plano da Lavoura Cacaueira (CEPLAC),CEPEC,2724,1
Crotalaria flavicoma,Fabaceae,Crotalaria flavicoma Benth.,Fabaceae,Crotalaria flavicoma,Benth.,flowering plants,Accepted,Fabaceae,Benth.,-15.690277,-47.900277,,GBIF,Cenargen,Cenargen,Cenargen,CEN,3199,1
Angelonia salicariifolia,SCROPHULARIACEAE,Angelonia salicariifolia Humb. & Bonpl.,Plantaginaceae,Angelonia salicariifolia,Humb. & Bonpl.,flowering plants,Accepted,Plantaginaceae,Humb. & Bonpl.,-10.6666667,-39.7166667,1974-02-21,SpeciesLink,JBRJ,JBRJ,JBRJ,JBRJ_RB,249,1
Pteridium arachnoideum,Dennstaedtiaceae,Pteridium arachnoideum,Dennstaedtiaceae,Pteridium arachnoideum,(Kaulf.) Maxon,ferns and allies,Accepted,Dennstaedtiaceae,(Kaulf.) Maxon,-20.658056,-40.510833,1989-06-11,SpeciesLink,UFES,UFES,UFES,VIES,1307,1
Desmodium barbatum,Fabaceae,Desmodium barbatum Benth. & Oerst.,Fabaceae,Desmodium barbatum,,flowering plants,Accepted,Fabaceae,,-17.009722,-46.009444,,GBIF,FUNED,FUNED,FUNED,FUNED-POL,2434,1
Hymenaea courbaril,Fabaceae,Hymenaea courbaril L.,Fabaceae,Hymenaea courbaril,L.,flowering plants,Accepted,Fabaceae,L.,-2.914111,-59.983667,2016-11-01,GBIF,"Universidade Estadual de Londrina, UEL","Universidade Estadual de Londrina, UEL","Universidade Estadual de Londrina, UEL",FUEL,1667,1
Stromanthe thalia,MARANTACEAE,Stromanthe thalia (Vell.) J.M.A.Braga,Marantaceae,Stromanthe thalia,(Vell.) J.M.A. Braga,flowering plants,Accepted,Marantaceae,(Vell.) J.M.A. Braga,-22.3552778,-42.4063889,2001-01-21,SpeciesLink,JBRJ,JBRJ,JBRJ,JBRJ_RB,249,1
Schoepfia brasiliensis,Schoepfiaceae,Schoepfia brasiliensis A.DC.,Schoepfiaceae,Schoepfia brasiliensis,A. DC.,flowering plants,Accepted,Schoepfiaceae,A. DC.,-10.0053,-37.1223,1997-08-15,GBIF,"Universidade Federal de Sergipe, UFS","Universidade Federal de Sergipe, UFS","Universidade Federal de Sergipe, UFS",ASE,3114,1
Anthurium affine,Araceae,Anthurium affine Schott,Araceae,Anthurium affine,Schott,flowering plants,Accepted,Araceae,Schott,-11.55,-41.15,2006-12-09,GBIF,Universidade Federal da Bahia (UFBA),Universidade Federal da Bahia (UFBA),Universidade Federal da Bahia (UFBA),ALCB,2879,1
Bauhinia cheilantha,Fabaceae,Bauhinia cheilantha (Bong.) Steud.,Fabaceae,Bauhinia cheilantha,(Bong.) Steud.,flowering plants,Accepted,Fabaceae,(Bong.) Steud.,-16.753611,-57.094444,2001-09-15,GBIF,Fundação Universidade Federal de Mato Grosso do Sul (UFMS),Fundação Universidade Federal de Mato Grosso do Sul (UFMS),Fundação Universidade Federal de Mato Grosso do Sul (UFMS),CGMS,2258,1
,Phyllanthaceae,Phyllanthaceae,Phyllanthaceae,Phyllanthaceae,Martinov,flowering plants,Accepted,Phyllanthaceae,Martinov,-12.664722,-39.598333,2016-10-11,GBIF,UFRB,UFRB,UFRB,HURB,3083,1
,Pteridaceae,Adiantum,Pteridaceae,Adiantum,L.,ferns and allies,Accepted,Pteridaceae,L.,-6.1875,-36.2419444444,2010-05-27,SpeciesLink,UFRN,UFRN,UFRN,UFRN,610,1
Ilex microdonta,Aquifoliaceae,Ilex microdonta,Aquifoliaceae,Ilex microdonta,Reissek,flowering plants,Accepted,Aquifoliaceae,Reissek,-27.9,-49.86,2009-05-07,SpeciesLink,FURB,FURB,FURB,FURB,1278,1
,DRYOPTERIDACEAE,Megalastrum,Dryopteridaceae,Megalastrum,Holttum,ferns and allies,Accepted,Dryopteridaceae,Holttum,-20.5161111,-41.0836111,2008-02-12,SpeciesLink,JBRJ,JBRJ,JBRJ,JBRJ_RB,249,1
Sida glomerata,MALVACEAE,Sida glomerata f. tomentosa monteiro in monteiro,Malvaceae,Sida glomerata,Cav.,flowering plants,Accepted,Malvaceae,Cav.,-3.6666667,-57.5833333,1983-07-18,SpeciesLink,JBRJ,JBRJ,JBRJ,JBRJ_RB,249,1
Vernonia decumbens,Asteraceae,Vernonia decumbens Gardn.,Asteraceae,Vernonia decumbens,Gardner,flowering plants,Accepted,Asteraceae,Gardner,-20.733333,-42.466667,1991-04-24,GBIF,JBRJ,JBRJ,JBRJ,RB,1928,1
Emmotum nitens,Icacinaceae,Emmotum nitens (Benth.) Miers,Icacinaceae,Emmotum nitens,(Benth.) Miers,flowering plants,Accepted,Icacinaceae,(Benth.) Miers,-15.77972,-47.92944,1979-12-04,NY,NY,NY,NY,Herbarium,104,1
Solanum sooretamum,SOLANACEAE,Solanum sooretamum,Solanaceae,Solanum sooretamum,Carvalho,flowering plants,Accepted,Solanaceae,Carvalho,-19.931111,-40.620556,1998-08-05,SpeciesLink,MBML,MBML,MBML,MBML-Herbario,125,1
Protium hebetatum,Burseraceae,Protium hebetatum,Burseraceae,Protium hebetatum,Daly,flowering plants,Accepted,Burseraceae,Daly,-2.916667,-59.983333,2003-01-01,SpeciesLink,INPA,INPA,INPA,INPA-Herbario,619,1
Seguieria aculeata,Phytolaccaceae,Seguieria aculeata Jacq.,Phytolaccaceae,Seguieria aculeata,Jacq.,flowering plants,Accepted,Phytolaccaceae,Jacq.,-10.88333,-65.13333,1987-04-11,MO,MO,MO,MO,,280,1
Cedrela fissilis,Meliaceae,Cedrela fissilis Vell.,Meliaceae,Cedrela fissilis,Vell.,flowering plants,Accepted,Meliaceae,Vell.,,,2009-12-10,GBIF,UEFS,UEFS,UEFS,HUEFS,2756,1
,Nyctaginaceae,Nyctaginaceae,Nyctaginaceae,Nyctaginaceae,Juss.,flowering plants,Accepted,Nyctaginaceae,Juss.,-12.256111,-39.082778,2008-03-20,GBIF,UEFS,UEFS,UEFS,HUEFS,2756,1
Cyrtocymura scorpioides,Asteraceae,Cyrtocymura scorpioides (Lamarck) H.Rob.,Asteraceae,Cyrtocymura scorpioides,(Lam.) H. Rob.,flowering plants,Accepted,Asteraceae,(Lam.) H. Rob.,-20.3,-41.133333,,GBIF,Comissão Executiva do Plano da Lavoura Cacaueira (CEPLAC),Comissão Executiva do Plano da Lavoura Cacaueira (CEPLAC),Comissão Executiva do Plano da Lavoura Cacaueira (CEPLAC),CEPEC,2724,1
Diplusodon oblongus,Lythraceae,Diplusodon oblongus Pohl,Lythraceae,Diplusodon oblongus,Pohl,flowering plants,Accepted,Lythraceae,Pohl,-14.15389,-47.53361,,GBIF,Cenargen,Cenargen,Cenargen,CEN,3199,1
Croton urucurana,Euphorbiaceae,Croton urucurana Baill.,Euphorbiaceae,Croton urucurana,Baill.,flowering plants,Accepted,Euphorbiaceae,Baill.,-9.573611,-64.89,2011-05-26,GBIF,Instituto Nacional de Pesquisas da Amazônia (INPA),Instituto Nacional de Pesquisas da Amazônia (INPA),Instituto Nacional de Pesquisas da Amazônia (INPA),"Coleção Botânica, Instituto Nacional de Pesquisas da Amazônia (INPA)",2095,1
Hymenophyllum polyanthos,Hymenophyllaceae,Hymenophyllum polyanthos Sw.,Hymenophyllaceae,Hymenophyllum polyanthos,Sw.,ferns and allies,Accepted,Hymenophyllaceae,Sw.,-10.8339,-52.8731,1962-04-30,GBIF,F,F,F,Botany,3567,1
Syngonanthus gracilis,Eriocaulaceae,Syngonanthus gracilis Ruhland,Eriocaulaceae,Syngonanthus gracilis,(Bong.) Ruhland,flowering plants,Accepted,Eriocaulaceae,(Bong.) Ruhland,-17,-56.3,1992-07-15,GBIF,UFMT,UFMT,UFMT,UFMT,3531,1
Cordiera concolor,Rubiaceae,Cordiera concolor (Cham.) Kuntze var. concolor,Rubiaceae,Cordiera concolor var. concolor,,flowering plants,No opinion,Rubiaceae,,-27.67278,-49.02167,1953-02-02,NY,NY,NY,NY,Herbarium,104,1
,Euphorbiaceae,Chamaesyce,Euphorbiaceae,Chamaesyce,,flowering plants,Accepted,Euphorbiaceae,,-11.333333,-40.516667,2006-08-03,SpeciesLink,UFBA,UFBA,UFBA,ALCB,1028,1
,Fabaceae,Ormosia Jacks.,Fabaceae,Ormosia,Jacks.,flowering plants,Accepted,Fabaceae,Jacks.,-4.033333,-59.066667,1983-06-29,GBIF,JBRJ,JBRJ,JBRJ,RB,1928,1
Sida planicaulis,Malvaceae,Sida planicaulis Cav.,Malvaceae,Sida planicaulis,Cav.,flowering plants,Accepted,Malvaceae,Cav.,-10.8339,-52.8731,,GBIF,F,F,F,Botany,3567,1
Blutaparon portulacoides,Amaranthaceae,Blutaparon portulacoides (A. St.-Hil.) Mears,Amaranthaceae,Blutaparon portulacoides,(A. St.-Hil.) Mears,flowering plants,Accepted,Amaranthaceae,(A. St.-Hil.) Mears,-23.96,-46.33,1915-09-20,NY,NY,NY,NY,Herbarium,104,1
Chamaecrista ramosa,Fabaceae,Chamaecrista ramosa (Vogel),Fabaceae,Chamaecrista ramosa,(Vogel) H.S. Irwin & Barneby,flowering plants,Accepted,Fabaceae,(Vogel) H.S. Irwin & Barneby,-12.4575,-41.4725,2012-06-10,GBIF,UEFS,UEFS,UEFS,HUEFS,2756,1
,Aristolochiaceae,Aristolochia,Aristolochiaceae,Aristolochia,L.,flowering plants,Accepted,Aristolochiaceae,L.,-15.938625,-47.941481,2009-02-24,SpeciesLink,UnB,UnB,UnB,UB,1227,1
Hirtella racemosa,Chrysobalanaceae,Hirtella racemosa Lam.,Chrysobalanaceae,Hirtella racemosa,Lam.,flowering plants,Accepted,Chrysobalanaceae,Lam.,-12.3,-41.22,1980-05-23,GBIF,UNICAMP,UNICAMP,UNICAMP,UEC,2136,1
Dioscorea demourae,Dioscoreaceae,Dioscorea demourae,Dioscoreaceae,Dioscorea demourae,R. Knuth,flowering plants,Accepted,Dioscoreaceae,R. Knuth,,,2009-09-22,SpeciesLink,FURB,FURB,FURB,FURB,1278,1
,Plagiochilaceae,Plagiochila (Dumort.) Dumort.,Plagiochilaceae,Plagiochila,(Dumort.) Dumort.,bryophytes,Accepted,Plagiochilaceae,(Dumort.) Dumort.,-26.842222,-49.716667,2013-05-24,GBIF,"Instituto Federal de Educação, Ciência e Tecnologia (IFAM)","Instituto Federal de Educação, Ciência e Tecnologia (IFAM)","Instituto Federal de Educação, Ciência e Tecnologia (IFAM)",EAFM,1566,1
,Sphagnaceae,Sphagnum L.,Sphagnaceae,Sphagnum,L.,bryophytes,Accepted,Sphagnaceae,L.,-25.46725,-49.637528,2012-06-09,GBIF,PNFM,PNFM,PNFM,IRAI,1954,1
Wolffia columbiana,Araceae,Wolffia columbiana Karst.,Araceae,Wolffia columbiana,Karst.,flowering plants,Accepted,Araceae,Karst.,-19.533333,-57.266667,1992-08-12,GBIF,Empresa Brasileira de Pesquisa Agropecuária (EMBRAPA),Empresa Brasileira de Pesquisa Agropecuária (EMBRAPA),Empresa Brasileira de Pesquisa Agropecuária (EMBRAPA),CPAP,2018,1
Calyptrocarya glomerulata,Cyperaceae,Calyptrocarya glomerulata Urb.,Cyperaceae,Calyptrocarya glomerulata,(Brongn.) Urb.,flowering plants,Accepted,Cyperaceae,(Brongn.) Urb.,-9.279722,-35.582222,2013-09-24,GBIF,IMA,IMA,IMA,MAC,2458,1
,Urticaceae,Urticaceae Pourouma unknown,Urticaceae,Pourouma,Aubl.,flowering plants,Accepted,Urticaceae,Aubl.,-1.73408,-51.51098,2008-11-06,TEAM,Caxiuanã,Fernanda Santos,,,36,1
Conchocarpus ucayalinus,Rutaceae,Conchocarpus ucayalinus (Huber) Kallunki & Pirani,Rutaceae,Conchocarpus ucayalinus,(Huber) Kallunki & Pirani,flowering plants,Accepted,Rutaceae,(Huber) Kallunki & Pirani,-10.85,-68.8,1991-05-30,GBIF,Instituto Nacional de Pesquisas da Amazônia (INPA),Instituto Nacional de Pesquisas da Amazônia (INPA),Instituto Nacional de Pesquisas da Amazônia (INPA),"Coleção Botânica, Instituto Nacional de Pesquisas da Amazônia (INPA)",2095,1
Neojobertia candolleana,Bignoniaceae,Neojobertia candolleana Bureau & K.Schum.,Bignoniaceae,Neojobertia candolleana,(Mart. ex DC.) Bureau & K. Schum.,flowering plants,Accepted,Bignoniaceae,(Mart. ex DC.) Bureau & K. Schum.,-9.536111,-41.352778,2003-11-28,GBIF,UEFS,UEFS,UEFS,HUEFS,2756,1
,Sematophyllaceae,Sematophyllum Mitt.,Sematophyllaceae,Sematophyllum,Mitt.,bryophytes,Accepted,Sematophyllaceae,Mitt.,-19.246944,-43.51,2009-06-13,GBIF,UnB,UnB,UnB,UB,3120,1
Begonia toledoana,Begoniaceae,Begonia toledoana Handro,Begoniaceae,Begonia toledoana,Handro,flowering plants,Accepted,Begoniaceae,Handro,-24.501667,-48.408889,1995-09-02,GBIF,"Instituto de Botânica, IBT","Instituto de Botânica, IBT","Instituto de Botânica, IBT",SP,3012,1
Sapindus saponaria,Sapindaceae,Sapindus saponaria L.,Sapindaceae,Sapindus saponaria,L.,flowering plants,Accepted,Sapindaceae,L.,-6.364278,-37.708583,2007-10-13,GBIF,UFPB,UFPB,UFPB,JPB,3165,1
Triumfetta lappula,Malvaceae,Triumfetta lappula L.,Malvaceae,Triumfetta lappula,L.,flowering plants,Accepted,Malvaceae,L.,-0.9167,-54.4333,1981-07-17,GBIF,US,US,US,Botany,3271,1
Protium opacum,Burseraceae,Burseraceae Protium opacum ssp opacum,Burseraceae,Protium opacum subsp. opacum,,flowering plants,Accepted,Burseraceae,,-2.5975461,-60.1093966,2007-09-18,TEAM,Manaus,Eduardo Eler,,,42,1
Aspidosperma macrocarpon,Apocynaceae,Aspidosperma macrocarpon Mart.,Apocynaceae,Aspidosperma macrocarpon,Mart.,flowering plants,Accepted,Apocynaceae,Mart.,-13.519167,-45.015833,2000-02-16,GBIF,UEFS,UEFS,UEFS,HUEFS,2756,1
Paepalanthus gardnerianus,Eriocaulaceae,Paepalanthus gardnerianus Walp.,Eriocaulaceae,Paepalanthus gardnerianus,Walp.,flowering plants,Accepted,Eriocaulaceae,Walp.,-10.773109,-53.08982,1840-07-01,GBIF,NHMUK,NHMUK,NHMUK,BOT,2075,1
Lobelia hassleri,Campanulaceae,Lobelia hassleri Zahlbr.,Campanulaceae,Lobelia hassleri,Zahlbr.,flowering plants,Accepted,Campanulaceae,Zahlbr.,-26.874444,-52.389444,2014-12-18,GBIF,"Universidade Regional de Blumenau, FURB","Universidade Regional de Blumenau, FURB","Universidade Regional de Blumenau, FURB",FURB,1646,1
Combretum laxum,Combretaceae,Combretaceae Combretum laxum,Combretaceae,Combretum laxum,Jacq.,flowering plants,Accepted,Combretaceae,Jacq.,-19.3,-40.0667,,SALVIAS,Gentry Transect Dataset,James S. MIller,,,14,1
Pterogyne nitens,Fabaceae,Pterogyne nitens Tul.,Fabaceae,Pterogyne nitens,Tul.,flowering plants,Accepted,Fabaceae,Tul.,-13.993056,-42.2075,1997-02-08,GBIF,USP,USP,USP,SPF,3527,1
,Polygalaceae,Polygala,Polygalaceae,Polygala,L.,flowering plants,Accepted,Polygalaceae,L.,-13.116667,-41.816667,1996-11-02,SpeciesLink,UFBA,UFBA,UFBA,ALCB,1028,1
Dolichandra quadrivalvis,Bignoniaceae,Bignonia populifolia DC.,Bignoniaceae,Bignonia populifolia,DC.,flowering plants,Accepted,Bignoniaceae,(Jacq.) L.G. Lohmann,-12.18306,-41.99722,,GBIF,G,G,G,Geneva Herbarium – De Candolle's Prodromus (G-DC),3547,1
,Bromeliaceae,Orthophytum,Bromeliaceae,Orthophytum,Beer,flowering plants,Accepted,Bromeliaceae,Beer,-12.416667,-41.266667,1974-07-22,SpeciesLink,UFBA,UFBA,UFBA,ALCB,1028,1
,Hookeriaceae,Callicostella (Müll.Hal.) Mitt.,Pilotrichaceae,Callicostella,(Müll. Hal.) Mitt.,bryophytes,Accepted,Pilotrichaceae,(Müll. Hal.) Mitt.,-14.133333,-47.516667,2013-05-26,GBIF,UnB,UnB,UnB,UB,3120,1
Grazielia intermedia,Asteraceae,Grazielia intermedia (DC.) R.M.King & H.Rob.,Asteraceae,Grazielia intermedia,(DC.) R.M. King & H. Rob.,flowering plants,Accepted,Asteraceae,(DC.) R.M. King & H. Rob.,-27.895303,-49.79945,2010-03-03,GBIF,Universidade Federal de Minas Gerais (UFMG),Universidade Federal de Minas Gerais (UFMG),Universidade Federal de Minas Gerais (UFMG),BHCB,2515,1
,Apocynaceae,Aspidosperma,Apocynaceae,Aspidosperma,Mart. & Zucc.,flowering plants,Accepted,Apocynaceae,Mart. & Zucc.,-13.366667,-59.933333,1985-01-01,SpeciesLink,INPA,INPA,INPA,INPA-Herbario,619,1
Alseis floribunda,Rubiaceae,Alseis floribunda Schott,Rubiaceae,Alseis floribunda,Schott,flowering plants,Accepted,Rubiaceae,Schott,-24.041222,-46.824417,2001-04-17,GBIF,"Escola Superior de Agricultura Luiz de Queiroz, ESALQ","Escola Superior de Agricultura Luiz de Queiroz, ESALQ","Escola Superior de Agricultura Luiz de Queiroz, ESALQ",ESA,2472,1
,Amaranthaceae,Amaranthaceae,Amaranthaceae,Amaranthaceae,Juss.,flowering plants,Accepted,Amaranthaceae,Juss.,-13.810278,-47.455278,2011-09-26,GBIF,JBRJ,JBRJ,JBRJ,RB,1928,1
,Asteraceae,Asteraceae,Asteraceae,Asteraceae,Bercht. & J. Presl,flowering plants,Accepted,Asteraceae,Bercht. & J. Presl,-22.033333,-44.65,2008-03-12,SpeciesLink,UFMG,UFMG,UFMG,BHCB,501,1
,Myrtaceae,Eugenia,Myrtaceae,Eugenia,L.,flowering plants,Accepted,Myrtaceae,L.,,,1996-10-24,SpeciesLink,UFES,UFES,UFES,VIES,1307,1
Casearia ulmifolia,Salicaceae,Casearia ulmifolia Vahl ex Vent.,Salicaceae,Casearia ulmifolia,Vahl ex Vent.,flowering plants,Accepted,Salicaceae,Vahl ex Vent.,,,2017-04-17,GBIF,UEFS,UEFS,UEFS,HUEFS,2756,1
Pteris denticulata,Pteridaceae,Pteris denticulata Sw.,Pteridaceae,Pteris denticulata,Sw.,ferns and allies,Accepted,Pteridaceae,Sw.,-30.579806,-51.527778,2013-09-08,GBIF,UCS,UCS,UCS,HUCS,3380,1
Evolvulus fuscus,Convolvulaceae,Evolvulus fuscus Meisn.,Convolvulaceae,Evolvulus fuscus,Meisn.,flowering plants,Accepted,Convolvulaceae,Meisn.,-13.779722,-46.624722,,GBIF,Cenargen,Cenargen,Cenargen,CEN,3199,1
,acanthaceae,aphelandra,Acanthaceae,Aphelandra,R. Br.,flowering plants,Accepted,Acanthaceae,R. Br.,-23.5833,-46.4667,1995-07-25,SpeciesLink,FAPESP,FAPESP,FAPESP,SinBiota,196,1
Piptocarpha oblonga,Asteraceae,Piptocarpha reitziana Cabrera,Asteraceae,Piptocarpha reitziana,Cabrera,flowering plants,Accepted,Asteraceae,(Sch. Bip.) G. Lom. Smith,-23.5346,-46.434,1995-08-14,GBIF,UNICAMP,UNICAMP,UNICAMP,UEC,2136,1
Helietta apiculata,Rutaceae,Helietta apiculata Benth.,Rutaceae,Helietta apiculata,Benth.,flowering plants,Accepted,Rutaceae,Benth.,-21.661639,-51.153389,2006-10-18,GBIF,IAC,IAC,IAC,IAC,3493,1
Campomanesia eugenioides,MYRTACEAE,Campomanesia eugenioides (Cambess.) D.Legrand,Myrtaceae,Campomanesia eugenioides,(Cambess.) D. Legrand,flowering plants,No opinion,Myrtaceae,(Cambess.) D. Legrand,-12.7333333,-39.7666667,1996-11-09,SpeciesLink,JBRJ,JBRJ,JBRJ,JBRJ_RB,249,1
Byrsonima incarnata,Malpighiaceae,Malpighiaceae Byrsonima aff. incarnata,Malpighiaceae,Byrsonima incarnata,Sandwith,flowering plants,Accepted,Malpighiaceae,Sandwith,-2.4066878,-59.9015673,2006-09-05,TEAM,Manaus,Eduardo Eler,,,42,1
Dioclea grandiflora,Fabaceae,Dioclea grandiflora Mart. ex Benth.,Fabaceae,Dioclea grandiflora,Mart. ex Benth.,flowering plants,Accepted,Fabaceae,Mart. ex Benth.,-9.723056,-39.332222,2000-03-30,GBIF,UEFS,UEFS,UEFS,HUEFS,2756,1
Cordiera elliptica,Rubiaceae,Cordiera elliptica Kuntze,Rubiaceae,Cordiera elliptica,(Cham.) Kuntze,flowering plants,Accepted,Rubiaceae,(Cham.) Kuntze,-14.166667,-47.766667,1998-09-19,GBIF,UFG,UFG,UFG,UFG,3801,1
,Orchidaceae,Orchidaceae,Orchidaceae,Orchidaceae,Juss.,flowering plants,Accepted,Orchidaceae,Juss.,-14.770278,-39.536111,2007-09-02,GBIF,Comissão Executiva do Plano da Lavoura Cacaueira (CEPLAC),Comissão Executiva do Plano da Lavoura Cacaueira (CEPLAC),Comissão Executiva do Plano da Lavoura Cacaueira (CEPLAC),CEPEC,2724,1
Senna multijuga,Fabaceae,Senna multijuga var. verrucosa (Vogel) H.S.Irwin & Barneby,Fabaceae,Senna multijuga var. verrucosa,(Vogel) H.S. Irwin & Barneby,flowering plants,Accepted,Fabaceae,(Vogel) H.S. Irwin & Barneby,-14.8,-39.166667,1998-03-30,GBIF,UEFS,UEFS,UEFS,HUEFS,2756,1
Taxithelium minutulum,Sematophyllaceae,"Taxithelium minutulum Camara, P.S., Carvalho-Silva & M.",Sematophyllaceae,Taxithelium minutulum,P. Câmara & M. Carvalho-Silva,bryophytes,Accepted,Sematophyllaceae,P. Câmara & M. Carvalho-Silva,-16.508611,-39.257778,2013-09-11,GBIF,UnB,UnB,UnB,UB,3120,1
Chascolytrum uniolae,Poaceae,"Chascolytrum uniolae (Nees) Essi, Longhi-Wagner & Souza-Chies",Poaceae,Chascolytrum uniolae,"(Nees) L. Essi, Longhi-Wagner & Souza-Chies",flowering plants,Accepted,Poaceae,"(Nees) L. Essi, Longhi-Wagner & Souza-Chies",-29.865272,-50.2478,2015-11-21,GBIF,UCS,UCS,UCS,HUCS,3380,1
,Orchidaceae,Habenaria,Orchidaceae,Habenaria,Willd.,flowering plants,Accepted,Orchidaceae,Willd.,,,2008-04-08,SpeciesLink,FURB,FURB,FURB,FURB,1278,1
,Myrtaceae,Eugenia,Myrtaceae,Eugenia,L.,flowering plants,Accepted,Myrtaceae,L.,,,1984-01-01,SpeciesLink,INPA,INPA,INPA,INPA-Herbario,619,1
Swartzia brachyrachis,Fabaceae,Swartzia brachyrachis Harms,Fabaceae,Swartzia brachyrachis,Harms,flowering plants,Accepted,Fabaceae,Harms,-2.423114,-60.293358,2011-06-11,GBIF,"Instituto Federal de Educação, Ciência e Tecnologia (IFAM)","Instituto Federal de Educação, Ciência e Tecnologia (IFAM)","Instituto Federal de Educação, Ciência e Tecnologia (IFAM)",EAFM,1566,1
Pimenta pseudocaryophyllus,Myrtaceae,Pimenta pseudocaryophyllus (Gomes) Landrum,Myrtaceae,Pimenta pseudocaryophyllus,(Gomes) Landrum,flowering plants,Accepted,Myrtaceae,(Gomes) Landrum,-19.191808,-43.255814,2014-10-06,GBIF,Universidade Federal de Minas Gerais (UFMG),Universidade Federal de Minas Gerais (UFMG),Universidade Federal de Minas Gerais (UFMG),BHCB,2515,1
Dilodendron bipinnatum,Sapindaceae,Dilodendron bipinnatum Radlk.,Sapindaceae,Dilodendron bipinnatum,Radlk.,flowering plants,Accepted,Sapindaceae,Radlk.,-21.310638,-47.881976,2002-02-04,GBIF,IAC,IAC,IAC,IAC,3493,1
,Poaceae,Poaceae,Poaceae,Poaceae,Barnhart,flowering plants,Accepted,Poaceae,Barnhart,0.908256,-53.23,2013-02-21,GBIF,Instituto Nacional de Pesquisas da Amazônia (INPA),Instituto Nacional de Pesquisas da Amazônia (INPA),Instituto Nacional de Pesquisas da Amazônia (INPA),"Coleção Botânica, Instituto Nacional de Pesquisas da Amazônia (INPA)",2095,1
Maytenus evonymoides,Celastraceae,Maytenus evonymoides Reissek,Celastraceae,Maytenus evonymoides,Reissek,flowering plants,Accepted,Celastraceae,Reissek,-25.43306,-49.06667,1995-12-15,GBIF,W,W,W,Herbarium W,3736,1
,Cactaceae,Rhipsalis Gaertn.,Cactaceae,Rhipsalis,Gaertn.,flowering plants,Accepted,Cactaceae,Gaertn.,,,2010-01-27,GBIF,UFRB,UFRB,UFRB,HURB,3083,1
Symphyopappus itatiayensis,Asteraceae,Symphyopappus itatiayensis (Hieron.) R.M.King & H.Rob.,Asteraceae,Symphyopappus itatiayensis,(Hieron.) R.M. King & H. Rob.,flowering plants,Accepted,Asteraceae,(Hieron.) R.M. King & H. Rob.,-27.625833,-48.884167,2009-01-15,GBIF,"Universidade Regional de Blumenau, FURB","Universidade Regional de Blumenau, FURB","Universidade Regional de Blumenau, FURB",FURB,1646,1
Serpocaulon catharinae,Polypodiaceae,Serpocaulon catharinae (Langsd. & Fisch.) A.R.Sm.,Polypodiaceae,Serpocaulon catharinae,(Langsd. & Fisch.) A.R. Sm.,ferns and allies,Accepted,Polypodiaceae,(Langsd. & Fisch.) A.R. Sm.,-26.1925,-49.047778,2009-12-10,GBIF,"Universidade Regional de Blumenau, FURB","Universidade Regional de Blumenau, FURB","Universidade Regional de Blumenau, FURB",FURB,1646,1
,Convolvulaceae,Evolvulus L.,Convolvulaceae,Evolvulus,L.,flowering plants,Accepted,Convolvulaceae,L.,-12.45,-41.45,2005-10-03,GBIF,UEFS,UEFS,UEFS,HUEFS,2756,1
Symphyopappus compressus,Asteraceae(=Compositae),Symphyopappus compressus,Asteraceae,Symphyopappus compressus,(Gardner) B.L. Rob.,flowering plants,Accepted,Asteraceae,(Gardner) B.L. Rob.,-24.608333,-47.8825,1995-01-10,SpeciesLink,IAC,IAC,IAC,IAC,1365,1
Solanum argenteum,Solanaceae,Solanum argenteum Blanch. ex Dun.,Solanaceae,Solanum argenteum,Dunal,flowering plants,Accepted,Solanaceae,Dunal,-23.227222,-46.955556,2011-09-20,GBIF,Universidade Federal de Minas Gerais (UFMG),Universidade Federal de Minas Gerais (UFMG),Universidade Federal de Minas Gerais (UFMG),BHCB,2515,1
Habenaria repens,Orchidaceae,Habenaria repens Nutt.,Orchidaceae,Habenaria repens,Nutt.,flowering plants,Accepted,Orchidaceae,Nutt.,,,2005-11-26,GBIF,UEFS,UEFS,UEFS,HUEFS,2756,1
,Araceae,Lemna L.,Araceae,Lemna,L.,flowering plants,Accepted,Araceae,L.,-11.166667,-40.533333,1996-07-04,GBIF,Universidade Federal da Bahia (UFBA),Universidade Federal da Bahia (UFBA),Universidade Federal da Bahia (UFBA),ALCB,2879,1
Sphagnum submedium,Sphagnaceae,Sphagnum submedium Warnst.,Sphagnaceae,Sphagnum submedium,Warnst.,bryophytes,Accepted,Sphagnaceae,Warnst.,-21.92361,-46.38583,1873-12-15,NY,NY,NY,NY,Herbarium,104,1
Solanum stipulaceum,Solanaceae,Solanum stipulaceum Willd. ex Roem. & Schult.,Solanaceae,Solanum stipulaceum,Roem. & Schult.,flowering plants,Accepted,Solanaceae,Roem. & Schult.,-13.55,-41.783333,1972-01-18,GBIF,IPA,IPA,IPA,IPA,3347,1
Senegalia bahiensis,Fabaceae,Senegalia bahiensis (Benth.) Seigler & Ebinger,Fabaceae,Senegalia bahiensis,(Benth.) Seigler & Ebinger,flowering plants,Accepted,Fabaceae,(Benth.) Seigler & Ebinger,-11.154444,-40.496111,2011-02-22,GBIF,UEFS,UEFS,UEFS,HUEFS,2756,1
,Rubiaceae,Rubiaceae,Rubiaceae,Rubiaceae,Juss.,flowering plants,Accepted,Rubiaceae,Juss.,-19.895,-40.762778,2011-01-21,GBIF,UFPB,UFPB,UFPB,JPB,3165,1
,Acanthaceae,Acanthaceae,Acanthaceae,Acanthaceae,Juss.,flowering plants,Accepted,Acanthaceae,Juss.,-17.855986,-41.260944,2011-04-16,GBIF,Universidade Federal de Minas Gerais (UFMG),Universidade Federal de Minas Gerais (UFMG),Universidade Federal de Minas Gerais (UFMG),BHCB,2515,1
,,Plantae,Plantaginaceae,Plantago,L.,flowering plants,Accepted,Plantaginaceae,L.,-10.716667,-65.25,1987-04-09,GBIF,Instituto Nacional de Pesquisas da Amazônia (INPA),Instituto Nacional de Pesquisas da Amazônia (INPA),Instituto Nacional de Pesquisas da Amazônia (INPA),"Coleção Botânica, Instituto Nacional de Pesquisas da Amazônia (INPA)",2095,1
Rudgea viburnoides,Rubiaceae,Rudgea viburnoides (Cham.) Benth.,Rubiaceae,Rudgea viburnoides,(Cham.) Benth.,flowering plants,Accepted,Rubiaceae,(Cham.) Benth.,-12.823611,-48.219444,,GBIF,Cenargen,Cenargen,Cenargen,CEN,3199,1
Stigmaphyllon blanchetii,Malpighiaceae,Stigmaphyllon blanchetii C.Anderson,Malpighiaceae,Stigmaphyllon blanchetii,C.E. Anderson,flowering plants,Accepted,Malpighiaceae,C.E. Anderson,-7.842306,-35.008611,2009-10-28,GBIF,UFPE,UFPE,UFPE,UFP,2854,1
Byrsonima verbascifolia,Malpighiaceae,Byrsonima verbascifolia (L.) DC.,Malpighiaceae,Byrsonima verbascifolia,(L.) DC.,flowering plants,Accepted,Malpighiaceae,(L.) DC.,-12.034444,-42.69,2007-06-02,GBIF,UEFS,UEFS,UEFS,HUEFS,2756,1
Waltheria collina,Malvaceae,Waltheria collina K.Schum.,Malvaceae,Waltheria collina,K. Schum.,flowering plants,Accepted,Malvaceae,K. Schum.,-10.8339,-52.8731,,GBIF,F,F,F,Botany,3567,1
,Myrtaceae,Psidium sp.,Myrtaceae,Psidium,L.,flowering plants,Accepted,Myrtaceae,L.,-6.5014780017,-34.9729283683,2011-04-14,SpeciesLink,UFPB,UFPB,UFPB,JPB,306,1
Stryphnodendron adstringens,Fabaceae,Stryphnodendron adstringens (Mart.) Coville,Fabaceae,Stryphnodendron adstringens,(Mart.) Coville,flowering plants,Accepted,Fabaceae,(Mart.) Coville,-16.173056,-48.424722,2003-03-26,GBIF,UnB,UnB,UnB,UB,3120,1
Hymenaea stigonocarpa,Fabaceae,Hymenaea stigonocarpa Mart. ex Hayne,Fabaceae,Hymenaea stigonocarpa,Mart. ex Hayne,flowering plants,Accepted,Fabaceae,Mart. ex Hayne,-16.685583,-46.907694,2010-12-07,GBIF,FZB-BH,FZB-BH,FZB-BH,BHZB,3177,1
Psychotria loefgrenii,Rubiaceae,Psychotria loefgrenii Standl.,Rubiaceae,Psychotria loefgrenii,Standl.,flowering plants,Accepted,Rubiaceae,Standl.,,,1894-07-26,GBIF,F,F,F,Botany,3567,1
Byrsonima crassifolia,Malpighiaceae,Byrsonima crassifolia,Malpighiaceae,Byrsonima crassifolia,(L.) Kunth,flowering plants,Accepted,Malpighiaceae,(L.) Kunth,-18.8,-46.9,1988-11-17,SpeciesLink,IBt,IBt,IBt,SP,971,1
,Myrtaceae,Eugenia Mich. ex L.,Myrtaceae,Eugenia,,flowering plants,Accepted,Myrtaceae,,,,1999-11-17,GBIF,UnB,UnB,UnB,UB,3120,1
Triplaris gardneriana,Polygonaceae,Triplaris gardneriana Wedd.,Polygonaceae,Triplaris gardneriana,Wedd.,flowering plants,Accepted,Polygonaceae,Wedd.,-10.888611,-42.775833,2005-06-26,GBIF,UEFS,UEFS,UEFS,HUEFS,2756,1
Chamaecrista flexuosa,Leguminosae,Chamaecrista flexuosa var. flexuosa,Fabaceae,Chamaecrista flexuosa var. flexuosa,,flowering plants,Accepted,Fabaceae,,-9.366667,-64.666667,1987-04-20,SpeciesLink,IBt,IBt,IBt,SP,971,1
Centratherum punctatum,Asteraceae,Centratherum punctatum Cass.,Asteraceae,Centratherum punctatum,Cass.,flowering plants,Accepted,Asteraceae,Cass.,-25.427778,-53.910278,2015-03-03,GBIF,IF,IF,IF,SPSF,2774,1
Marlierea excoriata,Myrtaceae,Marlierea excoriata Mart.,Myrtaceae,Marlierea excoriata,Mart.,flowering plants,Accepted,Myrtaceae,Mart.,-11.259722,-37.272778,2012-04-13,GBIF,"Universidade Federal de Sergipe, UFS","Universidade Federal de Sergipe, UFS","Universidade Federal de Sergipe, UFS",ASE,3114,1
Peperomia tetraphylla,Piperaceae,Peperomia tetraphylla,Piperaceae,Peperomia tetraphylla,Hook. & Arn.,flowering plants,Accepted,Piperaceae,Hook. & Arn.,-27.724167,-48.535,2010-03-10,SpeciesLink,FURB,FURB,FURB,FURB,1278,1
Bredemeyera brevifolia,Polygalaceae,Bredemeyera brevifolia Klotzsch ex A.W.Benn.,Polygalaceae,Bredemeyera brevifolia,(Benth.) Klotzsch ex A.W.Benn.,flowering plants,Accepted,Polygalaceae,(Benth.) Klotzsch ex A.W.Benn.,-11.206667,-40.481944,,GBIF,Comissão Executiva do Plano da Lavoura Cacaueira (CEPLAC),Comissão Executiva do Plano da Lavoura Cacaueira (CEPLAC),Comissão Executiva do Plano da Lavoura Cacaueira (CEPLAC),CEPEC,2724,1
Piper umbellatum,Piperaceae,Piper umbellatum L.,Piperaceae,Piper umbellatum,L.,flowering plants,Accepted,Piperaceae,L.,-20.112139,-40.55525,2013-03-08,GBIF,MBML,MBML,MBML,MBML-HERBARIO,3510,1
Tapirira guianensis,Anacardiaceae,Tapirira guianensis Aubl.,Anacardiaceae,Tapirira guianensis,Aubl.,flowering plants,Accepted,Anacardiaceae,Aubl.,-24.48543,-47.44324,1994-09-07,GBIF,UNICAMP,UNICAMP,UNICAMP,UEC,2136,1
Apeiba tibourbou,Tiliaceae,Apeiba tibourbou Aubl.,Malvaceae,Apeiba tibourbou,Aubl.,flowering plants,Accepted,Malvaceae,Aubl.,-6.067,-50.217,1982-05-28,NY,,,,Herbarium,104,1
Vriesea crassa,Bromeliaceae,Vriesea crassa Mez,Bromeliaceae,Vriesea crassa,Mez,flowering plants,Accepted,Bromeliaceae,Mez,-21.866667,-41.9,2009-10-16,GBIF,JBRJ,JBRJ,JBRJ,RB,1928,1
Luziola fragilis,Poaceae,Luziola fragilis Swallen,Poaceae,Luziola fragilis,Swallen,flowering plants,Accepted,Poaceae,Swallen,-16.316667,-56.516667,1993-04-16,GBIF,UFMT,UFMT,UFMT,UFMT,3531,1
Pityrogramma calomelanos,Pteridaceae,Pityrogramma calomelanos var. calomelanos,Pteridaceae,Pityrogramma calomelanos var. calomelanos,,ferns and allies,Accepted,Pteridaceae,,-2.883333,-59.97,1995-03-20,GBIF,Instituto Nacional de Pesquisas da Amazônia (INPA),Instituto Nacional de Pesquisas da Amazônia (INPA),Instituto Nacional de Pesquisas da Amazônia (INPA),"Coleção Botânica, Instituto Nacional de Pesquisas da Amazônia (INPA)",2095,1
Myrcia venulosa,Myrtaceae,Myrcia venulosa DC.,Myrtaceae,Myrcia venulosa,DC.,flowering plants,Accepted,Myrtaceae,DC.,-18.066667,-51.15,2007-12-18,GBIF,UFSJ,UFSJ,UFSJ,HUFSJ,3170,1
,Rutaceae,Rutaceae,Rutaceae,Rutaceae,Juss.,flowering plants,Accepted,Rutaceae,Juss.,-13.734917,-39.566361,2014-08-12,GBIF,UESB,UESB,UESB,HUESB,1632,1
Cordia superba,Ehretiaceae,Cordia superba Cham.,Boraginaceae,Cordia superba,Cham.,flowering plants,Accepted,Boraginaceae,Cham.,-12.034167,-41.501111,1999-08-30,GBIF,"Universidade Federal Rural de Pernambuco, UFRPE","Universidade Federal Rural de Pernambuco, UFRPE","Universidade Federal Rural de Pernambuco, UFRPE",HST,2125,1
Bulbostylis sphaerocephala,Cyperaceae,Bulbostylis sphaerocephala,Cyperaceae,Bulbostylis sphaerocephala,(Boeckeler) Lindm.,flowering plants,Accepted,Cyperaceae,(Boeckeler) Lindm.,-21.838889,-46.564722,1981-10-30,SpeciesLink,UNICAMP,UNICAMP,UNICAMP,UEC,1030,1
Araujia sericifera,Apocynaceae,Araujia albens (Mart.) G.Don,Apocynaceae,Araujia albens,(Mart.) G.Don,flowering plants,Accepted,Apocynaceae,Brot.,-10.77306,-53.08972,,GBIF,G,G,G,Geneva Herbarium – De Candolle's Prodromus (G-DC),3547,1
Polytaenium cajenense,Pteridaceae,Polytaenium cajenense Benedict,Pteridaceae,Polytaenium cajenense,(Desv.) Benedict,ferns and allies,Accepted,Pteridaceae,(Desv.) Benedict,-22.493611,-43.001389,2008-01-14,GBIF,JBRJ,JBRJ,JBRJ,RB,1928,1
Bauhinia cheilantha,Fabaceae,Bauhinia cheilantha (Bong.) Steud.,Fabaceae,Bauhinia cheilantha,(Bong.) Steud.,flowering plants,Accepted,Fabaceae,(Bong.) Steud.,-4.561111,-39.772778,2012-04-22,GBIF,JBRJ,JBRJ,JBRJ,RB,1928,1
Rinorea guianensis,Violaceae,Violaceae Rinorea guianensis,Violaceae,Rinorea guianensis,Aubl.,flowering plants,Accepted,Violaceae,Aubl.,-2.6185037,-60.2098673,2006-01-12,TEAM,Manaus,Eduardo Eler,,,42,1
Marsypianthes montana,Labiatae,Marsypianthes montana,Lamiaceae,Marsypianthes montana,Benth.,flowering plants,Accepted,Lamiaceae,Benth.,-13.7975,-47.4583,,SpeciesLink,UnB,UnB,UnB,UB,1227,1
,LOGANIACEAE,Antonia,Loganiaceae,Antonia,Pohl,flowering plants,Accepted,Loganiaceae,Pohl,-15.3713889,-45.8036111,1999-04-30,SpeciesLink,JBRJ,JBRJ,JBRJ,JBRJ_RB,249,1
Stachytarpheta harleyi,Verbenaceae,Stachytarpheta harleyi S.Atkins,Verbenaceae,Stachytarpheta harleyi,S. Atkins,flowering plants,Accepted,Verbenaceae,S. Atkins,-18.602778,-43.878333,2013-10-23,GBIF,Universidade Federal de Juiz de Fora (UFJF),Universidade Federal de Juiz de Fora (UFJF),Universidade Federal de Juiz de Fora (UFJF),CESJ,2728,1
Sauvagesia erecta,Ochnaceae,Sauvagesia erecta L.,Ochnaceae,Sauvagesia erecta,L.,flowering plants,Accepted,Ochnaceae,L.,-20.670833,-41.494167,2008-07-10,GBIF,MBML,MBML,MBML,MBML-HERBARIO,3510,1
Commelina obliqua,Commelinaceae,Commelina obliqua Vahl,Commelinaceae,Commelina obliqua,Vahl,flowering plants,Accepted,Commelinaceae,Vahl,-23.233333,-47.033333,1994-03-02,GBIF,JBRJ,JBRJ,JBRJ,RB,1928,1
Sphagnum exquisitum,Sphagnaceae,"Sphagnum exquisitum H.Crum, 1992",Sphagnaceae,Sphagnum exquisitum,H.A. Crum,bryophytes,Accepted,Sphagnaceae,H.A. Crum,-22.583333,-45.3,1988-09-24,GBIF,JBRJ,JBRJ,JBRJ,RB,1928,1
,Lythraceae,Cuphea P.Browne,Lythraceae,Cuphea,P. Browne,flowering plants,Accepted,Lythraceae,P. Browne,-11.184167,-37.998056,1983-08-25,GBIF,"Universidade Federal de Sergipe, UFS","Universidade Federal de Sergipe, UFS","Universidade Federal de Sergipe, UFS",ASE,3114,1
Cynophalla hastata,Capparaceae,Cynophalla hastata,Capparaceae,Cynophalla hastata,(Jacq.) J. Presl,flowering plants,Accepted,Capparaceae,(Jacq.) J. Presl,-9.330797,-40.548733,2009-03-20,SpeciesLink,UNIVASF,UNIVASF,UNIVASF,HVASF,786,1
Waltheria indica,Malvaceae,Waltheria indica L.,Malvaceae,Waltheria indica,L.,flowering plants,Accepted,Malvaceae,L.,-22.4319,-46.9578,1983-10-03,GBIF,IAC,IAC,IAC,IAC,3493,1
Syngonanthus densiflorus,Eriocaulaceae,Syngonanthus densiflorus Ruhland,Eriocaulaceae,Syngonanthus densiflorus,(Körn.) Ruhland,flowering plants,Accepted,Eriocaulaceae,(Körn.) Ruhland,-14.19667,-48.095,,GBIF,Cenargen,Cenargen,Cenargen,CEN,3199,1
Centrosema brasilianum,Leguminosae-Pap.,Centrosema brasilianum,Fabaceae,Centrosema brasilianum,(L.) Benth.,flowering plants,Accepted,Fabaceae,(L.) Benth.,-17.707222,-44.191944,2003-05-02,SpeciesLink,UNICAMP,UNICAMP,UNICAMP,UEC,1030,1
Gonolobus rostratus,Apocynaceae,Gonolobus rostratus R.Br.,Apocynaceae,Gonolobus rostratus,(Vahl) R. Br.,flowering plants,No opinion,Apocynaceae,(Vahl) R. Br.,-19.916667,-49.516667,2001-12-05,GBIF,UNESPSJRP,UNESPSJRP,UNESPSJRP,SJRP,2903,1
Trattinnickia glaziovii,Burseraceae,Trattinnickia glaziovii Swart,Burseraceae,Trattinnickia glaziovii,Swart,flowering plants,Accepted,Burseraceae,Swart,-11.683333,-56.15,1985-09-23,GBIF,Instituto Nacional de Pesquisas da Amazônia (INPA),Instituto Nacional de Pesquisas da Amazônia (INPA),Instituto Nacional de Pesquisas da Amazônia (INPA),"Coleção Botânica, Instituto Nacional de Pesquisas da Amazônia (INPA)",2095,1
Tibouchina gracilis,Melastomataceae,Tibouchina gracilis (Bonpl.) Cogn.,Melastomataceae,Tibouchina gracilis,(Bonpl.) Cogn.,flowering plants,Accepted,Melastomataceae,(Bonpl.) Cogn.,-22.183333,-47.116667,1960-04-21,GBIF,"Instituto de Botânica, IBT","Instituto de Botânica, IBT","Instituto de Botânica, IBT",SP,3012,1
Adenocalymma marginatum,Bignoniaceae,Adenocalymma marginatum,Bignoniaceae,Adenocalymma marginatum,(Cham.) DC.,flowering plants,Accepted,Bignoniaceae,(Cham.) DC.,-5.053889,-37.405,2006-09-13,SpeciesLink,UFC,UFC,UFC,EAC,418,1
Heliotropium transalpinum,Heliotropiaceae,Heliophytum monostachyum (Cham.) DC.,Boraginaceae,Heliophytum monostachyum,(Cham.) DC.,flowering plants,Accepted,Boraginaceae,Vell.,-22.48222,-42.9125,,GBIF,G,G,G,Geneva Herbarium – De Candolle's Prodromus (G-DC),3547,1
Tachigali subvelutina,Fabaceae,Tachigali subvelutina (Benth.) Oliveira-Filho,Fabaceae,Tachigali subvelutina,(Benth.) Oliveira-Filho,flowering plants,Accepted,Fabaceae,(Benth.) Oliveira-Filho,-14.876944,-43.0375,2017-02-16,GBIF,Universidade Federal de Minas Gerais (UFMG),Universidade Federal de Minas Gerais (UFMG),Universidade Federal de Minas Gerais (UFMG),BHCB,2515,1
Helicteres velutina,Malvaceae,Helicteres velutina K.Schum.,Malvaceae,Helicteres velutina,K. Schum.,flowering plants,Accepted,Malvaceae,K. Schum.,-14.777222,-42.593056,2009-08-04,GBIF,Universidade Federal da Bahia (UFBA),Universidade Federal da Bahia (UFBA),Universidade Federal da Bahia (UFBA),ALCB,2879,1
Croton bidentatus,Euphorbiaceae,Croton bidentatus Müll.Arg.,Euphorbiaceae,Croton bidentatus,Müll.Arg.,flowering plants,Accepted,Euphorbiaceae,Müll.Arg.,-19.9075,-40.553056,2001-11-27,GBIF,MBML,MBML,MBML,MBML-HERBARIO,3510,1
Petunia scheideana,Solanaceae,Petunia scheideana L.B.Sm. & Downs,Solanaceae,Petunia scheideana,L.B. Sm. & Downs,flowering plants,Accepted,Solanaceae,L.B. Sm. & Downs,-25.459167,-51.520278,2005-11-23,GBIF,UFRGS,UFRGS,UFRGS,ICN,2637,1
Eragrostis cataclasta,Poaceae,Eragrostis cataclasta Nicora,Poaceae,Eragrostis cataclasta,Nicora,flowering plants,Accepted,Poaceae,Nicora,-29.033333,-50.133333,2005-04-24,GBIF,IAP,IAP,IAP,PACA-AGP,1722,1
Chrysophyllum flexuosum,Sapotaceae,Chrysophyllum flexuosum Mart.,Sapotaceae,Chrysophyllum flexuosum,Mart.,flowering plants,Accepted,Sapotaceae,Mart.,-24.675833,-47.876944,2000-04-24,GBIF,"Escola Superior de Agricultura Luiz de Queiroz, ESALQ","Escola Superior de Agricultura Luiz de Queiroz, ESALQ","Escola Superior de Agricultura Luiz de Queiroz, ESALQ",ESA,2472,1
Henriettea succosa,Melastomataceae,Henriettea succosa DC.,Melastomataceae,Henriettea succosa,(Aubl.) DC.,flowering plants,Accepted,Melastomataceae,(Aubl.) DC.,-10.8339,-52.8731,,GBIF,F,F,F,Botany,3567,1
Hyptis hilarii,Lamiaceae,Hyptis hilarii Benth.,Lamiaceae,Hyptis hilarii,Benth.,flowering plants,Accepted,Lamiaceae,Benth.,-15.883333,-48.016667,2003-01-01,GBIF,UnB,UnB,UnB,UB,3120,1
Eugenia cupulata,Myrtaceae,Eugenia cupulata Amshoff,Myrtaceae,Eugenia cupulata,Amshoff,flowering plants,Accepted,Myrtaceae,Amshoff,,,1981-08-14,NY,NY,NY,NY,Herbarium,104,1
Stachytarpheta maximiliani,Verbenaceae,Stachytarpheta maximiliani Schauer,Verbenaceae,Stachytarpheta maximiliani,Schauer,flowering plants,Accepted,Verbenaceae,Schauer,-9.541111,-35.8325,2008-03-29,GBIF,IMA,IMA,IMA,MAC,2458,1
Disynaphia spathulata,Asteraceae,Disynaphia spathulata (Hook. & Arn.) R.M.King & H.Rob.,Asteraceae,Disynaphia spathulata,(Hook. & Arn.) R.M. King & H. Rob.,flowering plants,Accepted,Asteraceae,(Hook. & Arn.) R.M. King & H. Rob.,-14,-47,1979-01-24,GBIF,"Instituto de Botânica, IBT","Instituto de Botânica, IBT","Instituto de Botânica, IBT",SP,3012,1
Chiococca alba,Rubiaceae,Chiococca alba Hitchc.,Rubiaceae,Chiococca alba,(L.) Hitchc.,flowering plants,Accepted,Rubiaceae,(L.) Hitchc.,-9.813219,-35.947886,1982-06-28,GBIF,IMA,IMA,IMA,MAC,2458,1
,Rutaceae,Clausena Burm.f.,Rutaceae,Clausena,Burm. f.,flowering plants,Accepted,Rutaceae,Burm. f.,-22.87025,-47.07717,1964-10-19,GBIF,IAC,IAC,IAC,IAC,3493,1
Psidium grandifolium,Myrtaceae,Psidium cinereum,Myrtaceae,Psidium cinereum,Mart. ex DC.,flowering plants,Accepted,Myrtaceae,DC.,-22.033333,-47.5,1994-11-24,SpeciesLink,IBt,IBt,IBt,SP,971,1
Croton sellowii,Euphorbiaceae,Croton sellowii Baill.,Euphorbiaceae,Croton sellowii,Baill.,flowering plants,Accepted,Euphorbiaceae,Baill.,-10.78875,-36.976556,2000-06-16,NY,NY,NY,NY,Herbarium,104,1
Leptoscela ruellioides,Rubiaceae,Leptoscela ruellioides Hook.f.,Rubiaceae,Leptoscela ruellioides,Hook.f.,flowering plants,Accepted,Rubiaceae,Hook.f.,-12.185556,-38.4225,2001-01-16,GBIF,Universidade Federal da Bahia (UFBA),Universidade Federal da Bahia (UFBA),Universidade Federal da Bahia (UFBA),ALCB,2879,1
Typha domingensis,Typhaceae,Typha domingensis Pers.,Typhaceae,Typha domingensis,Pers.,flowering plants,Accepted,Typhaceae,Pers.,-10.6667,-39.7167,1974-02-21,GBIF,US,US,US,Botany,3271,1
Bulbostylis sellowiana,Cyperaceae,Bulbostylis sellowiana,Cyperaceae,Bulbostylis sellowiana,(Kunth) Palla,flowering plants,Accepted,Cyperaceae,(Kunth) Palla,-14.091111,-47.509167,1997-11-01,SpeciesLink,UnB,UnB,UnB,UB,1227,1
,Ochnaceae,Ochnaceae,Ochnaceae,Ochnaceae,DC.,flowering plants,Accepted,Ochnaceae,DC.,-2.683333,-60.283333,1998-01-01,SpeciesLink,INPA,INPA,INPA,INPA-Herbario,619,1
Oldenlandia dusenii,Rubiaceae,Oldenlandia dusenii Standl.,Rubiaceae,Oldenlandia dusenii,Standl.,flowering plants,Accepted,Rubiaceae,Standl.,-25.41917,-53.18056,1916-01-26,NY,NY,NY,NY,Herbarium,104,1
Ocotea splendens,Lauraceae,Ocotea splendens,Lauraceae,Ocotea splendens,(Meisn.) Baill.,flowering plants,Accepted,Lauraceae,(Meisn.) Baill.,-2.416667,-59.816667,1981-01-01,SpeciesLink,INPA,INPA,INPA,INPA-Herbario,619,1
,Costaceae,Costus L.,Costaceae,Costus,L.,flowering plants,Accepted,Costaceae,L.,-3.75,-49.65,1980-03-19,MO,,,,,280,1
Salacia grandifolia,Celastraceae,Salacia grandifolia (Mart.) G.Don,Celastraceae,Salacia grandifolia,(Mart.) G. Don,flowering plants,Accepted,Celastraceae,(Mart.) G. Don,-22.474444,-42.931944,2010-09-30,GBIF,JBRJ,JBRJ,JBRJ,RB,1928,1
Stomatanthes polycephalus,Asteraceae,Stomatanthes polycephalus (Sch.Bip. ex B.L.Rob.) H.Rob.,Asteraceae,Stomatanthes polycephalus,(Sch. Bip. ex B.L. Rob.) H. Rob.,flowering plants,Accepted,Asteraceae,(Sch. Bip. ex B.L. Rob.) H. Rob.,-18.56,-43.853889,2008-09-23,GBIF,Universidade Federal da Bahia (UFBA),Universidade Federal da Bahia (UFBA),Universidade Federal da Bahia (UFBA),ALCB,2879,1
,Menispermaceae,Cissampelos L.,Menispermaceae,Cissampelos,L.,flowering plants,Accepted,Menispermaceae,L.,-22.9706,-46.9958,1994-06-14,GBIF,IAC,IAC,IAC,IAC,3493,1
,Olacaceae,Heisteria,Olacaceae,Heisteria,Jacq.,flowering plants,Accepted,Olacaceae,Jacq.,-20.658056,-40.510833,1987-09-01,SpeciesLink,UFES,UFES,UFES,VIES,1307,1
Macrolobium pendulum,Fabaceae,Macrolobium pendulum Willd. ex Vogel,Fabaceae,Macrolobium pendulum,Willd. ex Vogel,flowering plants,Accepted,Fabaceae,Willd. ex Vogel,-0.133333,-51.8,1984-12-22,GBIF,IEPA,IEPA,IEPA,HAMAB,1758,1
Amanoa oblongifolia,Phyllanthaceae,Amanoa oblongifolia Müll.Arg.,Phyllanthaceae,Amanoa oblongifolia,Müll. Arg.,flowering plants,Accepted,Phyllanthaceae,Müll. Arg.,-1,-67,1986-04-22,GBIF,Instituto Nacional de Pesquisas da Amazônia (INPA),Instituto Nacional de Pesquisas da Amazônia (INPA),Instituto Nacional de Pesquisas da Amazônia (INPA),"Coleção Botânica, Instituto Nacional de Pesquisas da Amazônia (INPA)",2095,1
Guatteria australis,Annonaceae,Guatteria australis A.St.-Hil.,Annonaceae,Guatteria australis,A. St.-Hil.,flowering plants,Accepted,Annonaceae,A. St.-Hil.,-22.7553,-46.1447,1999-10-11,GBIF,IAC,IAC,IAC,IAC,3493,1
Handroanthus chrysotrichus,BIGNONIACEAE,Tabebuia chrysotricha,Bignoniaceae,Tabebuia chrysotricha,(Mart. ex A. DC.) Standl.,flowering plants,Accepted,Bignoniaceae,(Mart. ex A. DC.) Mattos,-24.064167,-49.067778,2009-08-26,SpeciesLink,IF,IF,IF,SPSF,1153,1
Diplusodon argenteus,Lythraceae,Diplusodon argenteus Lourteig,Lythraceae,Diplusodon argenteus,Lourteig,flowering plants,Accepted,Lythraceae,Lourteig,-13.625278,-47.485,2011-05-21,GBIF,UnB,UnB,UnB,UB,3120,1
Sinningia allagophylla,Gesneriaceae,Sinningia allagophylla (Mart.) Wiehler,Gesneriaceae,Sinningia allagophylla,(Mart.) Wiehler,flowering plants,Accepted,Gesneriaceae,(Mart.) Wiehler,-21.92361,-46.38583,,NY,NY,NY,NY,Herbarium,104,1
,Acanthaceae,Acanthaceae,Acanthaceae,Acanthaceae,Juss.,flowering plants,Accepted,Acanthaceae,Juss.,-14.75,-55.066667,1997-10-07,GBIF,UFMT,UFMT,UFMT,UFMT,3531,1
Leandra multisetosa,Melastomataceae,Leandra multisetosa Cogn.,Melastomataceae,Leandra multisetosa,Cogn.,flowering plants,Accepted,Melastomataceae,Cogn.,-10.8339,-52.8731,,GBIF,F,F,F,Botany,3567,1
Scleria hirtella,Cyperaceae,Scleria hirtella Sw.,Cyperaceae,Scleria hirtella,Sw.,flowering plants,Accepted,Cyperaceae,Sw.,-22.505,-43.17833,1984-06-01,NY,NY,NY,NY,Herbarium,104,1
Marcetia bahiensis,Melastomataceae,Marcetia bahiensis (Brade & Markgr.) Wurdack,Melastomataceae,Marcetia bahiensis,(Brade & Markgr.) Wurdack,flowering plants,Accepted,Melastomataceae,(Brade & Markgr.) Wurdack,-12.560833,-41.405833,2012-02-12,GBIF,JBRJ,JBRJ,JBRJ,RB,1928,1
Rhynchospora albiceps,Cyperaceae,Rhynchospora albiceps Kunth,Cyperaceae,Rhynchospora albiceps,Kunth,flowering plants,Accepted,Cyperaceae,Kunth,-13.58,-41.8,1977-03-27,GBIF,US,US,US,Botany,3271,1
Aegiphila pernambucensis,Lamiaceae,Aegiphila pernambucensis Moldenke,Lamiaceae,Aegiphila pernambucensis,Moldenke,flowering plants,Accepted,Lamiaceae,Moldenke,-8.201944,-35.004722,2008-04-12,GBIF,UFPE,UFPE,UFPE,UFP,2854,1
Ocotea catharinensis,Lauraceae,Ocotea catharinensis Mez,Lauraceae,Ocotea catharinensis,Mez,flowering plants,Accepted,Lauraceae,Mez,-23.3511,-45.3247,2011-06-30,GBIF,UNICAMP,UNICAMP,UNICAMP,UEC,2136,1
,Loranthaceae,Struthanthus Mart.,Loranthaceae,Struthanthus,Mart.,flowering plants,Accepted,Loranthaceae,Mart.,-13.316667,-41.85,1993-10-25,GBIF,UEFS,UEFS,UEFS,HUEFS,2756,1
Emmotum nitens,Icacinaceae,Emmotum nitens Miers,Icacinaceae,Emmotum nitens,(Benth.) Miers,flowering plants,Accepted,Icacinaceae,(Benth.) Miers,-15.583333,-47.45,1983-04-04,GBIF,UFU,UFU,UFU,HUFU,2245,1
Schinus molle,Anacardiaceae,Schinus molle L.,Anacardiaceae,Schinus molle,L.,flowering plants,Accepted,Anacardiaceae,L.,-29.23275,-54.898167,2012-01-01,GBIF,Museu de Ciências Naturais - Fundação Zoobotânica do Rio Grande do Sul (MCN-FZBRS),Museu de Ciências Naturais - Fundação Zoobotânica do Rio Grande do Sul (MCN-FZBRS),Museu de Ciências Naturais - Fundação Zoobotânica do Rio Grande do Sul (MCN-FZBRS),HAS,1513,1
Becquerelia cymosa,Cyperaceae,Becquerelia cymosa Kunth,Cyperaceae,Becquerelia cymosa,Kunth,flowering plants,No opinion,Cyperaceae,Kunth,-13.578056,-39.707778,2005-05-22,GBIF,Comissão Executiva do Plano da Lavoura Cacaueira (CEPLAC),Comissão Executiva do Plano da Lavoura Cacaueira (CEPLAC),Comissão Executiva do Plano da Lavoura Cacaueira (CEPLAC),CEPEC,2724,1
