Accepted name,Name as entered,locality/site,Country,Latitude,Longitude,Altitude (m),Vegetation type,Reference,Specimen details
Xylopia sericea A.St.-Hil.,Xylopia sericea A.St.-Hil.,"Ituiutaba, floresta semidecidual",Brazil,-18.948900222778,-49.425300598145,564,Seasonally dry Semideciduous Broadleaved Forest,"OLIVEIRA-FILHO, A.T. 2015 NeoTropTree. Flora arbórea da Região Neotropical: Um banco de dados envolvendo biogeografia, diversidade e conservação. Universidade Federal de Minas Gerais.",
Cedrela odorata L.,Cedrela odorata L.,"Arealva, floresta semidecidual",Brazil,-21.975299835205,-48.909400939941,506,Seasonally dry Semideciduous Broadleaved Forest,"OLIVEIRA-FILHO, A.T. 2006 Royal Botanic Gardens, Kew, U.K.; Jardim Botânico do Rio de Janeiro, Rio de Janeiro, Brazil; Universidade Federal de Minas Gerais, Belo Horizonte, Brazil; New York Botanical Garden Checklists compiled from herbarium specimens.",
Senna macranthera (DC. ex Collad.) H.S.Irwin & Barneby,Senna macranthera (DC. ex Collad.) H.S.Irwin & Barneby,"Conselheiro Pena, floresta semidecidual",Brazil,-19.30060005188,-41.551700592041,662,Seasonally dry Semideciduous Broadleaved Forest,"SCOLFORO, J.R.S. & CARVALHO, L.M.T. (EDS.) 2007 Editora UFLA, Lavras, MG, Brasil. Mapeamento e inventário da flora nativa e dos reflorestamentos de Minas Gerais.",
Machaerium paraguariense Hassl.,Machaerium paraguariense Hassl.,"Santa Fé, floresta semidecidual",Brazil,-23.076700210571,-52.790599822998,378,Seasonally dry Semideciduous Broadleaved Forest,"GOETZKE, S. 1990 Dissertação de Mestrado, Universidade Federal do Paraná, Curitiba, PR, Brasil. Estudo fitossociológico de uma sucessão secundária no Noroeste do Paraná, proposta para recuperação de áreas degradadas.",
Eriotheca macrophylla (K.Schum.) A.Robyns,Eriotheca macrophylla (K.Schum.) A.Robyns,"São João de Petrópolis, floresta semidecidual",Brazil,-19.804800033569,-40.671398162842,,,"CARVALHO, D.C.; TOLEDO, L.O.; SAITER, F.Z.; PEREIRA, M.G. 2012 Fitossociologia, aporte de serapilheira, estoques de carbono sob plantio de Corymbia citriodora com regeneração natural e floresta estacional semidecidual, Santa Teresa, ES Dissertação de Mestrado (Ciências Ambientais e Florestais), Universidade Federal Rural do Rio de Janeiro",
Maclura tinctoria (L.) D.Don ex Steud.,Maclura tinctoria (L.) D.Don ex Steud.,"Leópolis, floresta semidecidual",Brazil,-22.97500038147,-51.183898925781,564,Seasonally dry Semideciduous Broadleaved Forest,"OLIVEIRA-FILHO, A.T. 2006 Royal Botanic Gardens, Kew, U.K.; Jardim Botânico do Rio de Janeiro, Rio de Janeiro, Brazil; Universidade Federal de Minas Gerais, Belo Horizonte, Brazil; New York Botanical Garden Checklists compiled from herbarium specimens.",
Aspidosperma tomentosum Mart.,Aspidosperma tomentosum Mart.,"Fazenda Sucupira, floresta ripícola",Brazil,-15.89999961853,-48.016700744629,,,"AMARAL, A.G., PEREIRA, F.F.O. AND MUNHOZ, C.B.R. 2006 Fitossociologia de uma área de cerrado rupestre na fazenda Sucupira, Brasília-DF. Cerne 12(4):350–359.",
Cenostigma macrophyllum Tul.,Cenostigma macrophyllum Tul.,"Coxipó da Ponte, floresta ripícola",Brazil,-16.507499694824,-56.37670135498,129,Seasonally dry Semideciduous Broadleaved Forest,"OLIVEIRA-FILHO, A.T. 2015 NeoTropTree. Flora arbórea da Região Neotropical: Um banco de dados envolvendo biogeografia, diversidade e conservação. Universidade Federal de Minas Gerais.",
Aralia warmingiana (Marchal) J.Wen,Aralia warmingiana (Marchal) J.Wen,"Cornélio Procópio, floresta semidecidual",Brazil,-23.163600921631,-50.340301513672,492,Seasonally dry Semideciduous Broadleaved Forest,"OLIVEIRA-FILHO, A.T. 2015 NeoTropTree. Flora arbórea da Região Neotropical: Um banco de dados envolvendo biogeografia, diversidade e conservação. Universidade Federal de Minas Gerais.",
Duguetia lanceolata A.St.-Hil.,Duguetia lanceolata A.St.-Hil.,"Potirendaba, floresta semidecidual",Brazil,-21.126699447632,-49.326900482178,398,Seasonally dry Semideciduous Broadleaved Forest,"OLIVEIRA-FILHO, A.T. 2015 NeoTropTree. Flora arbórea da Região Neotropical: Um banco de dados envolvendo biogeografia, diversidade e conservação. Universidade Federal de Minas Gerais.",
Alchornea glandulosa Poepp. & Endl.,Alchornea glandulosa Poepp. & Endl.,"Campos, Morro do Itaoca, floresta semidecidual",Brazil,-21.793600082397,-41.448101043701,391,Seasonally dry Semideciduous Broadleaved Forest,"OLIVEIRA-FILHO, A.T. 2006 Royal Botanic Gardens, Kew, U.K.; Jardim Botânico do Rio de Janeiro, Rio de Janeiro, Brazil; Universidade Federal de Minas Gerais, Belo Horizonte, Brazil; New York Botanical Garden Checklists compiled from herbarium specimens.",
Myrsine gardneriana A.DC.,Myrsine gardneriana A.DC.,"Serra de Pacatuba, floresta decidual de brejo",Brazil,-4.0146999359131,-38.662498474121,667,Seasonally dry Deciduous Broadleaved Forest,"OLIVEIRA-FILHO, A.T. 2006 Royal Botanic Gardens, Kew, U.K.; Jardim Botânico do Rio de Janeiro, Rio de Janeiro, Brazil; Universidade Federal de Minas Gerais, Belo Horizonte, Brazil; New York Botanical Garden Checklists compiled from herbarium specimens.",
Piptocarpha macropoda Baker,Piptocarpha macropoda Baker,"Bandeira e Macarani, floresta semidecidual de cipó",Brazil,-15.780300140381,-40.51969909668,876,Seasonally dry Semideciduous Broadleaved Forest,"OLIVEIRA-FILHO, A.T.; TAMEIRÃO-NETO, E.; CARVALHO, W.A.C.; BRINA, A.E.; WERNECK, M. & ; VIDAL, C.V.; REZENDE, S.C. & PEREIRA, J.A.A. 2005  Analise floristica do compartimento arboreo de areas de floresta atlantica sensu lato na regiao das Bacias do Leste (Bahia, Minas Gerais, Espirito Santo e Rio de Janeiro). (Floristic analysis of the tree component of atlantic forest areas in central eastern Brazil .)",
Myracrodruon urundeuva Allemão,Myracrodruon urundeuva Allemão,"Ameliópolis, floresta semidecidual",Brazil,-21.843900680542,-51.270301818848,367,Seasonally dry Semideciduous Broadleaved Forest,"OLIVEIRA-FILHO, A.T. 2006 Royal Botanic Gardens, Kew, U.K.; Jardim Botânico do Rio de Janeiro, Rio de Janeiro, Brazil; Universidade Federal de Minas Gerais, Belo Horizonte, Brazil; New York Botanical Garden Checklists compiled from herbarium specimens.",
Campomanesia sessiliflora (O.Berg) Mattos,Campomanesia sessiliflora (O.Berg) Mattos,"Guapé, floresta semidecidual",Brazil,-20.766399383545,-45.86190032959,817,Seasonally dry Semideciduous Broadleaved Forest,"RATTER, J.A.; BRIDGEWATER, S. & RIBEIRO, J.F. 2003 Analysis of the floristic compositon of the Brazilian cerrado vegetation III. Comparison of the woody vegetation of 376 areas. Edinburgh Journal of Botany 60 (1): 57-109.",
Tococa guianensis Aubl.,Tococa guianensis Aubl.,"São José do Rio Pardo, floresta semidecidual",Brazil,-21.586700439453,-46.80530166626,722,Seasonally dry Semideciduous Broadleaved Forest,"OLIVEIRA-FILHO, A.T. 2006 Royal Botanic Gardens, Kew, U.K.; Jardim Botânico do Rio de Janeiro, Rio de Janeiro, Brazil; Universidade Federal de Minas Gerais, Belo Horizonte, Brazil; New York Botanical Garden Checklists compiled from herbarium specimens.",
Sapium glandulosum (L.) Morong,Sapium glandulosum (L.) Morong,"Seritinga, floresta semidecidual",Brazil,-21.90419960022,-44.558101654053,984,Seasonally dry Semideciduous Broadleaved Forest,"OLIVEIRA-FILHO, A.T. 2015 NeoTropTree. Flora arbórea da Região Neotropical: Um banco de dados envolvendo biogeografia, diversidade e conservação. Universidade Federal de Minas Gerais.",
Erythrina falcata Benth.,Erythrina falcata Benth.,"Amaporã, floresta semidecidual",Brazil,-23.064399719238,-52.336101531982,466,Seasonally dry Semideciduous Broadleaved Forest,"OLIVEIRA-FILHO, A.T. 2006 Royal Botanic Gardens, Kew, U.K.; Jardim Botânico do Rio de Janeiro, Rio de Janeiro, Brazil; Universidade Federal de Minas Gerais, Belo Horizonte, Brazil; New York Botanical Garden Checklists compiled from herbarium specimens.",
Geonoma pohliana Mart.,Geonoma pohliana Mart.,"Cabeceira Grande, floresta ripícola",Brazil,-16.029399871826,-47.094699859619,929,Seasonally dry Semideciduous Broadleaved Forest,"OLIVEIRA-FILHO, A.T. 2015 NeoTropTree. Flora arbórea da Região Neotropical: Um banco de dados envolvendo biogeografia, diversidade e conservação. Universidade Federal de Minas Gerais.",
Erythrina dominguezii Hassl.,Erythrina dominguezii Hassl.,"Sagarana, floresta decidual",Brazil,-16.193099975586,-46.154998779297,666,Seasonally dry Deciduous Broadleaved Forest,"FELFILI, J. M.; SILVA JR., M.C.; MACHADO, J.W.B.; WALTER, B.M.T.; SILVA, P.E.; HAY, J.D. 1992 Análise comparativa da florística e fitossociologica da vegetação arbórea do cerrado sensu stricto na Chapada  Pratinha,  DF-Brasil. Acta Botanica Brasilica 6",
Amburana cearensis (Allemão) A.C.Sm.,Amburana cearensis (Allemão) A.C.Sm.,"Morro do Chapéu, floresta areno-rupícola",Brazil,-11.005299568176,-41.278900146484,848,Arid Deciduous Broadleaved Forest,"QUEIROZ, L.P.; FRANÇA, F.; GIULIETTI, A.M.; MELO, E.; GONÇALVES, C.N.; FUNCH, L.S.; HARLEY, R.M.; FUNCH, R.R. & SILVA, T.S. 2005 Caatinga. In: JUNCÁ, F.A.; FUNCH, L.S. & ROCHA, W. (Orgs.) Biodiversidade e conservação da Chapada Diamantina, Ministério do meio ambiente Pp. 95-120",
Platypodium elegans Vogel,Platypodium elegans Vogel,"Cachoeira Alta, floresta ripícola",Brazil,-17.424999237061,-48.282199859619,652,Seasonally dry Semideciduous Broadleaved Forest,"OLIVEIRA-FILHO, A.T. 2006 Royal Botanic Gardens, Kew, U.K.; Jardim Botânico do Rio de Janeiro, Rio de Janeiro, Brazil; Universidade Federal de Minas Gerais, Belo Horizonte, Brazil; New York Botanical Garden Checklists compiled from herbarium specimens.",
Ceiba speciosa (A.St.-Hil.) Ravenna,Ceiba speciosa (A.St.-Hil.) Ravenna,"Paranavaí, floresta semidecidual",Brazil,-23.042200088501,-50.62329864502,453,Seasonally dry Semideciduous Broadleaved Forest,"OLIVEIRA-FILHO, A.T. 2006 Royal Botanic Gardens, Kew, U.K.; Jardim Botânico do Rio de Janeiro, Rio de Janeiro, Brazil; Universidade Federal de Minas Gerais, Belo Horizonte, Brazil; New York Botanical Garden Checklists compiled from herbarium specimens.",
Handroanthus chrysotrichus (Mart. ex A.DC.) Mattos,Handroanthus chrysotrichus (Mart. ex A.DC.) Mattos,"Serra da Calçada, floresta semidecidual",Brazil,-20.13689994812,-43.996700286865,1077,Seasonally dry Semideciduous Broadleaved Forest,"ALMEIDA, V.C. 1996 Dissertação de Mestrado, Universidade Federal do Rio de Janeiro, Rio de Janeiro, RJ. Composição florística e estrutura do estrato arbóreo de uma floresta situada na Zona da Mata Mineira, município de Lima Duarte, MG.",
Pouteria gardneri (Mart. & Miq.) Baehni,Pouteria gardneri (Mart. & Miq.) Baehni,"Bebedouro, floresta semidecidual",Brazil,-20.885599136353,-48.536701202393,571,Seasonally dry Semideciduous Broadleaved Forest,"RANGA, N.T.; REZENDE, A.A.; CAVASSAN, O.; TONIATO, M.T.Z. & CIELO FILHO, R. & STRANGHETTI, V. 2011  Caracterização florística de remanescentes de vegetação nativa da região noroeste do estado de São Paulo, In: NECCHI JR., O. (Ed.) Fauna e flora de fragmentos florestais remanescentes da região noroeste do Estado de São Paulo. Ribeirão Preto: Holos Editora; 2012",
Senna martiana (Benth.) H.S.Irwin & Barneby,Senna martiana (Benth.) H.S.Irwin & Barneby,"Serra da Capivara, floresta areno-rupícola",Brazil,-8.5313997268677,-42.737201690674,505,Arid Deciduous Broadleaved Forest,"OLIVEIRA-FILHO, A.T. 2015 NeoTropTree. Flora arbórea da Região Neotropical: Um banco de dados envolvendo biogeografia, diversidade e conservação. Universidade Federal de Minas Gerais.",
Cheiloclinium cognatum (Miers) A.C.Sm.,Cheiloclinium cognatum (Miers) A.C.Sm.,"Varginha, floresta semidecidual",Brazil,-21.616899490356,-45.398300170898,865,Seasonally dry Semideciduous Broadleaved Forest,"OLIVEIRA-FILHO, A.T. 2015 NeoTropTree. Flora arbórea da Região Neotropical: Um banco de dados envolvendo biogeografia, diversidade e conservação. Universidade Federal de Minas Gerais.",
Hirtella burchellii Britton,Hirtella burchellii Britton,"Caracol, floresta decidual",Brazil,-17.927799224854,-57.547798156738,430,Seasonally dry Deciduous Broadleaved Forest,"PRANCE, G.T. & SCHALLER, G.B. 1982 Preliminary study of some vegetation types of the Pantanal, Mato Grosso, Brazil. Brittonia 34: 228-251.",
Ocotea corymbosa (Meisn.) Mez,Ocotea corymbosa (Meisn.) Mez,"Sales, floresta semidecidual",Brazil,-21.412799835205,-49.495800018311,425,Seasonally dry Semideciduous Broadleaved Forest,"RANGA, N.T.; REZENDE, A.A.; CAVASSAN, O.; TONIATO, M.T.Z. & CIELO FILHO, R. & STRANGHETTI, V. 2011  Caracterização florística de remanescentes de vegetação nativa da região noroeste do estado de São Paulo, In: NECCHI JR., O. (Ed.) Fauna e flora de fragmentos florestais remanescentes da região noroeste do Estado de São Paulo. Ribeirão Preto: Holos Editora; 2012",
Styrax sieberi Perkins,Styrax sieberi Perkins,Graj (Maranhão),Brazil,-5.8534498214722,-46.236198425293,,,"HAIDAR, R.F. 2017. 2017 Tese de Doutorado, Universidade de Brasília, Brasília, DF, Brasil. Núcleo de florestas tropicais sazonalmente secas do Cerrado: diversidade, fitogeografia, endemismo, fenologia foliar e os controles ambientais e espaciais. 154",
Hancornia speciosa Gomes,Hancornia speciosa Gomes,TO-CRIXAS DO TOCANTINS Cerrado sensu stricto CE54,Brazil,-11.14999961853,-48.919998168945,,,"HAIDAR RF, DIAS R, AND FELFILI JM 2013 Mapeamento das regiões fitoecológicas e inventário florestal do estado do Tocantins. Palmas, TO. Governo do Estado do Tocantins p. 156",
Zanthoxylum riedelianum Engl.,Zanthoxylum riedelianum Engl.,"Esmeraldas, floresta semidecidual",Brazil,-19.790599822998,-44.164199829102,947,Seasonally dry Semideciduous Broadleaved Forest,"OLIVEIRA-FILHO, A.T. 2015 NeoTropTree. Flora arbórea da Região Neotropical: Um banco de dados envolvendo biogeografia, diversidade e conservação. Universidade Federal de Minas Gerais.",
Guadua refracta Munro,Guadua refracta Munro,"Medina, floresta semidecidual de cipó",Brazil,-16.281400680542,-41.545799255371,927,Seasonally dry Semideciduous Broadleaved Forest,"SCOLFORO, J.R.S. & CARVALHO, L.M.T. (EDS.) 2007 Editora UFLA, Lavras, MG, Brasil. Mapeamento e inventário da flora nativa e dos reflorestamentos de Minas Gerais.",
Inga cylindrica (Vell.) Mart.,Inga cylindrica (Vell.) Mart.,"Ribeirão Cascalheira, cerrado",Brazil,-15.447500228882,-58.853298187256,300,Seasonally dry Semideciduous Parkland Savanna,"OLIVEIRA-FILHO, A.T. 2015 NeoTropTree. Flora arbórea da Região Neotropical: Um banco de dados envolvendo biogeografia, diversidade e conservação. Universidade Federal de Minas Gerais.",
Machaerium villosum Vogel,Machaerium villosum Vogel,Ibiá (Minas Gerais),Brazil,-16.739999771118,-45.025699615479,,,"HAIDAR, R.F., AMARAL, A.G., LINDOSO, G.S., VALE, G.D., RIBEIRO, G.H.P.M. & SILVEIRA, I.M. 2010 Estudos de vegetação para subsidiar a criação das Reservas Extrativistas Barra do Pacuí e Buritizeiro - MG Vegetação das áreas propostas para criação das Reservas Extrativistas Barra do Pacuí e Buritizeiro.  37:27-126",
Croton floribundus Spreng.,Croton floribundus Spreng.,"Esmeraldas, floresta semidecidual",Brazil,-19.790599822998,-44.164199829102,947,Seasonally dry Semideciduous Broadleaved Forest,"OLIVEIRA-FILHO, A.T. 2015 NeoTropTree. Flora arbórea da Região Neotropical: Um banco de dados envolvendo biogeografia, diversidade e conservação. Universidade Federal de Minas Gerais.",
Myrcia venulosa DC.,Myrcia venulosa DC.,"Machado, floresta semidecidual",Brazil,-21.713899612427,-45.881900787354,905,Seasonally dry Semideciduous Broadleaved Forest,"OLIVEIRA-FILHO, A.T. 2015 NeoTropTree. Flora arbórea da Região Neotropical: Um banco de dados envolvendo biogeografia, diversidade e conservação. Universidade Federal de Minas Gerais.",
Brosimum glaucum Taub.,Brosimum glaucum Taub.,"Rio Vermelho, floresta semidecidual",Brazil,-18.24220085144,-42.9660987854,719,Seasonally dry Semideciduous Broadleaved Forest,"OLIVEIRA-FILHO, A.T. 2015 NeoTropTree. Flora arbórea da Região Neotropical: Um banco de dados envolvendo biogeografia, diversidade e conservação. Universidade Federal de Minas Gerais.",
Cordia sellowiana Cham.,Cordia sellowiana Cham.,"Mineiros, cerrado",Brazil,-15.369199752808,-48.875301361084,667,Seasonally dry Semideciduous Parkland Savanna,"FELFILI, J. M.; SEVILHA, A. C. & SILVA JÚNIOR, M. C. 2001 Comparação entre as unidades fisiográficas Chapada Pratinha, Veadeiros e Espigão Mestre de São Francisco. In: Biogeografia do bioma cerrado: estudo fitofisionômico na Chapada do Espigão Mestre do São Francisco (J.M. Felfili & M.C. Silva Júnior, orgs.). V.1, Pp. 1-152",
Chrysophyllum marginatum (Hook. & Arn.) Radlk.,Chrysophyllum marginatum (Hook. & Arn.) Radlk.,"São José do Rio Pardo, floresta semidecidual",Brazil,-21.586700439453,-46.80530166626,722,Seasonally dry Semideciduous Broadleaved Forest,"OLIVEIRA-FILHO, A.T. 2006 Royal Botanic Gardens, Kew, U.K.; Jardim Botânico do Rio de Janeiro, Rio de Janeiro, Brazil; Universidade Federal de Minas Gerais, Belo Horizonte, Brazil; New York Botanical Garden Checklists compiled from herbarium specimens.",
Cupania emarginata Cambess.,Cupania emarginata Cambess.,"Parque do Rio Doce, Marliéria, floresta semidecidual",Brazil,-19.684200286865,-42.618301391602,339,Seasonally dry Semideciduous Broadleaved Forest,"OLIVEIRA-FILHO, A.T. 2015 NeoTropTree. Flora arbórea da Região Neotropical: Um banco de dados envolvendo biogeografia, diversidade e conservação. Universidade Federal de Minas Gerais.",
Erythroxylum pelleterianum A.St.-Hil.,Erythroxylum pelleterianum A.St.-Hil.,"Marília, floresta semidecidual",Brazil,-22.016399383545,-49.92610168457,437,Seasonally dry Semideciduous Broadleaved Forest,"OLIVEIRA-FILHO, A.T. 2015 NeoTropTree. Flora arbórea da Região Neotropical: Um banco de dados envolvendo biogeografia, diversidade e conservação. Universidade Federal de Minas Gerais.",
Pseudopiptadenia contorta (DC.) G.P.Lewis & M.P.Lima,Pseudopiptadenia contorta (DC.) G.P.Lewis & M.P.Lima,"Natividade, floresta semidecidual",Brazil,-21.004199981689,-41.944400787354,,,"ABREU, K.M.P. 2013 ESTRUTURA, FLORÍSTICA E DIVERSIDADE DE FRAGMENTOS DE
FLORESTA ESTACIONAL SEMIDECIDUAL NO NORTE-NOROESTE
FLUMINENSE Tese de Doutorado, Universidade Estadual do Norte Fluminense, Campos dos Goytacazes, RJ, Brasil.",
Myrsine gardneriana A.DC.,Myrsine gardneriana A.DC.,"Varginha, floresta semidecidual",Brazil,-21.616899490356,-45.398300170898,865,Seasonally dry Semideciduous Broadleaved Forest,"OLIVEIRA-FILHO, A.T. 2015 NeoTropTree. Flora arbórea da Região Neotropical: Um banco de dados envolvendo biogeografia, diversidade e conservação. Universidade Federal de Minas Gerais.",
Allagoptera caudescens (Mart.) Kuntze,Allagoptera caudescens (Mart.) Kuntze,"São João de Petrópolis, floresta semidecidual",Brazil,-19.804399490356,-40.669200897217,273,Seasonally dry Semideciduous Broadleaved Forest,"OLIVEIRA-FILHO, A.T. 2006 Royal Botanic Gardens, Kew, U.K.; Jardim Botânico do Rio de Janeiro, Rio de Janeiro, Brazil; Universidade Federal de Minas Gerais, Belo Horizonte, Brazil; New York Botanical Garden Checklists compiled from herbarium specimens.",
Metrodorea stipularis Mart.,Metrodorea stipularis Mart.,"Tiradentes, floresta semidecidual",Brazil,-21.081899642944,-44.152198791504,1106,Seasonally dry Semideciduous Broadleaved Forest,"OLIVEIRA-FILHO, A.T. 2015 NeoTropTree. Flora arbórea da Região Neotropical: Um banco de dados envolvendo biogeografia, diversidade e conservação. Universidade Federal de Minas Gerais.",
Pera glabrata (Schott) Poepp. ex Baill.,Pera glabrata (Schott) Poepp. ex Baill.,"Araruama, Praia Seca, restinga estacional",Brazil,-22.934400558472,-42.334701538086,8,Seasonally dry Semideciduous Broadleaved Forest,"OLIVEIRA-FILHO, A.T. 2015 NeoTropTree. Flora arbórea da Região Neotropical: Um banco de dados envolvendo biogeografia, diversidade e conservação. Universidade Federal de Minas Gerais.",
Myrcia hebepetala DC.,Myrcia hebepetala DC.,"Morro do Ferro, floresta semidecidual",Brazil,-20.760799407959,-44.534698486328,1187,Seasonally dry Semideciduous Broadleaved Forest,"OLIVEIRA-FILHO, A.T. 2015 NeoTropTree. Flora arbórea da Região Neotropical: Um banco de dados envolvendo biogeografia, diversidade e conservação. Universidade Federal de Minas Gerais.",
Cabralea canjerana (Vell.) Mart.,Cabralea canjerana (Vell.) Mart.,"Ribeirão do Pinhal, floresta semidecidual",Brazil,-23.915800094604,-51.953300476074,351,Seasonally cold Semideciduous Broadleaved Forest,"BORGO, M. 1999 Monografia de Bacharelado, Universidade Estadual do Paraná, Curitiba, PR, Caracterização do componente arbóreo de um remanescente de Floresta Estacional Semidecidual Submontana no Parque Estadual de Vila Rica do Espírito Santo, Fênix - PR.",
Spondias mombin L.,Spondias mombin L.,"Monte Santo, cerradão saturável",Brazil,-6.5331001281738,-47.610801696777,233,Seasonally dry Semideciduous Forested Savanna,"DAMBRÓS, L.A.; OLIVEIRA-FILHO, L.C.; FREIRE, E.C.; LIMA, J.P.S.; PEREIRA, J.D.A.; SILVA, S.S. & FORZANI, J.R.R. 2005 Zoneamento ecológico-econômico; Inventário florestal e levantamento Projeto de gestão ambiental integrada da Região do Bico do Papagaio.",
Qualea cordata (Mart.) Spreng.,Qualea cordata (Mart.) Spreng.,"Serra do Cipó, Lapinha, nanofloresta rupícola",Brazil,-19.160600662231,-43.651401519775,1113,Seasonally dry Semideciduous Broadleaved Forest,"BOTREL, R.T.; OLIVEIRA-FILHO, A.T.; RODRIGUES, L.A. & CURI, N. 2002 Composição florística e estrutura da comunidade arbórea de um fragmento de floresta estacional semidecidual em Ingaí, MG, e a influência de variáveis ambientais na distribuição das espécies",
Dendropanax cuneatus (DC.) Decne. & Planch.,Dendropanax cuneatus (DC.) Decne. & Planch.,"Cosmópolis, floresta semidecidual",Brazil,-22.606700897217,-47.040599822998,641,Seasonally dry Semideciduous Broadleaved Forest,"VINCENT, R.C. 1997 Dissertação de Mestrado, Universidade de São Paulo, São Paulo, SP, Brasil. Florística, estrutura e sucessão de matas ripárias em Cosmópolis (SP).",
Chloroleucon foliolosum (Benth.) G.P.Lewis,Chloroleucon foliolosum (Benth.) G.P.Lewis,"Barra de São Miguel, caatinga quartzosa",Brazil,-7.7403001785278,-36.395801544189,517,Arid Deciduous Broadleaved Forest,"GOMES, M.A.F. 1980 A vegetação dos Carirís Velhos, no estado da Paraíba. Vegetalia - Escritos e documentos (UNESP) 14.",
Myrsine laetevirens (Mez) Arechav.,Myrsine laetevirens (Mez) Arechav.,"Frederico Westphalen, floresta semidecidual",Brazil,-27.366399765015,-53.347198486328,491,Seasonally cold Semideciduous Broadleaved Forest,"SCIPIONI, M.C.; FINGER, C.A.G.; CANTARELLI, E.B.; DENARDI, L. & MEYER, E.A. 2011 Fitossociologia em fragmento florestal no noroeste do estado do Rio Grande do Sul phytosociological study in a forest fragment in the northwest of Rio Grande do Sul state. C.",
Guatteria australis A.St.-Hil.,Guatteria australis A.St.-Hil.,"Pedreira, floresta semidecidual",Brazil,-22.698900222778,-46.839401245117,783,Seasonally dry Semideciduous Broadleaved Forest,"YAMAMOTO, L.F.; KINOSHITA, L.S. & MARTINS, F.R. 2005 Florística dos componentes arbóreo e arbustivo de um trecho da Floresta Estacional Semidecídua Montana, município de Pedreira, estado de São Paulo. Revista Brasileira de Botânica 28 (1): 191-202.",
Stryphnodendron polyphyllum Mart.,Stryphnodendron polyphyllum Mart.,"Braúnas, floresta semidecidual",Brazil,-19.140300750732,-42.763301849365,438,Seasonally dry Semideciduous Broadleaved Forest,"OLIVEIRA-FILHO, A.T.; CARVALHO, D.A.; VILELA, E.A.; CURI, N. & FONTES, M.A.L. 2004 Revista Brasil Diversity and structure of the tree community of a patch of tropical secondary forest of the Brazilian Atlantic Forest Domain 15 and 40 years after logging.",
Hirtella martiana Hook.f.,Hirtella martiana Hook.f.,"Januária, Brejo do Amparo, caatinga arbórea",Brazil,-15.445799827576,-44.409400939941,549,Arid Deciduous Broadleaved Forest,"SCOLFORO, J.R.S. & CARVALHO, L.M.T. (EDS.) 2007 Editora UFLA, Lavras, MG, Brasil. Mapeamento e inventário da flora nativa e dos reflorestamentos de Minas Gerais.",
Machaonia brasiliensis (Hoffmanss. ex Humb.) Cham. & Schltdl.,Machaonia brasiliensis (Hoffmanss. ex Humb.) Cham. & Schltdl.,"Janaúba, caatinga arbórea",Brazil,-15.758899688721,-43.669399261475,523,Arid Deciduous Broadleaved Forest,"SCOLFORO, J.R.S. & CARVALHO, L.M.T. (EDS.) 2007 Editora UFLA, Lavras, MG, Brasil. Mapeamento e inventário da flora nativa e dos reflorestamentos de Minas Gerais.",
Duguetia riedeliana R.E.Fr.,Duguetia riedeliana R.E.Fr.,"Quissamã, floresta semidecidual de tabuleiro",Brazil,-22.031700134277,-41.670299530029,51,Seasonally dry Semideciduous Broadleaved Forest,"OLIVEIRA-FILHO, A.T. 2006 Royal Botanic Gardens, Kew, U.K.; Jardim Botânico do Rio de Janeiro, Rio de Janeiro, Brazil; Universidade Federal de Minas Gerais, Belo Horizonte, Brazil; New York Botanical Garden Checklists compiled from herbarium specimens.",
Guettarda uruguensis Cham. & Schltdl.,Guettarda uruguensis Cham. & Schltdl.,"Ouro Preto, Uaimií, floresta semidecidual",Brazil,-20.29109954834,-43.548099517822,1300,Seasonally dry Semideciduous Broadleaved Forest,"OLIVEIRA-FILHO, A.T. 2015 NeoTropTree. Flora arbórea da Região Neotropical: Um banco de dados envolvendo biogeografia, diversidade e conservação. Universidade Federal de Minas Gerais.",
Dalbergia frutescens (Vell.) Britton,Dalbergia frutescens (Vell.) Britton,"Ribeirão do Pinhal, floresta semidecidual",Brazil,-23.915800094604,-51.953300476074,351,Seasonally cold Semideciduous Broadleaved Forest,"BORGO, M. 1999 Monografia de Bacharelado, Universidade Estadual do Paraná, Curitiba, PR, Caracterização do componente arbóreo de um remanescente de Floresta Estacional Semidecidual Submontana no Parque Estadual de Vila Rica do Espírito Santo, Fênix - PR.",
Cecropia pachystachya Trécul,Cecropia pachystachya Trécul,"Botucatu, floresta semidecidual",Brazil,-22.83749961853,-48.426399230957,795,Seasonally dry Semideciduous Broadleaved Forest,"OLIVEIRA-FILHO, A.T. 2015 NeoTropTree. Flora arbórea da Região Neotropical: Um banco de dados envolvendo biogeografia, diversidade e conservação. Universidade Federal de Minas Gerais.",
Tocoyena formosa (Cham. & Schltdl.) K.Schum.,Tocoyena formosa (Cham. & Schltdl.) K.Schum.,TO-CHAPADA DA NATIVIDADE Cerrado sensu stricto CE51,Brazil,-11.66250038147,-47.822700500488,,,"HAIDAR RF, DIAS R, AND FELFILI JM 2013 Mapeamento das regiões fitoecológicas e inventário florestal do estado do Tocantins. Palmas, TO. Governo do Estado do Tocantins p. 156",
Hirtella hebeclada Moric. ex DC.,Hirtella hebeclada Moric. ex DC.,"Ouro Branco, floresta semidecidual",Brazil,-20.497200012207,-43.724201202393,1053,Seasonally dry Semideciduous Broadleaved Forest,"OLIVEIRA-FILHO, A.T. 2015 NeoTropTree. Flora arbórea da Região Neotropical: Um banco de dados envolvendo biogeografia, diversidade e conservação. Universidade Federal de Minas Gerais.",
Pisonia zapallo Griseb.,Pisonia zapallo Griseb.,"Viçosa, floresta semidecidual",Brazil,-20.777500152588,-42.872798919678,719,Seasonally dry Semideciduous Broadleaved Forest,"OLIVEIRA-FILHO, A.T. 2015 NeoTropTree. Flora arbórea da Região Neotropical: Um banco de dados envolvendo biogeografia, diversidade e conservação. Universidade Federal de Minas Gerais.",
Blepharocalyx salicifolius (Kunth) O.Berg,Blepharocalyx salicifolius (Kunth) O.Berg,"Sabará, Chácara do Lessa, floresta semidecidual",Brazil,-19.878299713135,-43.808898925781,905,Seasonally dry Semideciduous Broadleaved Forest,"OLIVEIRA-FILHO, A.T. 2015 NeoTropTree. Flora arbórea da Região Neotropical: Um banco de dados envolvendo biogeografia, diversidade e conservação. Universidade Federal de Minas Gerais.",
Machaerium floridum (Mart. ex Benth.) Ducke,Machaerium floridum (Mart. ex Benth.) Ducke,"Viçosa, floresta semidecidual",Brazil,-20.777500152588,-42.872798919678,719,Seasonally dry Semideciduous Broadleaved Forest,"OLIVEIRA-FILHO, A.T. 2015 NeoTropTree. Flora arbórea da Região Neotropical: Um banco de dados envolvendo biogeografia, diversidade e conservação. Universidade Federal de Minas Gerais.",
Mabea fistulifera Mart.,Mabea fistulifera Mart.,"Frei Gaspar, floresta semidecidual",Brazil,-18.072500228882,-41.4660987854,734,Seasonally dry Semideciduous Broadleaved Forest,"REIS, H.; SCOLFORO, J.R.S.; OLIVEIRA, A.D.; OLIVEIRA-FILHO, A.T.; MELLO, J.M. 2007 Análise da composição florística, diversidade e similaridade de fragmentos de mata atlântica em Minas Gerais. Cerne 13 (3): 280-290.",
Sapium glandulosum (L.) Morong,Sapium glandulosum (L.) Morong,"Douradina, floresta semidecidual",Brazil,-23.430299758911,-51.944400787354,532,Seasonally dry Semideciduous Broadleaved Forest,"OLIVEIRA-FILHO, A.T. 2006 Royal Botanic Gardens, Kew, U.K.; Jardim Botânico do Rio de Janeiro, Rio de Janeiro, Brazil; Universidade Federal de Minas Gerais, Belo Horizonte, Brazil; New York Botanical Garden Checklists compiled from herbarium specimens.",
Miconia theizans (Bonpl.) Cogn.,Miconia theizans (Bonpl.) Cogn.,"Peixe Cru, carrasco",Brazil,-17.118099212646,-42.948600769043,700,Seasonally dry Semideciduous Broadleaved Forest,"SCOLFORO, J.R.S. & CARVALHO, L.M.T. (EDS.) 2007 Editora UFLA, Lavras, MG, Brasil. Mapeamento e inventário da flora nativa e dos reflorestamentos de Minas Gerais.",
Actinostemon concolor (Spreng.) Müll.Arg.,Actinostemon concolor (Spreng.) Müll.Arg.,"Caratinga, Embratel, floresta semidecidual",Brazil,-19.84580039978,-42.127799987793,952,Seasonally dry Semideciduous Broadleaved Forest,"SCOLFORO, J.R.S. & CARVALHO, L.M.T. (EDS.) 2007 Editora UFLA, Lavras, MG, Brasil. Mapeamento e inventário da flora nativa e dos reflorestamentos de Minas Gerais.",
Pouteria glomerata (Miq.) Radlk.,Pouteria glomerata (Miq.) Radlk.,"Rio Negro de Mato Grosso, floresta ripícola",Brazil,-21.158599853516,-55.712799072266,267,Seasonally dry Semideciduous Broadleaved Forest,"OLIVEIRA-FILHO, A.T. 2015 NeoTropTree. Flora arbórea da Região Neotropical: Um banco de dados envolvendo biogeografia, diversidade e conservação. Universidade Federal de Minas Gerais.",
Calophyllum brasiliense Cambess.,Calophyllum brasiliense Cambess.,"Taquaritinga, floresta semidecidual",Brazil,-21.40419960022,-48.68920135498,526,Seasonally dry Semideciduous Broadleaved Forest,"RANGA, N.T.; REZENDE, A.A.; CAVASSAN, O.; TONIATO, M.T.Z. & CIELO FILHO, R. & STRANGHETTI, V. 2011  Caracterização florística de remanescentes de vegetação nativa da região noroeste do estado de São Paulo, In: NECCHI JR., O. (Ed.) Fauna e flora de fragmentos florestais remanescentes da região noroeste do Estado de São Paulo. Ribeirão Preto: Holos Editora; 2012",
Faramea nigrescens Mart.,Faramea nigrescens Mart.,"Serra da Moeda, floresta semidecidual",Brazil,-20.270299911499,-43.969398498535,1136,Seasonally dry Semideciduous Broadleaved Forest,"OLIVEIRA-FILHO, A.T. 2015 NeoTropTree. Flora arbórea da Região Neotropical: Um banco de dados envolvendo biogeografia, diversidade e conservação. Universidade Federal de Minas Gerais.",
Albizia inundata (Mart.) Barneby & J.W.Grimes,Albizia inundata (Mart.) Barneby & J.W.Grimes,"Capitão Enéas, caatinga arbórea",Brazil,-16.150800704956,-43.719699859619,766,Arid Deciduous Broadleaved Forest,"OLIVEIRA-FILHO, A.T. 2015 NeoTropTree. Flora arbórea da Região Neotropical: Um banco de dados envolvendo biogeografia, diversidade e conservação. Universidade Federal de Minas Gerais.",
Myrciaria floribunda (H.West ex Willd.) O.Berg,Myrciaria floribunda (H.West ex Willd.) O.Berg,"Nanuque, floresta semidecidual",Brazil,-17.83219909668,-40.280799865723,224,Seasonally dry Semideciduous Broadleaved Forest,"OLIVEIRA-FILHO, A.T. 2015 NeoTropTree. Flora arbórea da Região Neotropical: Um banco de dados envolvendo biogeografia, diversidade e conservação. Universidade Federal de Minas Gerais.",
Miconia sellowiana Naudin,Miconia sellowiana Naudin,"Avaré, floresta semidecidual",Brazil,-23.206399917603,-48.901100158691,657,Seasonally dry Semideciduous Broadleaved Forest,"OLIVEIRA-FILHO, A.T. 2006 Royal Botanic Gardens, Kew, U.K.; Jardim Botânico do Rio de Janeiro, Rio de Janeiro, Brazil; Universidade Federal de Minas Gerais, Belo Horizonte, Brazil; New York Botanical Garden Checklists compiled from herbarium specimens.",
Casearia sylvestris Sw.,Casearia sylvestris Sw.,"Grão Mogol, Rio Itacambiruçu, floresta semidecidual",Brazil,-16.586700439453,-42.853900909424,641,Seasonally dry Semideciduous Broadleaved Forest,"OLIVEIRA-FILHO, A.T. 2015 NeoTropTree. Flora arbórea da Região Neotropical: Um banco de dados envolvendo biogeografia, diversidade e conservação. Universidade Federal de Minas Gerais.",
Handroanthus impetiginosus (Mart. ex DC.) Mattos,Handroanthus impetiginosus (Mart. ex DC.) Mattos,"Senhor do Bonfim, floresta decidual rupícola",Brazil,-10.405599594116,-40.215000152588,859,Seasonally dry Deciduous Broadleaved Forest,"OLIVEIRA-FILHO, A.T. 2015 NeoTropTree. Flora arbórea da Região Neotropical: Um banco de dados envolvendo biogeografia, diversidade e conservação. Universidade Federal de Minas Gerais.",
"Schefflera morototoni (Aubl.) Maguire, Steyerm. & Frodin","Schefflera morototoni (Aubl.) Maguire, Steyerm. & Frodin","Planaltina, floresta ripícola",Brazil,-15.748100280762,-47.677501678467,896,Seasonally dry Semideciduous Broadleaved Forest,"PEREIRA, B.A.S.; MENDONÇA, R.C.; FILGUEIRAS, T.S.; PAULA, J.E. & HERINGER E.P. 1985 Levantamento florístico da área de Proteção Ambiental (APA) da Bacia do Rio São Bartolomeu, Distrito Federal. In: XXXVI Congresso Nacional de Botânica, Anais. Pp. 419-493",
Myrcia obovata (O.Berg) Nied.,Myrcia obovata (O.Berg) Nied.,"Sao Thome das Letras, cerrado rupicola",Brazil,-21.719999313354,-45.000999450684,,,"LOPES, R.M.F.; FREITAS, V.L.O. & BARBOSA, P.M.M. 2013 Estrutura do componente arbóreo em áreas de cerrado no município de São Thomé das Letras, MG. Revista Árvore 37 (5): 801-813.",
Trichilia casaretti C.DC.,Trichilia casaretti C.DC.,"Armação dos Búzios, Emerenças, floresta semidecidual",Brazil,-22.815000534058,-41.958099365234,46,Seasonally dry Semideciduous Broadleaved Forest,"KURTZ, B.C.; SÁ, C.F.C. & SILVA, D.O. 2009 Fitossociologia do componente arbustivo-arbóreo de florestas semidecíduas costeiras da região de Emerenças, Área de Proteção Ambiental do Pau Brasil, Armação dos Búzios, Rio de Janeiro, Brasil. Rodriguésia 60 (1",
Diospyros sericea A.DC.,Diospyros sericea A.DC.,"Bandeira e Macarani, floresta semidecidual de cipó",Brazil,-15.780300140381,-40.51969909668,876,Seasonally dry Semideciduous Broadleaved Forest,"OLIVEIRA-FILHO, A.T.; TAMEIRÃO-NETO, E.; CARVALHO, W.A.C.; BRINA, A.E.; WERNECK, M. & ; VIDAL, C.V.; REZENDE, S.C. & PEREIRA, J.A.A. 2005  Analise floristica do compartimento arboreo de areas de floresta atlantica sensu lato na regiao das Bacias do Leste (Bahia, Minas Gerais, Espirito Santo e Rio de Janeiro). (Floristic analysis of the tree component of atlantic forest areas in central eastern Brazil .)",
Chamaecrista aspleniifolia (H.S.Irwin & Barneby) H.S.Irwin & Barneby,Chamaecrista aspleniifolia (H.S.Irwin & Barneby) H.S.Irwin & Barneby,"Mendanha, Rio Jequitinhonha, floresta semidecídua",Brazil,-18.265600204468,-43.449401855469,738,Seasonally dry Semideciduous Broadleaved Forest,"OLIVEIRA-FILHO, A.T. 2015 NeoTropTree. Flora arbórea da Região Neotropical: Um banco de dados envolvendo biogeografia, diversidade e conservação. Universidade Federal de Minas Gerais.",
Richeria grandis Vahl,Richeria grandis Vahl,"Santana de Pirapama, Rio Cipó, floresta ripícola",Brazil,-18.864999771118,-43.907501220703,613,Seasonally dry Semideciduous Broadleaved Forest,"SOUZA, P.B.; ALVES, J.A.; SILVA, A.F. & SOUZA, A.L. 2008 Composição florística da vegetação arbórea de um remanescente de cerradão, Paraopeba, MG. Revista Árvore 32 (4): 771-780.",
Zanthoxylum riedelianum Engl.,Zanthoxylum riedelianum Engl.,"Belo Horizonte, floresta semidecidual",Brazil,-19.876899719238,-43.971900939941,847,Seasonally dry Semideciduous Broadleaved Forest,"OLIVEIRA-FILHO, A.T. 2015 NeoTropTree. Flora arbórea da Região Neotropical: Um banco de dados envolvendo biogeografia, diversidade e conservação. Universidade Federal de Minas Gerais.",
Casearia aculeata Jacq.,Casearia aculeata Jacq.,"São José do Rio Preto, floresta semidecidual",Brazil,-20.723100662231,-49.418598175049,562,Seasonally dry Semideciduous Broadleaved Forest,"OLIVEIRA-FILHO, A.T. 2006 Royal Botanic Gardens, Kew, U.K.; Jardim Botânico do Rio de Janeiro, Rio de Janeiro, Brazil; Universidade Federal de Minas Gerais, Belo Horizonte, Brazil; New York Botanical Garden Checklists compiled from herbarium specimens.",
Mimosa incana (Spreng.) Benth.,Mimosa incana (Spreng.) Benth.,"Barbacena, floresta semidecidual",Brazil,-21.190599441528,-43.703098297119,1219,Seasonally dry Semideciduous Broadleaved Forest,"OLIVEIRA-FILHO, A.T. 2015 NeoTropTree. Flora arbórea da Região Neotropical: Um banco de dados envolvendo biogeografia, diversidade e conservação. Universidade Federal de Minas Gerais.",
Xylosma ciliatifolia (Clos) Eichler,Xylosma ciliatifolia (Clos) Eichler,"Lagoa Dourada, floresta semidecidual",Brazil,-20.924699783325,-44.101100921631,1115,Seasonally dry Semideciduous Broadleaved Forest,"OLIVEIRA-FILHO, A.T. 2015 NeoTropTree. Flora arbórea da Região Neotropical: Um banco de dados envolvendo biogeografia, diversidade e conservação. Universidade Federal de Minas Gerais.",
Pachystroma longifolium (Nees) I.M.Johnst.,Pachystroma longifolium (Nees) I.M.Johnst.,"Ibiporã, floresta semidecidual",Brazil,-23.193899154663,-50.620800018311,577,Seasonally dry Semideciduous Broadleaved Forest,"TOMÉ, M.V.D.F.; MIGLIORANZA, E.; VILHENA, A.H.T. & FONSECA, É.P. 1999 Composição florística e fitossociológica do Parque Estadual Mata São Francisco. Revista do Instituto Florestal 11 (1): 13-23.",
Celtis iguanaea (Jacq.) Sarg.,Celtis iguanaea (Jacq.) Sarg.,"Simonésia, floresta semidecidual",Brazil,-20.146099090576,-42.020599365234,831,Seasonally dry Semideciduous Broadleaved Forest,"OLIVEIRA-FILHO, A.T. 2015 NeoTropTree. Flora arbórea da Região Neotropical: Um banco de dados envolvendo biogeografia, diversidade e conservação. Universidade Federal de Minas Gerais.",
Byrsonima verbascifolia (L.) DC.,Byrsonima verbascifolia (L.) DC.,"Abaete, cerrado",Brazil,-19.082000732422,-44.960998535156,,,"SAPORETTI JR., A.W.; MEIRA NETO, J.A.A.; ALMADO, R.P. 2003  Fitossociologia de cerrado sensu stricto no município de Abaeté-MG. Revista Árvore 27 (3): 413-419",
Rudgea reticulata Benth.,Rudgea reticulata Benth.,"Muriaé, floresta semidecidual",Brazil,-21.080299377441,-42.428600311279,336,Seasonally dry Semideciduous Broadleaved Forest,"OLIVEIRA-FILHO, A.T. 2015 NeoTropTree. Flora arbórea da Região Neotropical: Um banco de dados envolvendo biogeografia, diversidade e conservação. Universidade Federal de Minas Gerais.",
Ixora brevifolia Benth.,Ixora brevifolia Benth.,"Serra das Araras, floresta ripícola",Brazil,-15.64640045166,-45.505001068115,633,Seasonally dry Semideciduous Broadleaved Forest,"OLIVEIRA-FILHO, A.T. 2015 NeoTropTree. Flora arbórea da Região Neotropical: Um banco de dados envolvendo biogeografia, diversidade e conservação. Universidade Federal de Minas Gerais.",
Psychotria deflexa DC.,Psychotria deflexa DC.,"Uberlândia, Miranda, floresta semidecidual",Brazil,-18.928899765015,-48.063301086426,890,Seasonally dry Semideciduous Broadleaved Forest,"OLIVEIRA-FILHO, A.T. 2015 NeoTropTree. Flora arbórea da Região Neotropical: Um banco de dados envolvendo biogeografia, diversidade e conservação. Universidade Federal de Minas Gerais.",
Eugenia myrcianthes Nied.,Eugenia myrcianthes Nied.,"Campinas, floresta semidecidual",Brazil,-22.821899414062,-47.110000610352,626,Seasonally dry Semideciduous Broadleaved Forest,"OLIVEIRA-FILHO, A.T. 2015 NeoTropTree. Flora arbórea da Região Neotropical: Um banco de dados envolvendo biogeografia, diversidade e conservação. Universidade Federal de Minas Gerais.",
Brasiliocroton mamoninha P.E.Berry & Cordeiro,Brasiliocroton mamoninha P.E.Berry & Cordeiro,"São Gabriel da Palha, floresta semidecidual",Brazil,-18.999200820923,-40.513301849365,267,Seasonally dry Semideciduous Broadleaved Forest,"OLIVEIRA-FILHO, A.T. 2006 Royal Botanic Gardens, Kew, U.K.; Jardim Botânico do Rio de Janeiro, Rio de Janeiro, Brazil; Universidade Federal de Minas Gerais, Belo Horizonte, Brazil; New York Botanical Garden Checklists compiled from herbarium specimens.",
Casearia arborea (Rich.) Urb.,Casearia arborea (Rich.) Urb.,"Mogi Guaçu, floresta semidecidual",Brazil,-22.285600662231,-47.162200927734,582,Seasonally dry Semideciduous Broadleaved Forest,"OLIVEIRA-FILHO, A.T. 2015 NeoTropTree. Flora arbórea da Região Neotropical: Um banco de dados envolvendo biogeografia, diversidade e conservação. Universidade Federal de Minas Gerais.",
Swartzia panacoco (Aubl.) R.S.Cowan,Swartzia panacoco (Aubl.) R.S.Cowan,Parque Estadual Sumaúma,Brazil,-3.0355598926544,-58.995800018311,,,"PINHEIRO, E.S., MARTINOT, J.F., CAVALCANTE, D.G., MACEDO, M.A., NASCIMIENTO, A.Z.A., MARQUES, J.P.C 2010 Paisagem, estrutura, e composiçaõ florística de um parque urbano em Manaus, Amazonas, Brasil. Rodriguésia 61(3): 531-549",
Trichilia claussenii C.DC.,Trichilia claussenii C.DC.,"Cerro Largo, floresta semidecidual",Brazil,-28.127500534058,-54.735599517822,258,Seasonally cold Semideciduous Broadleaved Forest,"OLIVEIRA-FILHO, A.T. 2006 Royal Botanic Gardens, Kew, U.K.; Jardim Botânico do Rio de Janeiro, Rio de Janeiro, Brazil; Universidade Federal de Minas Gerais, Belo Horizonte, Brazil; New York Botanical Garden Checklists compiled from herbarium specimens.",
Ocotea odorifera (Vell.) Rohwer,Ocotea odorifera (Vell.) Rohwer,"Serro, floresta semidecidual",Brazil,-18.548900604248,-43.387798309326,1120,Seasonally dry Semideciduous Broadleaved Forest,"SCOLFORO, J.R.S. & CARVALHO, L.M.T. (EDS.) 2007 Editora UFLA, Lavras, MG, Brasil. Mapeamento e inventário da flora nativa e dos reflorestamentos de Minas Gerais.",
Abarema limae Iganci & Morim,Abarema limae Iganci & Morim,"Ilha do Cabo Frio, floresta semidecidual",Brazil,-22.994699478149,-41.989200592041,257,Seasonally dry Semideciduous Broadleaved Forest,"OLIVEIRA-FILHO, A.T. 2006 Royal Botanic Gardens, Kew, U.K.; Jardim Botânico do Rio de Janeiro, Rio de Janeiro, Brazil; Universidade Federal de Minas Gerais, Belo Horizonte, Brazil; New York Botanical Garden Checklists compiled from herbarium specimens.",
Zanthoxylum fagara (L.) Sarg.,Zanthoxylum fagara (L.) Sarg.,"Palmitos, floresta semidecidual",Brazil,-27.091400146484,-53.099998474121,320,Seasonally cold Semideciduous Broadleaved Forest,"RUSCHEL, A.R.; GUERRA, M.P. & NODARI, R.O. 2009 Estrutura e composição florística de dois fragmentos da floresta estacional decidual do Alto-Uruguai, SC. Ciência Florestal 19 (2): 225-236.",
Calyptranthes pulchella DC.,Calyptranthes pulchella DC.,"Serra da Piedade, Santuário, nanofloresta rupícola",Brazil,-19.815599441528,-43.677799224854,1381,Seasonally dry Semideciduous Broadleaved Forest,"SCOLFORO, J.R.S. & CARVALHO, L.M.T. (EDS.) 2007 Editora UFLA, Lavras, MG, Brasil. Mapeamento e inventário da flora nativa e dos reflorestamentos de Minas Gerais.",
Maclura tinctoria (L.) D.Don ex Steud.,Maclura tinctoria (L.) D.Don ex Steud.,"Araguari, floresta decidual",Brazil,-18.634199142456,-48.088901519775,714,Seasonally dry Deciduous Broadleaved Forest,"OLIVEIRA-FILHO, A.T. 2015 NeoTropTree. Flora arbórea da Região Neotropical: Um banco de dados envolvendo biogeografia, diversidade e conservação. Universidade Federal de Minas Gerais.",
Miconia burchellii Triana,Miconia burchellii Triana,"Rio Jardim, floresta ripícola",Brazil,-15.888899803162,-47.455001831055,887,Seasonally dry Semideciduous Broadleaved Forest,"MORAIS, R.O.; IMAÑA-ENCINAS, J. & RIBEIRO, J.F. 2000 Fotossociologia da mata de galeria da cabeceira do rio Jardim. Boletim do Herbário Ezechias Paulo Heringer 5: 44-61.",
Sloanea hirsuta (Schott) Planch. ex Benth.,Sloanea hirsuta (Schott) Planch. ex Benth.,"Uberlândia, Sabiá, floresta semidecidual",Brazil,-18.909700393677,-48.228099822998,897,Seasonally dry Semideciduous Broadleaved Forest,"OLIVEIRA-FILHO, A.T. 2015 NeoTropTree. Flora arbórea da Região Neotropical: Um banco de dados envolvendo biogeografia, diversidade e conservação. Universidade Federal de Minas Gerais.",
Myrciaria floribunda (H.West ex Willd.) O.Berg,Myrciaria floribunda (H.West ex Willd.) O.Berg,"Carmo da Cachoeira, floresta semidecidual",Brazil,-21.428600311279,-45.199199676514,939,Seasonally dry Semideciduous Broadleaved Forest,"OLIVEIRA-FILHO, A.T. 2015 NeoTropTree. Flora arbórea da Região Neotropical: Um banco de dados envolvendo biogeografia, diversidade e conservação. Universidade Federal de Minas Gerais.",
Lacistema pubescens Mart.,Lacistema pubescens Mart.,"Jequitinhonha, Mata Escura, floresta semidecidual",Brazil,-16.343299865723,-41.090599060059,1122,Seasonally dry Semideciduous Broadleaved Forest,"COSENZA, B.A.P. 2003 Marcos Vidigal de Vasconcelos”, no município de Tombos, MG. Dissertação de Mestrado, Universidade Federal de Viçosa, Viçosa, MG, Brasil. Florística e fitossociologia na Reserva Particular do Patrimônio Natural – RPPN, “Dr.",
Diospyros sericea A.DC.,Diospyros sericea A.DC.,"Rio Jardim, floresta ripícola",Brazil,-15.888899803162,-47.455001831055,887,Seasonally dry Semideciduous Broadleaved Forest,"MORAIS, R.O.; IMAÑA-ENCINAS, J. & RIBEIRO, J.F. 2000 Fotossociologia da mata de galeria da cabeceira do rio Jardim. Boletim do Herbário Ezechias Paulo Heringer 5: 44-61.",
Ilex floribunda Reissek & Maxim.,Ilex floribunda Reissek & Maxim.,"Itaguaçu, Cinco Pontões, floresta semidecidual",Brazil,-19.797800064087,-40.941699981689,723,Seasonally dry Semideciduous Broadleaved Forest,"OLIVEIRA-FILHO, A.T.- 2006 Royal Botanic Gardens, Kew, U.K.; Jardim Botânico do Rio de Janeiro, Rio de Janeiro, Brazil; Universidade Federal de Minas Gerais, Belo Horizonte, Brazil; New York Botanical Garden Checklists compiled from herbarium specimens.",
Margaritopsis astrellantha (Wernham) L.Andersson,Margaritopsis astrellantha (Wernham) L.Andersson,"Santa Luzia do Itanhi, floresta semidecidual",Brazil,-11.354999542236,-37.421398162842,50,Seasonally dry Semideciduous Broadleaved Forest,"OLIVEIRA-FILHO, A.T. 2006 Royal Botanic Gardens, Kew, U.K.; Jardim Botânico do Rio de Janeiro, Rio de Janeiro, Brazil; Universidade Federal de Minas Gerais, Belo Horizonte, Brazil; New York Botanical Garden Checklists compiled from herbarium specimens.",
Campomanesia guazumifolia (Cambess.) O.Berg,Campomanesia guazumifolia (Cambess.) O.Berg,"São Gonçalo do Rio Preto, floresta semidecidual",Brazil,-17.999700546265,-43.396099090576,786,Seasonally dry Semideciduous Broadleaved Forest,"OLIVEIRA-FILHO, A.T. 2015 NeoTropTree. Flora arbórea da Região Neotropical: Um banco de dados envolvendo biogeografia, diversidade e conservação. Universidade Federal de Minas Gerais.",
Randia armata (Sw.) DC.,Randia armata (Sw.) DC.,"Jahu, floresta semidecidual",Brazil,-22.307800292969,-48.523601531982,585,Seasonally dry Semideciduous Broadleaved Forest,"NICOLINI-GABRIEL, E.M. & PAGANO, S.N. 1992 Composição florística do estrato arbóreo de floresta mesófila semidecídua no município de Jahu, SP. Arquivos de Biologia e Tecnologia de São Paulo 35: 725-748.",
Abarema cochliacarpos (Gomes) Barneby & J.W.Grimes,Abarema cochliacarpos (Gomes) Barneby & J.W.Grimes,"São Pedro da Aldeia, Sepeatiba, floresta semidecidual",Brazil,-22.821699142456,-42.156898498535,176,Seasonally dry Semideciduous Broadleaved Forest,"OLIVEIRA-FILHO, A.T. 2006 Royal Botanic Gardens, Kew, U.K.; Jardim Botânico do Rio de Janeiro, Rio de Janeiro, Brazil; Universidade Federal de Minas Gerais, Belo Horizonte, Brazil; New York Botanical Garden Checklists compiled from herbarium specimens.",
Cyathea phalerata Mart.,Cyathea phalerata Mart.,"Itarumã, floresta ripícola",Brazil,-17.606700897217,-52.583599090576,646,Seasonally dry Semideciduous Broadleaved Forest,"OLIVEIRA-FILHO, A.T. 2006 Royal Botanic Gardens, Kew, U.K.; Jardim Botânico do Rio de Janeiro, Rio de Janeiro, Brazil; Universidade Federal de Minas Gerais, Belo Horizonte, Brazil; New York Botanical Garden Checklists compiled from herbarium specimens.",
Cordiera elliptica (Cham.) Kuntze,Cordiera elliptica (Cham.) Kuntze,"Paramirim, caatinga arbórea",Brazil,-13.430800437927,-42.203601837158,697,Arid Deciduous Broadleaved Forest,"SANTOS, R.M. & QUEIROZ, L.P. 2008 Universidade Estadual de Feira de Santana, Feira de Santana, BA, Brazil. Checklists de áreas de caatinga e matas secas.",
Tibouchina estrellensis (Raddi) Cogn.,Tibouchina estrellensis (Raddi) Cogn.,"Santa Rita do Sapucaí, floresta semidecidual",Brazil,-22.262500762939,-45.561901092529,1324,Seasonally dry Semideciduous Broadleaved Forest,"OLIVEIRA-FILHO, A.T. 2015 NeoTropTree. Flora arbórea da Região Neotropical: Um banco de dados envolvendo biogeografia, diversidade e conservação. Universidade Federal de Minas Gerais.",
Callisthene major Mart.,Callisthene major Mart.,"Acauã, carrasco",Brazil,-17.147499084473,-42.767200469971,862,Seasonally dry Semideciduous Broadleaved Forest,"OLIVEIRA-FILHO, A.T. 2015 NeoTropTree. Flora arbórea da Região Neotropical: Um banco de dados envolvendo biogeografia, diversidade e conservação. Universidade Federal de Minas Gerais.",
Erythroxylum cuneifolium (Mart.) O.E.Schulz,Erythroxylum cuneifolium (Mart.) O.E.Schulz,"Braúna, floresta semidecidual",Brazil,-21.52919960022,-50.291698455811,477,Seasonally dry Semideciduous Broadleaved Forest,"OLIVEIRA-FILHO, A.T. 2006 Royal Botanic Gardens, Kew, U.K.; Jardim Botânico do Rio de Janeiro, Rio de Janeiro, Brazil; Universidade Federal de Minas Gerais, Belo Horizonte, Brazil; New York Botanical Garden Checklists compiled from herbarium specimens.",
Pilosocereus pachycladus F.Ritter,Pilosocereus pachycladus F.Ritter,"Pedra Furada, caatinga quartzosa",Brazil,-8.5536003112793,-36.838298797607,542,Arid Deciduous Broadleaved Forest,"OLIVEIRA-FILHO, A.T. 2015 NeoTropTree. Flora arbórea da Região Neotropical: Um banco de dados envolvendo biogeografia, diversidade e conservação. Universidade Federal de Minas Gerais.",
Endlicheria paniculata (Spreng.) J.F.Macbr.,Endlicheria paniculata (Spreng.) J.F.Macbr.,"Campinas, floresta semidecidual",Brazil,-22.821899414062,-47.110000610352,626,Seasonally dry Semideciduous Broadleaved Forest,"OLIVEIRA-FILHO, A.T. 2015 NeoTropTree. Flora arbórea da Região Neotropical: Um banco de dados envolvendo biogeografia, diversidade e conservação. Universidade Federal de Minas Gerais.",
Astronium fraxinifolium Schott,Astronium fraxinifolium Schott,Miranda_Cerradão,Brazil,-20.266700744629,-56.233299255371,,,"BUENO, M.L.; NEVES, D.R.M.; OLIVEIRA-FILHO, A.T.; LEHN, C.R.; RATTER, J.A.   2013 A study in an area of transition between seasonally dry tropical forest and mesotrophic cerradão, in Mato Grosso do sul, Southwestern Brazil   Edinburgh Journal of Botany  70(3)",
Poincianella echinata (Lam.) L.P.Queiroz,Poincianella echinata (Lam.) L.P.Queiroz,"Armação dos Búzios, Emerenças, floresta semidecidual",Brazil,-22.815000534058,-41.958099365234,46,Seasonally dry Semideciduous Broadleaved Forest,"KURTZ, B.C.; SÁ, C.F.C. & SILVA, D.O. 2009 Fitossociologia do componente arbustivo-arbóreo de florestas semidecíduas costeiras da região de Emerenças, Área de Proteção Ambiental do Pau Brasil, Armação dos Búzios, Rio de Janeiro, Brasil. Rodriguésia 60 (1",
Chrysophyllum marginatum (Hook. & Arn.) Radlk.,Chrysophyllum marginatum (Hook. & Arn.) Radlk.,"Ingaí, floresta semidecidual",Brazil,-21.408599853516,-44.892200469971,891,Seasonally dry Semideciduous Broadleaved Forest,"OLIVEIRA-FILHO, A.T. 2015 NeoTropTree. Flora arbórea da Região Neotropical: Um banco de dados envolvendo biogeografia, diversidade e conservação. Universidade Federal de Minas Gerais.",
Apterokarpos gardneri (Engl.) Rizzini,Apterokarpos gardneri (Engl.) Rizzini,"Remanso, caatinga arenícola",Brazil,-9.6569004058838,-42.219398498535,415,Arid Deciduous Broadleaved Forest,"SANTOS, R.M. & QUEIROZ, L.P. 2008 Universidade Estadual de Feira de Santana, Feira de Santana, BA, Brazil. Checklists de áreas de caatinga e matas secas.",
Syagrus oleracea (Mart.) Becc.,Syagrus oleracea (Mart.) Becc.,"Montividiu, caatinga areno-rupícola",Brazil,-15.141400337219,-42.693901062012,1068,Arid Deciduous Broadleaved Forest,"OLIVEIRA-FILHO, A.T. 2015 NeoTropTree. Flora arbórea da Região Neotropical: Um banco de dados envolvendo biogeografia, diversidade e conservação. Universidade Federal de Minas Gerais.",
Tabernaemontana catharinensis A.DC.,Tabernaemontana catharinensis A.DC.,"Derrubadas, Parque do Turvo, floresta semidecidual",Brazil,-27.227199554443,-53.881900787354,377,Seasonally cold Semideciduous Broadleaved Forest,"OLIVEIRA-FILHO, A.T. 2015 NeoTropTree. Flora arbórea da Região Neotropical: Um banco de dados envolvendo biogeografia, diversidade e conservação. Universidade Federal de Minas Gerais.",
Senegalia bahiensis (Benth.) Seigler & Ebinger,Senegalia bahiensis (Benth.) Seigler & Ebinger,"Glória, caatinga arenícola",Brazil,-9.3432998657227,-38.42440032959,412,Arid Deciduous Broadleaved Forest,"SANTOS, R.M. & QUEIROZ, L.P. 2008 Universidade Estadual de Feira de Santana, Feira de Santana, BA, Brazil. Checklists de áreas de caatinga e matas secas.",
Guettarda viburnoides Cham. & Schltdl.,Guettarda viburnoides Cham. & Schltdl.,"São José do Vale do Rio Preto, floresta semidecidual",Brazil,-22.145299911499,-42.922798156738,793,Seasonally dry Semideciduous Broadleaved Forest,"OLIVEIRA-FILHO, A.T. 2006 Royal Botanic Gardens, Kew, U.K.; Jardim Botânico do Rio de Janeiro, Rio de Janeiro, Brazil; Universidade Federal de Minas Gerais, Belo Horizonte, Brazil; New York Botanical Garden Checklists compiled from herbarium specimens.",
Mimosa bimucronata (DC.) Kuntze,Mimosa bimucronata (DC.) Kuntze,"Rosana, floresta semidecidual",Brazil,-22.568300247192,-53.062198638916,255,Seasonally dry Semideciduous Broadleaved Forest,"OLIVEIRA-FILHO, A.T. 2006 Royal Botanic Gardens, Kew, U.K.; Jardim Botânico do Rio de Janeiro, Rio de Janeiro, Brazil; Universidade Federal de Minas Gerais, Belo Horizonte, Brazil; New York Botanical Garden Checklists compiled from herbarium specimens.",
Amaioua intermedia Mart. ex Schult. & Schult.f.,Amaioua intermedia Mart. ex Schult. & Schult.f.,"Jacutinga, Pico da Forquilha, floresta semidecidual",Brazil,-22.349199295044,-46.595798492432,1107,Seasonally dry Semideciduous Broadleaved Forest,"OLIVEIRA-FILHO, A.T. 2015 NeoTropTree. Flora arbórea da Região Neotropical: Um banco de dados envolvendo biogeografia, diversidade e conservação. Universidade Federal de Minas Gerais.",
Guazuma ulmifolia Lam.,Guazuma ulmifolia Lam.,"Guapé, floresta semidecidual",Brazil,-20.766399383545,-45.86190032959,817,Seasonally dry Semideciduous Broadleaved Forest,"RATTER, J.A.; BRIDGEWATER, S. & RIBEIRO, J.F. 2003 Analysis of the floristic compositon of the Brazilian cerrado vegetation III. Comparison of the woody vegetation of 376 areas. Edinburgh Journal of Botany 60 (1): 57-109.",
Chrysophyllum marginatum (Hook. & Arn.) Radlk.,Chrysophyllum marginatum (Hook. & Arn.) Radlk.,"Rosana, floresta semidecidual",Brazil,-22.568300247192,-53.062198638916,255,Seasonally dry Semideciduous Broadleaved Forest,"OLIVEIRA-FILHO, A.T. 2006 Royal Botanic Gardens, Kew, U.K.; Jardim Botânico do Rio de Janeiro, Rio de Janeiro, Brazil; Universidade Federal de Minas Gerais, Belo Horizonte, Brazil; New York Botanical Garden Checklists compiled from herbarium specimens.",
Zanthoxylum rhoifolium Lam.,Zanthoxylum rhoifolium Lam.,"Taciba, floresta semidecidual",Brazil,-22.45359992981,-51.303100585938,434,Seasonally dry Semideciduous Broadleaved Forest,"OLIVEIRA-FILHO, A.T. 2006 Royal Botanic Gardens, Kew, U.K.; Jardim Botânico do Rio de Janeiro, Rio de Janeiro, Brazil; Universidade Federal de Minas Gerais, Belo Horizonte, Brazil; New York Botanical Garden Checklists compiled from herbarium specimens.",
Triplaris gardneriana Weddell,Triplaris gardneriana Weddell,"Berilo, caatinga arbórea",Brazil,-16.976100921631,-42.488899230957,518,Arid Deciduous Broadleaved Forest,"OLIVEIRA-FILHO, A.T. 2015 NeoTropTree. Flora arbórea da Região Neotropical: Um banco de dados envolvendo biogeografia, diversidade e conservação. Universidade Federal de Minas Gerais.",
Mimosa caesalpiniifolia Benth.,Mimosa caesalpiniifolia Benth.,"Capistrano, caatinga quartzosa",Brazil,-4.4667000770569,-38.715301513672,101,Arid Deciduous Broadleaved Forest,"MEDEIROS, J.B.L.P. 1995 Monografia de Graduação, Universidade Federal do Ceará, Fortaleza, CE, Brasil. Florística e fitossociologia de uma área de caatinga localizada na Fazenda Aracanga, município de Capistrano - CE.",
Coussapoa microcarpa (Schott) Rizzini,Coussapoa microcarpa (Schott) Rizzini,"Madre de Deus de Minas, floresta semidecidual",Brazil,-21.487199783325,-44.376098632812,935,Seasonally dry Semideciduous Broadleaved Forest,"OLIVEIRA-FILHO, A.T. 2015 NeoTropTree. Flora arbórea da Região Neotropical: Um banco de dados envolvendo biogeografia, diversidade e conservação. Universidade Federal de Minas Gerais.",
Persea fulva L.E.Kopp,Persea fulva L.E.Kopp,"Diamantina, nanofloresta rupícola",Brazil,-18.257499694824,-43.596900939941,1116,Seasonally dry Semideciduous Broadleaved Forest,"CARVALHO, W.A.C. & VIDAL, C.V. 2007 Relatório de pesquisa, Brandt Meio Ambiental Ind.Com., Belo Horizonte, MG, Brasil. Composição florística e estrutura da comunidade arbórea de um fragmento florestal às margens do rio Cervo, Nepomuceno, MG.",
Astronium fraxinifolium Schott,Astronium fraxinifolium Schott,Form (Bahia),Brazil,-11.087200164795,-45.135398864746,,,"HAIDAR, R.F. 2017. 2017 Tese de Doutorado, Universidade de Brasília, Brasília, DF, Brasil. Núcleo de florestas tropicais sazonalmente secas do Cerrado: diversidade, fitogeografia, endemismo, fenologia foliar e os controles ambientais e espaciais. 154",
Cordia sp. 2,Cordia sp. 2,"Contendas do Sincorá, caatinga alcalina",Brazil,-13.760000228882,-41.009998321533,,,"LIMA, P.C.F. & LIMA, J.L.S. 1998 Composição florística e fitossociológica de uma área de caatinga em Contendas do Sincorá, Bahia, microrregião homogênea da Chapada Diamantina. Acta Botanica Brasilica 12 (3): 441-450.",
Miconia paucidens DC,Miconia paucidens DC,"Lindóia, floresta semidecidual",Brazil,-22.500799179077,-46.642799377441,831,Seasonally dry Semideciduous Broadleaved Forest,"OLIVEIRA-FILHO, A.T. 2015 NeoTropTree. Flora arbórea da Região Neotropical: Um banco de dados envolvendo biogeografia, diversidade e conservação. Universidade Federal de Minas Gerais.",
Genipa americana L.,Genipa americana L.,"Votuporanga, floresta semidecidual",Brazil,-20.516899108887,-50.091400146484,438,Seasonally dry Semideciduous Broadleaved Forest,"RANGA, N.T.; REZENDE, A.A.; CAVASSAN, O.; TONIATO, M.T.Z. & CIELO FILHO, R. & STRANGHETTI, V. 2011  Caracterização florística de remanescentes de vegetação nativa da região noroeste do estado de São Paulo, In: NECCHI JR., O. (Ed.) Fauna e flora de fragmentos florestais remanescentes da região noroeste do Estado de São Paulo. Ribeirão Preto: Holos Editora; 2012",
Casearia sylvestris Sw.,Casearia sylvestris Sw.,"Rio Verde de Mato Grosso, floresta ripícola",Brazil,-21.131900787354,-55.864398956299,250,Seasonally dry Semideciduous Broadleaved Forest,"DAMASCENO-JUNIOR, G.A. ; NAKAJIMA, J.N. ; RESENDE, U.M. 2001 A Floristic Survey of the Rio Negro, Rio Aquidauana and Rio Miranda Watersheds (Headwaters) of the Pantanal, Mato Grosso do Sul, Brasil. In: WILLINK P.W.; CHERNOFF, B.; ALONSO  L.E., Montambault J.R., Lourival R (Eds.) A biological assessment of the aquatic ecosystems of the Pantanal, Mato Grosso do Sul, Brasil: Bulletin of Biological Assessment 18. Conservation International: Washington DC, USA. V. 18, Pp. 34-43.",
Rhamnidium elaeocarpum Reissek,Rhamnidium elaeocarpum Reissek,"Fazenda Água Limpa, floresta ripícola",Brazil,-15.964200019836,-47.94580078125,1098,Seasonally dry Semideciduous Broadleaved Forest,"OLIVEIRA-FILHO, A.T. 2015 NeoTropTree. Flora arbórea da Região Neotropical: Um banco de dados envolvendo biogeografia, diversidade e conservação. Universidade Federal de Minas Gerais.",
Inga ingoides (Rich.) Willd.,Inga ingoides (Rich.) Willd.,"Ibiá, floresta ripícola",Brazil,-19.596900939941,-46.526699066162,985,Seasonally dry Semideciduous Broadleaved Forest,"OLIVEIRA-FILHO, A.T. 2015 NeoTropTree. Flora arbórea da Região Neotropical: Um banco de dados envolvendo biogeografia, diversidade e conservação. Universidade Federal de Minas Gerais.",
Byrsonima laxiflora Griseb.,Byrsonima laxiflora Griseb.,"Ecoporanga, floresta semidedicual",Brazil,-18.428600311279,-40.815799713135,279,Seasonally dry Semideciduous Broadleaved Forest,"OLIVEIRA-FILHO, A.T. 2006 Royal Botanic Gardens, Kew, U.K.; Jardim Botânico do Rio de Janeiro, Rio de Janeiro, Brazil; Universidade Federal de Minas Gerais, Belo Horizonte, Brazil; New York Botanical Garden Checklists compiled from herbarium specimens.",
Hymenaea velutina Ducke,Hymenaea velutina Ducke,"Ubajara, carrasco arenícola",Brazil,-3.7535998821259,-41.050300598145,775,Arid Deciduous Broadleaved Forest,"OLIVEIRA-FILHO, A.T. 2015 NeoTropTree. Flora arbórea da Região Neotropical: Um banco de dados envolvendo biogeografia, diversidade e conservação. Universidade Federal de Minas Gerais.",
Cestrum strigilatum Ruiz & Pav.,Cestrum strigilatum Ruiz & Pav.,"Rebio das Perobas, floresta semidecidual",Brazil,-23.743900299072,-49.92610168457,529,Seasonally dry Semideciduous Broadleaved Forest,"OLIVEIRA-FILHO, A.T. 2006 Royal Botanic Gardens, Kew, U.K.; Jardim Botânico do Rio de Janeiro, Rio de Janeiro, Brazil; Universidade Federal de Minas Gerais, Belo Horizonte, Brazil; New York Botanical Garden Checklists compiled from herbarium specimens.",
Zanthoxylum fagara (L.) Sarg.,Zanthoxylum fagara (L.) Sarg.,"Visconde do Rio Branco, floresta semidecidual",Brazil,-21.038900375366,-42.786701202393,432,Seasonally dry Semideciduous Broadleaved Forest,"OLIVEIRA-FILHO, A.T. 2015 NeoTropTree. Flora arbórea da Região Neotropical: Um banco de dados envolvendo biogeografia, diversidade e conservação. Universidade Federal de Minas Gerais.",
Nectandra cuspidata Nees,Nectandra cuspidata Nees,"Sorriso, floresta ripícola",Brazil,-14.482799530029,-56.801898956299,219,Seasonally dry Semideciduous Broadleaved Forest,"SALIS, S.M.; POTT, V.J. & POTT, A. 1999 Fitossociologia de formações arbóreas da bacia do Alto Paraguai, Brasil. In: II Simpan, Simpósio de Recursos Naturais e Sócio-econômico do Pantanal, Corumbá, Anais. EMBRAPA, Brasília, DF, Brasil. Pp. 357-374",
Heisteria perianthomega (Vell.) Sleumer,Heisteria perianthomega (Vell.) Sleumer,"Guaçuí, floresta semidecidual",Brazil,-20.892499923706,-41.710800170898,622,Seasonally dry Semideciduous Broadleaved Forest,"CURTO, R.A. 2011 Dissertação de Mestrado, Universidade Federal do Espírito Santo, Jerônimo Monteiro, ES, Brasil. Avaliação dos métodos de estimação de altura e de estratificação vertical em uma floresta estacional semidecidual.",
Eugenia cf. piauhiensis O. Berg,Eugenia cf. piauhiensis O. Berg,"Serra das Almas, caatinga quartzosa",Brazil,-5.1413898468018,-40.901401519775,,,"LIMA, J.R.; SAMPAIO, E.V.S.B.; RODAL, M.J.N. & ARAÚJO, F.S. 2011 Physiognomy and structure of a seasonal deciduous Forest on the Ibiapaba plateau, Ceará, Brazil. Rodriguésia 62 (2): 379-389.",
Acalypha diversifolia Jacq.,Acalypha diversifolia Jacq.,"Francisco Sá, floresta ripícola",Brazil,-16.572500228882,-43.470600128174,703,Seasonally dry Semideciduous Broadleaved Forest,"OLIVEIRA-FILHO, A.T. 2015 NeoTropTree. Flora arbórea da Região Neotropical: Um banco de dados envolvendo biogeografia, diversidade e conservação. Universidade Federal de Minas Gerais.",
Seguieria americana L.,Seguieria americana L.,"Lagoa Santa, Lapinha, floresta decidual",Brazil,-19.559999465942,-43.959701538086,744,Seasonally dry Deciduous Broadleaved Forest,"SCOLFORO, J.R.S. & CARVALHO, L.M.T. (EDS.) 2007 Editora UFLA, Lavras, MG, Brasil. Mapeamento e inventário da flora nativa e dos reflorestamentos de Minas Gerais.",
Protium spruceanum (Benth.) Engl.,Protium spruceanum (Benth.) Engl.,"Gália, floresta semidecidual",Brazil,-22.406400680542,-49.696701049805,564,Seasonally dry Semideciduous Broadleaved Forest,"DURIGAN, G.; FRANCO, G.A.D.C.; SAITO, M. & BAITELLO, J.B. 2000 Estrutura e diversidade do componente arbóreo da floresta na Estação Ecológica dos Caetetus, Gália, SP. Revista Brasileira de Botânica 23 (4): 371-383.",
Xylopia emarginata Mart.,Xylopia emarginata Mart.,"Ponte de Pedra, floresta semidecidual",Brazil,-19.191699981689,-50.961700439453,367,Seasonally dry Semideciduous Broadleaved Forest,"POTT, A.; POTT, V.J.; SCIAMARELLI, A.; SARTORI, A.L.B.; RESENDE, U.M.; SCREMIN-DIAS, E.; JACQUES, E.L.; ARAGAKI, S.; NAKAJIMA, J.N.; ROMERO, R.; CRISTALDO, A.C.M. & DAMASCENO-JÚNIOR, G.A. 2006  Inventário das angiospermas no Complexo Aporé-Sucuriú. Pp. 17",
Sorocea bonplandii (Baill.) W.C.Burger et al.,Sorocea bonplandii (Baill.) W.C.Burger et al.,"Areias, floresta semidecidual",Brazil,-22.645599365234,-44.722801208496,821,Seasonally dry Semideciduous Broadleaved Forest,"FREITAS, H.S. 2010 Tese de Doutorado, Universidade de São Paulo, São Paulo, SP, Brasil. Caracterização florística e estrutural de três fragmentos de floresta estacional semidecidual da região leste do Vale do Paraíba – SP.",
Sideroxylon obtusifolium (Roem. & Schult.) T.D.Penn.,Sideroxylon obtusifolium (Roem. & Schult.) T.D.Penn.,"Janaúba, caatinga arbórea",Brazil,-15.758899688721,-43.669399261475,523,Arid Deciduous Broadleaved Forest,"SCOLFORO, J.R.S. & CARVALHO, L.M.T. (EDS.) 2007 Editora UFLA, Lavras, MG, Brasil. Mapeamento e inventário da flora nativa e dos reflorestamentos de Minas Gerais.",
Neea obovata Spruce ex Heimerl,Neea obovata Spruce ex Heimerl,"Serra Vermelha, caatinga arbórea",Brazil,-9.6567001342773,-44.124401092529,665,Arid Deciduous Broadleaved Forest,"CASTRO, A.A.J.F.; CASTRO, A.S.F.; FARIAS, R.R.S.; SOUSA, S.R.; CASTRO, N.M.C.F.; SILVA, C.G.B.; MENDES, M.R.A.; BARROS, J.S. & LOPES, R.N. 2009 Diversidade de espécies e de ecossistemas da vegetação remanescente da Serra Vermelha, área de Chapada, municí",
Molopanthera paniculata Turcz.,Molopanthera paniculata Turcz.,"Faria Lemos, floresta semidecidual",Brazil,-20.781099319458,-42.018100738525,554,Seasonally dry Semideciduous Broadleaved Forest,"OLIVEIRA-FILHO, A.T. 2015 NeoTropTree. Flora arbórea da Região Neotropical: Um banco de dados envolvendo biogeografia, diversidade e conservação. Universidade Federal de Minas Gerais.",
Casearia sylvestris Sw.,Casearia sylvestris Sw.,"Ouro Branco, floresta semidecidual",Brazil,-20.497200012207,-43.724201202393,1053,Seasonally dry Semideciduous Broadleaved Forest,"OLIVEIRA-FILHO, A.T. 2015 NeoTropTree. Flora arbórea da Região Neotropical: Um banco de dados envolvendo biogeografia, diversidade e conservação. Universidade Federal de Minas Gerais.",
Myrcia splendens (Sw.) DC.,Myrcia splendens (Sw.) DC.,"Mimoso do Sul, floresta semidecidual",Brazil,-21.01309967041,-41.385601043701,348,Seasonally dry Semideciduous Broadleaved Forest,"COSTA, M.B.; NATALI, R.G.; SANSEVERO, J.B.; PIRES, J.P.A.; ZANETI, L.Z.; SILVA, G.F.; BRAGANÇA, H.B. & PEZZOPANE, J.E. 2004 55° Congresso Nacional de Botâ Estudo da estrutura fitossociológica de um fragmento florestal na Floresta Nacional de Pacotuba-ES.",
Tibouchina sellowiana (Cham.) Cogn.,Tibouchina sellowiana (Cham.) Cogn.,"Agudos, floresta semidecidual",Brazil,-22.45059967041,-48.959201812744,624,Seasonally dry Semideciduous Broadleaved Forest,"OLIVEIRA-FILHO, A.T. 2006 Royal Botanic Gardens, Kew, U.K.; Jardim Botânico do Rio de Janeiro, Rio de Janeiro, Brazil; Universidade Federal de Minas Gerais, Belo Horizonte, Brazil; New York Botanical Garden Checklists compiled from herbarium specimens.",
Roupala montana Aubl.,Roupala montana Aubl.,"Barretos, floresta semidecidual",Brazil,-20.482799530029,-48.826099395752,492,Seasonally dry Semideciduous Broadleaved Forest,"RANGA, N.T.; REZENDE, A.A.; CAVASSAN, O.; TONIATO, M.T.Z. & CIELO FILHO, R. & STRANGHETTI, V. 2011  Caracterização florística de remanescentes de vegetação nativa da região noroeste do estado de São Paulo, In: NECCHI JR., O. (Ed.) Fauna e flora de fragmentos florestais remanescentes da região noroeste do Estado de São Paulo. Ribeirão Preto: Holos Editora; 2012",
Exostyles venusta Schott ex Spreng.,Exostyles venusta Schott ex Spreng.,Fazenda Palmeiras,Brazil,-21.325500488281,-41.099998474121,,,"ABREU; K.M.P.; BRAGA, J.M.A. & NASCIMENTO, M.T. 2014 Tree species diversity of coastal lowland semideciduous forest fragments in northern Rio de Janeiro State, Brazil. Bioscience Journal 30 (5): 1529-1550.",
Ficus obtusifolia (Miq.) Miq.,Ficus obtusifolia (Miq.) Miq.,"Pandeiros, floresta decidual",Brazil,-15.511699676514,-44.753299713135,487,Seasonally dry Deciduous Broadleaved Forest,"SCOLFORO, J.R.S. & CARVALHO, L.M.T. (EDS.) 2007 Editora UFLA, Lavras, MG, Brasil. Mapeamento e inventário da flora nativa e dos reflorestamentos de Minas Gerais.",
Plenckia populnea Reissek,Plenckia populnea Reissek,"Caldas Novas, cerrado rupicola",Brazil,-17.739000320435,-48.659999847412,,,"SANTOS, T.R.R.; PINTO, J.R.R.; LENZA, E. & MEWS, H.A. 2012 The tree-shrub vegetation in rocky outcrop cerrado areas in Goiás State, Brazil. Brazilian Journal of Botany 35 (3): 281-294.",
Campomanesia guaviroba (DC.) Kiaersk.,Campomanesia guaviroba (DC.) Kiaersk.,"Ladainha, floresta semidecidual",Brazil,-17.614200592041,-41.778099060059,666,Seasonally dry Semideciduous Broadleaved Forest,"OLIVEIRA-FILHO, A.T. 2015 NeoTropTree. Flora arbórea da Região Neotropical: Um banco de dados envolvendo biogeografia, diversidade e conservação. Universidade Federal de Minas Gerais.",
Jatropha mollissima (Pohl) Baill.,Jatropha mollissima (Pohl) Baill.,"São João do Cariri, caatinga quartzosa",Brazil,-7.3990001678467,-36.492000579834,,,"ANDRADE, L.A.; PEREIRA, I.M.; LEITE, U.T. & BARBOSA, M.R. 2005 Cerne Análise da cobertura de duas fisionomias de caatinga, com diferentes históricos de uso, no município de São João do Cariri, estado da Paraíba.",
Luehea candicans Mart. & Zucc.,Luehea candicans Mart. & Zucc.,"Piedade do Rio Grande, floresta semidecidual",Brazil,-21.487800598145,-44.100601196289,1072,Seasonally dry Semideciduous Broadleaved Forest,"OLIVEIRA-FILHO, A.T. 2015 NeoTropTree. Flora arbórea da Região Neotropical: Um banco de dados envolvendo biogeografia, diversidade e conservação. Universidade Federal de Minas Gerais.",
Jacaranda puberula Cham.,Jacaranda puberula Cham.,"Frei Serafim, floresta semidecidual",Brazil,-18.17140007019,-41.826900482178,539,Seasonally dry Semideciduous Broadleaved Forest,"SCOLFORO, J.R.S. & CARVALHO, L.M.T. (EDS.) 2007 Editora UFLA, Lavras, MG, Brasil. Mapeamento e inventário da flora nativa e dos reflorestamentos de Minas Gerais.",
Ocotea pomaderroides (Meisn.) Mez,Ocotea pomaderroides (Meisn.) Mez,"Jardim Botânico de Brasília, floresta ripícola",Brazil,-15.885000228882,-47.84220123291,1081,Seasonally dry Semideciduous Broadleaved Forest,"NÓBREGA, M.G.G.; RAMOS, A.E. & SILVA JUNIOR, M.C. 2001 Composição florísitica e estrutura na mata de galeria do Cabeça de Veado, no Jardim Botânico de Brasília, FDF. Boletim do Herbário Ezechias Paulo Heringer 8: 44-65.",
Myrciaria floribunda (H.West ex Willd.) O.Berg,Myrciaria floribunda (H.West ex Willd.) O.Berg,"Buriti do Campo Santo, floresta ripícola",Brazil,-16.689399719238,-44.009700775146,835,Seasonally dry Semideciduous Broadleaved Forest,"SCOLFORO, J.R.S. & CARVALHO, L.M.T. (EDS.) 2007 Editora UFLA, Lavras, MG, Brasil. Mapeamento e inventário da flora nativa e dos reflorestamentos de Minas Gerais.",
Vitex cymosa Bert. ex Spreng.,Vitex cymosa Bert. ex Spreng.,"Fecho dos Morros, floresta decidual chaquenha",Brazil,-21.449199676514,-57.913898468018,84,,"OLIVEIRA-FILHO, A.T. 2015 NeoTropTree. Flora arbórea da Região Neotropical: Um banco de dados envolvendo biogeografia, diversidade e conservação. Universidade Federal de Minas Gerais.",
Metrodorea nigra A.St.-Hil.,Metrodorea nigra A.St.-Hil.,"São José de Ubá, floresta semidecidual",Brazil,-21.39109992981,-41.925800323486,178,Seasonally dry Semideciduous Broadleaved Forest,"DAN, M.L.; BRAGA J.M.A & NASCIMENTO, M.T. 2010 Estrutura da comunidade arbórea de fragmentos de floresta estacional semidecidual na bacia hidrográfica do rio São Domingos, Rio de Janeiro, Brasil. Rodriguésia 61(4): 749-766.",
Ocotea puberula (Rich.) Nees,Ocotea puberula (Rich.) Nees,"Guaçuí, floresta semidecidual",Brazil,-20.892499923706,-41.710800170898,622,Seasonally dry Semideciduous Broadleaved Forest,"CURTO, R.A. 2011 Dissertação de Mestrado, Universidade Federal do Espírito Santo, Jerônimo Monteiro, ES, Brasil. Avaliação dos métodos de estimação de altura e de estratificação vertical em uma floresta estacional semidecidual.",
Byrsonima laxiflora Griseb.,Byrsonima laxiflora Griseb.,"Rio São Bartolomeu, floresta ripícola",Brazil,-15.847200393677,-47.715000152588,877,Seasonally dry Semideciduous Broadleaved Forest,"BUOSI, D. & FELFILI, J.M. 2004 Boletim do Herbário Ezechias Paulo Heringer Florística e fitossociologia da mata de galeria na Fazenda Nova Hastinapura, na APA São Bartolomeu.",
Piptadenia paniculata Benth.,Piptadenia paniculata Benth.,"Divisópolis, floresta semidecidual de cipó",Brazil,-15.741399765015,-40.994998931885,917,Seasonally dry Semideciduous Broadleaved Forest,"SCOLFORO, J.R.S. & CARVALHO, L.M.T. (EDS.) 2007 Editora UFLA, Lavras, MG, Brasil. Mapeamento e inventário da flora nativa e dos reflorestamentos de Minas Gerais.",
Myrcia venulosa DC.,Myrcia venulosa DC.,"Campo Florido, floresta ripícola",Brazil,-19.705600738525,-48.619701385498,610,Seasonally dry Semideciduous Broadleaved Forest,"RATTER, J.A.; BRIDGEWATER, S. & RIBEIRO, J.F. 2003 Analysis of the floristic compositon of the Brazilian cerrado vegetation III. Comparison of the woody vegetation of 376 areas. Edinburgh Journal of Botany 60 (1): 57-109.",
Vismia martiana Reichardt,Vismia martiana Reichardt,"Pedra Azul, floresta semidecidual de cipó",Brazil,-15.954400062561,-41.300800323486,731,Seasonally dry Semideciduous Broadleaved Forest,"OLIVEIRA-FILHO, A.T.; TAMEIRÃO-NETO, E.; CARVALHO, W.A.C.; BRINA, A.E.; WERNECK, M. & ; VIDAL, C.V.; REZENDE, S.C. & PEREIRA, J.A.A. 2005  Analise floristica do compartimento arboreo de areas de floresta atlantica sensu lato na regiao das Bacias do Leste (Bahia, Minas Gerais, Espirito Santo e Rio de Janeiro). (Floristic analysis of the tree component of atlantic forest areas in central eastern Brazil .)",
Diospyros hispida A.DC.,Diospyros hispida A.DC.,"Jequié, floresta semidecidual",Brazil,-13.94939994812,-40.113899230957,718,Seasonally dry Semideciduous Broadleaved Forest,"OLIVEIRA-FILHO, A.T. 2006 Royal Botanic Gardens, Kew, U.K.; Jardim Botânico do Rio de Janeiro, Rio de Janeiro, Brazil; Universidade Federal de Minas Gerais, Belo Horizonte, Brazil; New York Botanical Garden Checklists compiled from herbarium specimens.",
Roupala montana Aubl.,Roupala montana Aubl.,"Luiz Antônio, floresta semidecidual",Brazil,-21.581899642944,-47.921398162842,520,Seasonally dry Semideciduous Broadleaved Forest,"NÓBREGA, A.M.; VALERI, S.V.; PAULA, R.C. & SILVA, S.A. 2008 Regeneração natural em remanescentes florestais e áreas reflorestadas da várzea do rio Mogi-Guaçu, Luiz Antônio - SP. Revista Árvore 32 (5): 909-920.",
Guatteria sp.,Guatteria sp.,"Cuiaba Norte, cerrado",Brazil,-15.579999923706,-56.10599899292,,,"VILANOVA, S.R.F. 2008 Composição florística e valoração econômica de uma unidade de conservação urbana, Cuiabá – Mato Grosso. Dissertação de Mestrado, Universidade Federal de Mato Grosso, Cuiabá, MT, Brazil.",
Campomanesia simulans M.L.Kawas.,Campomanesia simulans M.L.Kawas.,"Mariana, nanofloresta rupícola",Brazil,-20.360799789429,-43.456699371338,1260,Seasonally dry Semideciduous Broadleaved Forest,"ARAÚJO, P.L.C.; PIFANO, D.S. & SANTOS, R.M. 2006 Relatório de Pesquisa, Universidade Federal de Lavras, Lavras, MG. Composição florística de um fragmento de floresta estacional de altitude em Barbacena, MG.",
Miconia latecrenata (DC.) Naudin,Miconia latecrenata (DC.) Naudin,"Rio São Bartolomeu, floresta ripícola",Brazil,-15.847200393677,-47.715000152588,877,Seasonally dry Semideciduous Broadleaved Forest,"BUOSI, D. & FELFILI, J.M. 2004 Boletim do Herbário Ezechias Paulo Heringer Florística e fitossociologia da mata de galeria na Fazenda Nova Hastinapura, na APA São Bartolomeu.",
Erythrina dominguezii Hassl.,Erythrina dominguezii Hassl.,"Bodoquena, Rio Salobra, floresta ripícola",Brazil,-21.450799942017,-56.503601074219,298,Seasonally dry Semideciduous Broadleaved Forest,"BAPTISTA-MARIA, V.R. 2007 Tese de Doutorado em Ecologia Aplicada, Univ Caracterização das florestas Ribeirinhas do Rio Formoso e do Parque Nacional da Serra do Bodoquena/MS quanto às espécies ocorrentes e histórico de pertubação para fins de restauração.",
Maprounea guianensis Aubl.,Maprounea guianensis Aubl.,"Alto Boa Vista, floresta ripícola",Brazil,-12.734199523926,-52.308101654053,343,Seasonally dry Semideciduous Broadleaved Forest,"RATTER, J.A.; ASKEW, G.P.; MONTGOMERY, R.F. & GIFFORD, D.R. 1978  Observations on forests of some mesotrophic soils in Central Brazil. Revista Brasileira de Botânica 1: 47-58",
Bougainvillea fasciculata Brandão,Bougainvillea fasciculata Brandão,"Cristópolis, caatinga arbórea",Brazil,-12.216899871826,-44.413299560547,742,Arid Deciduous Broadleaved Forest,"SANTOS, R.M. & QUEIROZ, L.P. 2008 Universidade Estadual de Feira de Santana, Feira de Santana, BA, Brazil. Checklists de áreas de caatinga e matas secas.",
Pouteria gardneri (Mart. & Miq.) Baehni,Pouteria gardneri (Mart. & Miq.) Baehni,"Juramento, floresta ripícola",Brazil,-16.777200698853,-43.698299407959,609,Seasonally dry Semideciduous Broadleaved Forest,"SCOLFORO, J.R.S. & CARVALHO, L.M.T. (EDS.) 2007 Editora UFLA, Lavras, MG, Brasil. Mapeamento e inventário da flora nativa e dos reflorestamentos de Minas Gerais.",
Campomanesia laurifolia Gardner,Campomanesia laurifolia Gardner,"Sapucaia, floresta semidecidual",Brazil,-21.959999084473,-42.825298309326,485,Seasonally dry Semideciduous Broadleaved Forest,"OLIVEIRA-FILHO, A.T. 2006 Royal Botanic Gardens, Kew, U.K.; Jardim Botânico do Rio de Janeiro, Rio de Janeiro, Brazil; Universidade Federal de Minas Gerais, Belo Horizonte, Brazil; New York Botanical Garden Checklists compiled from herbarium specimens.",
Chrysophyllum marginatum (Hook. & Arn.) Radlk.,Chrysophyllum marginatum (Hook. & Arn.) Radlk.,"Arealva, floresta semidecidual",Brazil,-21.975299835205,-48.909400939941,506,Seasonally dry Semideciduous Broadleaved Forest,"OLIVEIRA-FILHO, A.T. 2006 Royal Botanic Gardens, Kew, U.K.; Jardim Botânico do Rio de Janeiro, Rio de Janeiro, Brazil; Universidade Federal de Minas Gerais, Belo Horizonte, Brazil; New York Botanical Garden Checklists compiled from herbarium specimens.",
Ouratea polygyna Engl.,Ouratea polygyna Engl.,"João Pessoa, floresta semidecidual",Brazil,-7.1449999809265,-34.860801696777,45,Seasonally dry Semideciduous Broadleaved Forest,"OLIVEIRA-FILHO, A.T. 2015 NeoTropTree. Flora arbórea da Região Neotropical: Um banco de dados envolvendo biogeografia, diversidade e conservação. Universidade Federal de Minas Gerais.",
Amaioua intermedia Mart. ex Schult. & Schult.f.,Amaioua intermedia Mart. ex Schult. & Schult.f.,"São Thomé das Letras, floresta semidecidual",Brazil,-21.686399459839,-44.944999694824,1318,Seasonally dry Semideciduous Broadleaved Forest,"OLIVEIRA-FILHO, A.T. 2015 NeoTropTree. Flora arbórea da Região Neotropical: Um banco de dados envolvendo biogeografia, diversidade e conservação. Universidade Federal de Minas Gerais.",
Luetzelburgia auriculata (Allemão) Ducke,Luetzelburgia auriculata (Allemão) Ducke,"Contendas do Sincorá, caatinga alcalina",Brazil,-13.763899803162,-41.007801055908,346,Arid Deciduous Broadleaved Forest,"LIMA, P.C.F. & LIMA, J.L.S. 1998 Composição florística e fitossociológica de uma área de caatinga em Contendas do Sincorá, Bahia, microrregião homogênea da Chapada Diamantina. Acta Botanica Brasilica 12 (3): 441-450.",
Lafoensia pacari A.St.-Hil.,Lafoensia pacari A.St.-Hil.,"Porto Esperidião, floresta ripícola",Brazil,-16.611000061035,-56.263000488281,,,"DUARTE, T.G. 2007 Tese de Doutorado, Univeridade Federal de Viçosa, Viçosa, MG, Brasil. Florística, fitossociologia e relações solo-vegetação em Floresta Estacional Decidual em Barão de Melgaço, Pantanal de Mato Grosso.",
Bowdichia virgilioides Kunth,Bowdichia virgilioides Kunth,"Guaraciaba, floresta semidecidual",Brazil,-20.502199172974,-43.020301818848,496,Seasonally dry Semideciduous Broadleaved Forest,"SALINO, A.; STEHMANN, J.R.; LOMBARDI, J.A.; MOTA, R.C.; CARVALHO, F.A. & MOTA, N.F.O. 2006 Flora das áreas prioritárias dos rios Jequitinhonha e Mucuri. In: CHIARELLO, A.G. (Coord.) Relatório ao PROBIO: Inventário biológico nos vales dos rios Jequitinhonha e Mucuri, MG e BA",
Coccoloba mollis Casar.,Coccoloba mollis Casar.,"Tupi Paulista, floresta semidecidual",Brazil,-21.251699447632,-51.373600006104,311,Seasonally dry Semideciduous Broadleaved Forest,"OLIVEIRA-FILHO, A.T. 2006 Royal Botanic Gardens, Kew, U.K.; Jardim Botânico do Rio de Janeiro, Rio de Janeiro, Brazil; Universidade Federal de Minas Gerais, Belo Horizonte, Brazil; New York Botanical Garden Checklists compiled from herbarium specimens.",
Maytenus floribunda Reissek,Maytenus floribunda Reissek,"Pancas, floresta semidecidual",Brazil,-19.217800140381,-40.777500152588,432,Seasonally dry Semideciduous Broadleaved Forest,"OLIVEIRA-FILHO, A.T. 2006 Royal Botanic Gardens, Kew, U.K.; Jardim Botânico do Rio de Janeiro, Rio de Janeiro, Brazil; Universidade Federal de Minas Gerais, Belo Horizonte, Brazil; New York Botanical Garden Checklists compiled from herbarium specimens.",
Cryptocarya moschata Nees & Mart. ex Nees,Cryptocarya moschata Nees & Mart. ex Nees,"São Thomé das Letras, floresta semidecidual",Brazil,-21.686399459839,-44.944999694824,1318,Seasonally dry Semideciduous Broadleaved Forest,"OLIVEIRA-FILHO, A.T. 2015 NeoTropTree. Flora arbórea da Região Neotropical: Um banco de dados envolvendo biogeografia, diversidade e conservação. Universidade Federal de Minas Gerais.",
Ouratea castaneifolia (DC.) Engl.,Ouratea castaneifolia (DC.) Engl.,"Itacambira, Rio Itacambiruçu, floresta semidecidual",Brazil,-17.02440071106,-43.271099090576,843,Seasonally dry Semideciduous Broadleaved Forest,"HATSCHBACH, G.; GUARÇONI, E.A.E.; SARTORI, M.A. & RIBAS, O.S. 2006 Aspectos fisionômicos da vegetação da Serra do Cabral - Minas Gerais - Brasil. Boletim do Museu Botânico Municipal de Curitiba 67: 1-32.",
Sweetia fruticosa Spreng.,Sweetia fruticosa Spreng.,"Jaíba, Serra Azul, caatinga arbórea",Brazil,-15.368300437927,-44.028099060059,516,Arid Deciduous Broadleaved Forest,"SCOLFORO, J.R.S. & CARVALHO, L.M.T. (EDS.) 2007 Editora UFLA, Lavras, MG, Brasil. Mapeamento e inventário da flora nativa e dos reflorestamentos de Minas Gerais.",
Ficus lagoensis C.C.Berg & Carauta,Ficus lagoensis C.C.Berg & Carauta,"Juiz de Fora, floresta semidecidual",Brazil,-21.748300552368,-43.318099975586,893,Seasonally dry Semideciduous Broadleaved Forest,"OLIVEIRA-FILHO, A.T. 2015 NeoTropTree. Flora arbórea da Região Neotropical: Um banco de dados envolvendo biogeografia, diversidade e conservação. Universidade Federal de Minas Gerais.",
Croton heliotropiifolius Kunth,Croton conduplicatus Kunth,"Caruaru, caatinga quartzosa",Brazil,-8.2974996566772,-36.072200775146,647,Arid Deciduous Broadleaved Forest,"ALCOFORADO-FILHO, F.G.; SAMPAIO, E.V.S.B. & RODAL, M.J.N. 2003 Acta Botanica Brasilica Florística e fitossociologia de um remanescente de vegetação caducifólia espinhosa arbórea em Caruaru, Pernambuco.",
Vochysia divergens Pohl,Vochysia divergens Pohl,"Nossa Senhora do Livramento, floresta ripícola",Brazil,-16.731899261475,-56.838298797607,118,Seasonally dry Semideciduous Broadleaved Forest,"OLIVEIRA-FILHO, A.T. 2015 NeoTropTree. Flora arbórea da Região Neotropical: Um banco de dados envolvendo biogeografia, diversidade e conservação. Universidade Federal de Minas Gerais.",
Casearia commersoniana Cambess.,Casearia commersoniana Cambess.,"Salto do Céu, floresta ripícola",Brazil,-15.221400260925,-59.545299530029,225,Seasonally dry Semideciduous Broadleaved Forest,"OLIVEIRA-FILHO, A.T. 2015 NeoTropTree. Flora arbórea da Região Neotropical: Um banco de dados envolvendo biogeografia, diversidade e conservação. Universidade Federal de Minas Gerais.",
Aparisthmium cordatum (A.Juss.) Baill.,Aparisthmium cordatum (A.Juss.) Baill.,"Areias, floresta semidecidual",Brazil,-22.645599365234,-44.722801208496,821,Seasonally dry Semideciduous Broadleaved Forest,"FREITAS, H.S. 2010 Tese de Doutorado, Universidade de São Paulo, São Paulo, SP, Brasil. Caracterização florística e estrutural de três fragmentos de floresta estacional semidecidual da região leste do Vale do Paraíba – SP.",
Inga cylindrica (Vell.) Mart.,Inga cylindrica (Vell.) Mart.,"São Gonçalo do Monte, floresta semidecidual",Brazil,-20.013599395752,-43.529399871826,842,Seasonally dry Semideciduous Broadleaved Forest,"OLIVEIRA-FILHO, A.T. 2015 NeoTropTree. Flora arbórea da Região Neotropical: Um banco de dados envolvendo biogeografia, diversidade e conservação. Universidade Federal de Minas Gerais.",
"Schefflera morototoni (Aubl.) Maguire, Steyerm. & Frodin","Schefflera morototoni (Aubl.) Maguire, Steyerm. & Frodin","Itambé do Mato Dentro, floresta semidecidual",Brazil,-19.422199249268,-43.20719909668,578,Seasonally dry Semideciduous Broadleaved Forest,"OLIVEIRA-FILHO, A.T. 2015 NeoTropTree. Flora arbórea da Região Neotropical: Um banco de dados envolvendo biogeografia, diversidade e conservação. Universidade Federal de Minas Gerais.",
Cryptocarya mandioccana Meisn.,Cryptocarya mandioccana Meisn.,"Bananal, floresta semidecidual",Brazil,-22.631399154663,-44.289699554443,524,Seasonally dry Semideciduous Broadleaved Forest,"OLIVEIRA-FILHO, A.T. 2006 Royal Botanic Gardens, Kew, U.K.; Jardim Botânico do Rio de Janeiro, Rio de Janeiro, Brazil; Universidade Federal de Minas Gerais, Belo Horizonte, Brazil; New York Botanical Garden Checklists compiled from herbarium specimens.",
Vitex polygama Cham.,Vitex polygama Cham.,TO-DOIS IRMAOS DO TOCANTINS Cerrado sensu stricto CE36,Brazil,-9.0215997695923,-49.181701660156,,,"HAIDAR RF, DIAS R, AND FELFILI JM 2013 Mapeamento das regiões fitoecológicas e inventário florestal do estado do Tocantins. Palmas, TO. Governo do Estado do Tocantins p. 156",
Jacaranda micrantha Cham.,Jacaranda micrantha Cham.,"Tarumã, floresta semidecidual",Brazil,-22.735799789429,-50.674999237061,435,Seasonally dry Semideciduous Broadleaved Forest,"DURIGAN, G. & LEITÃO FILHO, H.F. 1995 Floristica e fitossociologia de matas ciliares do oeste paulista. Revista do Instituto Florestal 7 (1): 197-239.",
Tabebuia roseoalba (Ridl.) Sandwith,Tabebuia roseoalba (Ridl.) Sandwith,"Mansidão, caatinga arbórea",Brazil,-10.814200401306,-43.614200592041,486,Arid Deciduous Broadleaved Forest,"SANTOS, R.M. 2009 Tese de Doutorado, Universidade Federal de Lavras, Lavras, MG, Brasil. A caatinga arbórea do norte de Minas Gerais e sudoeste da Bahia: identidade e relações florísticas.",
Picramnia sellowii Planch.,Picramnia sellowii Planch.,"Montezuma, carrasco",Brazil,-15.250599861145,-42.451099395752,971,Seasonally dry Semideciduous Broadleaved Forest,"OLIVEIRA-FILHO, A.T. 2015 NeoTropTree. Flora arbórea da Região Neotropical: Um banco de dados envolvendo biogeografia, diversidade e conservação. Universidade Federal de Minas Gerais.",
Melanopsidium nigrum Colla,Melanopsidium nigrum Colla,"Grão Mogol, Rio Itacambiruçu, floresta semidecidual",Brazil,-16.586700439453,-42.853900909424,641,Seasonally dry Semideciduous Broadleaved Forest,"OLIVEIRA-FILHO, A.T. 2015 NeoTropTree. Flora arbórea da Região Neotropical: Um banco de dados envolvendo biogeografia, diversidade e conservação. Universidade Federal de Minas Gerais.",
Vismia guianensis (Aubl.) Pers.,Vismia guianensis (Aubl.) Pers.,Mata do Krambeck,Brazil,-21.735599517822,-43.368900299072,,,"FONSECA, C.R. 2012 Composição, estrutura e diversidade da comunidade arbórea de um fragmento urbano de floresta estacional semidecidual (Juiz de fora, MG, Brasil) Dissertação de Mestrado (Ecologia) - Universidade Federal de Juiz de Fora, Juiz de Fora",
Poecilanthe falcata (Vell.) Heringer,Poecilanthe falcata (Vell.) Heringer,"Cachoeiro de Itapemirim, floresta semidecidual",Brazil,-20.74220085144,-41.30110168457,133,Seasonally dry Semideciduous Broadleaved Forest,"OLIVEIRA-FILHO, A.T. 2015 NeoTropTree. Flora arbórea da Região Neotropical: Um banco de dados envolvendo biogeografia, diversidade e conservação. Universidade Federal de Minas Gerais.",
Senna corifolia (Benth.) H.S.Irwin & Barneby,Senna corifolia (Benth.) H.S.Irwin & Barneby,"Catalão, cerrado",Brazil,-14.445300102234,-47.092800140381,453,Seasonally dry Semideciduous Parkland Savanna,"SILVA, M.A.; MENDONÇA, R.C.; FELFILI, J.M.; PEREIRA, B.A.; FILGUEIRA, T.S. & FAGG, C.W. 2004 Flora vascular do Vão do Paranã, estado de Goiás, Brasil. Boletim do Museu Ezechias Paulo Heringer 14: 49-127.",
Ouratea salicifolia Engl.,Ouratea salicifolia Engl.,"Baependi, floresta semidecidual",Brazil,-21.883100509644,-44.920799255371,987,Seasonally dry Semideciduous Broadleaved Forest,"OLIVEIRA-FILHO, A.T. 2015 NeoTropTree. Flora arbórea da Região Neotropical: Um banco de dados envolvendo biogeografia, diversidade e conservação. Universidade Federal de Minas Gerais.",
Sideroxylon obtusifolium (Roem. & Schult.) T.D.Penn.,Sideroxylon obtusifolium (Roem. & Schult.) T.D.Penn.,"Xique-xique, caatinga arenícola",Brazil,-10.80029964447,-42.677501678467,423,Arid Deciduous Broadleaved Forest,"SANTOS, R.M. & QUEIROZ, L.P. 2008 Universidade Estadual de Feira de Santana, Feira de Santana, BA, Brazil. Checklists de áreas de caatinga e matas secas.",
Annona sylvatica A.St.-Hil.,Annona sylvatica A.St.-Hil.,"Passos, floresta decidual",Brazil,-20.688899993896,-46.524200439453,971,Seasonally dry Deciduous Broadleaved Forest,"SCOLFORO, J.R.S. & CARVALHO, L.M.T. (EDS.) 2007 Editora UFLA, Lavras, MG, Brasil. Mapeamento e inventário da flora nativa e dos reflorestamentos de Minas Gerais.",
Ficus enormis Mart. ex Miq.,Ficus enormis Mart. ex Miq.,"Castelo, Mata das Flores, floresta semidecidual",Brazil,-20.610000610352,-41.171398162842,133,Seasonally dry Semideciduous Broadleaved Forest,"OLIVEIRA-FILHO, A.T.; TAMEIRÃO-NETO, E.; CARVALHO, W.A.C.; BRINA, A.E.; WERNECK, M. & ; VIDAL, C.V.; REZENDE, S.C. & PEREIRA, J.A.A. 2005  Analise floristica do compartimento arboreo de areas de floresta atlantica sensu lato na regiao das Bacias do Leste (Bahia, Minas Gerais, Espirito Santo e Rio de Janeiro). (Floristic analysis of the tree component of atlantic forest areas in central eastern Brazil .)",
Schoepfia brasiliensis A.DC.,Schoepfia brasiliensis A.DC.,"Lençóis, floresta semidecidual",Brazil,-12.375800132751,-40.518600463867,641,Seasonally dry Semideciduous Broadleaved Forest,"CARDOSO, D.B.O.S. & QUEIROZ, L.P. 2006 57° Congresso Nacional de Botânica. Universidade Federal do Rio Grande do Sul, Gramado, RS, CD-ROM. Flora vascular dos fragmentos de florestas estacionais da Serra do Orobó, Bahia, Brasil.",
Aspidosperma subincanum Mart. ex A.DC.,Aspidosperma subincanum Mart. ex A.DC.,"Fazenda Água Limpa, floresta ripícola",Brazil,-15.964200019836,-47.94580078125,1098,Seasonally dry Semideciduous Broadleaved Forest,"OLIVEIRA-FILHO, A.T. 2015 NeoTropTree. Flora arbórea da Região Neotropical: Um banco de dados envolvendo biogeografia, diversidade e conservação. Universidade Federal de Minas Gerais.",
Trischidium molle (Benth.) H.Ireland,Trischidium molle (Benth.) H.Ireland,"Açu, caatinga quartzosa",Brazil,-5.624400138855,-36.939399719238,89,Arid Deciduous Broadleaved Forest,"FERREIRA, R.L.C. 1988 Dissertação de Mestrado, Universidade Federal de Viçosa, Viçosa, MG, Brasil. Análise estrutural da vegetação da Estação Florestal de Experimentação de Açu – RN, como subsídio para o manejo florestal.",
Platymiscium floribundum Vogel,Platymiscium floribundum Vogel,"Andorinha, floresta areno-rupícola",Brazil,-10.139399528503,-39.830001831055,779,Arid Deciduous Broadleaved Forest,"SANTOS, R.M. & QUEIROZ, L.P. 2008 Universidade Estadual de Feira de Santana, Feira de Santana, BA, Brazil. Checklists de áreas de caatinga e matas secas.",
Trichilia lepidota Mart.,Trichilia lepidota Mart.,"Cantagalo, floresta semidecidual",Brazil,-21.886100769043,-42.420299530029,537,Seasonally dry Semideciduous Broadleaved Forest,"OLIVEIRA-FILHO, A.T. 2006 Royal Botanic Gardens, Kew, U.K.; Jardim Botânico do Rio de Janeiro, Rio de Janeiro, Brazil; Universidade Federal de Minas Gerais, Belo Horizonte, Brazil; New York Botanical Garden Checklists compiled from herbarium specimens.",
Psychotria vellosiana Benth.,Psychotria vellosiana Benth.,"Serra da Babilônia, nanofloresta rupícola",Brazil,-20.497800827026,-46.470798492432,1061,Seasonally dry Semideciduous Broadleaved Forest,"LOPES, R.M.F.; FREITAS, V.L.O. & BARBOSA, P.M.M. 2013 Estrutura do componente arbóreo em áreas de cerrado no município de São Thomé das Letras, MG. Revista Árvore 37 (5): 801-813.",
Lithrea brasiliensis Marchand,Lithrea brasiliensis Marchand,"Tucunduva e Alecrim, floresta semidecidual",Brazil,-27.650800704956,-54.451099395752,187,Seasonally cold Semideciduous Broadleaved Forest,"ALBERTI, L.F. & LONGHI, S.J. 1999 In: Seminário Interinstitucional de Ensino, Pesquisa e Aspectos florísticos e fitossociológicos de um segmento de mata ciliar do lageado Pratos na divisa entre os municípios de Tucunduva e Horizontina, Rio Grande do Sul.",
Andira fraxinifolia Benth.,Andira fraxinifolia Benth.,"Além Paraíba, Alto D'Ouro, floresta semidecidual",Brazil,-21.911699295044,-42.890598297119,827,Seasonally dry Semideciduous Broadleaved Forest,"OLIVEIRA-FILHO, A.T. 2015 NeoTropTree. Flora arbórea da Região Neotropical: Um banco de dados envolvendo biogeografia, diversidade e conservação. Universidade Federal de Minas Gerais.",
Cecropia pachystachya Trécul,Cecropia pachystachya Trécul,"Itabaiana, encostas, floresta semidecidual",Brazil,-10.735300064087,-37.364398956299,465,Seasonally dry Semideciduous Broadleaved Forest,"OLIVEIRA-FILHO, A.T. 2015 NeoTropTree. Flora arbórea da Região Neotropical: Um banco de dados envolvendo biogeografia, diversidade e conservação. Universidade Federal de Minas Gerais.",
Swartzia flaemingii Raddi,Swartzia flaemingii Raddi,"Resplendor, floresta semidecidual",Brazil,-19.346099853516,-41.25830078125,246,Seasonally dry Semideciduous Broadleaved Forest,"SOUZA, A.L.; BOINA, A.; SOARES, C.P.B.; VITAL, B.R.; GASPAR, R.O. & LANA, J.M. 2012 Estrutura fitossociológica, estoques de volume, biomassa, carbono e dióxido de carbono em floresta estacional semidecidual. Revista Árvore 36 (1): 169-179.",
Pseudobombax grandiflorum (Cav.) A.Robyns,Pseudobombax grandiflorum (Cav.) A.Robyns,"Bragança Paulista, floresta semidecidual",Brazil,-22.934999465942,-46.703899383545,821,Seasonally dry Semideciduous Broadleaved Forest,"CERQUEIRA, R.M.; GIL, A.S.B. & MEIRELES, L.D. 2008 Revista do Instituto Florestal de Florística das espécies arbóreas de quatro fragmentos de Floresta Estacional Semidecídua Montana na Fazenda Dona Carolina (Itatiba/Bragança Paulista, São Paulo, Brasil).",
Apuleia leiocarpa (Vogel) J.F.Macbr.,Apuleia leiocarpa (Vogel) J.F.Macbr.,Fazenda Palmeiras,Brazil,-21.321599960327,-41.119800567627,,,"ABREU; K.M.P.; BRAGA, J.M.A. & NASCIMENTO, M.T. 2014 Tree species diversity of coastal lowland semideciduous forest fragments in northern Rio de Janeiro State, Brazil. Bioscience Journal 30 (5): 1529-1550.",
Myrcia ochroides O.Berg,Myrcia ochroides O.Berg,GO-SAO DOMINGOS Cerrado rupestre CR12,Brazil,-13.689200401306,-46.30110168457,,,"FRANÇOSO, R. 2012 Unpubl.",
Senna multijuga (Rich.) H.S.Irwin & Barneby,Senna multijuga (Rich.) H.S.Irwin & Barneby,"Jequeri, floresta semidecidual",Brazil,-20.435300827026,-42.609699249268,514,Seasonally dry Semideciduous Broadleaved Forest,"SCOLFORO, J.R.S. & CARVALHO, L.M.T. (EDS.) 2007 Editora UFLA, Lavras, MG, Brasil. Mapeamento e inventário da flora nativa e dos reflorestamentos de Minas Gerais.",
Piper mollicomum Kunth,Piper mollicomum Kunth,"Paraíba do Sul, floresta semidecidual",Brazil,-22.124200820923,-43.36190032959,459,Seasonally dry Semideciduous Broadleaved Forest,"OLIVEIRA-FILHO, A.T. 2006 Royal Botanic Gardens, Kew, U.K.; Jardim Botânico do Rio de Janeiro, Rio de Janeiro, Brazil; Universidade Federal de Minas Gerais, Belo Horizonte, Brazil; New York Botanical Garden Checklists compiled from herbarium specimens.",
Myrciaria cuspidata O.Berg,Myrciaria cuspidata O.Berg,"Serra Vermelha, caatinga arbórea",Brazil,-9.6567001342773,-44.124401092529,665,Arid Deciduous Broadleaved Forest,"CASTRO, A.A.J.F.; CASTRO, A.S.F.; FARIAS, R.R.S.; SOUSA, S.R.; CASTRO, N.M.C.F.; SILVA, C.G.B.; MENDES, M.R.A.; BARROS, J.S. & LOPES, R.N. 2009 Diversidade de espécies e de ecossistemas da vegetação remanescente da Serra Vermelha, área de Chapada, municí",
Pithecellobium diversifolium Benth.,Pithecellobium diversifolium Benth.,"Santa Maria da Vitoria, caatinga arbórea",Brazil,-13.456399917603,-44.175800323486,638,Arid Deciduous Broadleaved Forest,"SANTOS, R.M. & QUEIROZ, L.P. 2008 Universidade Estadual de Feira de Santana, Feira de Santana, BA, Brazil. Checklists de áreas de caatinga e matas secas.",
Erythroxylum nobile O.E.Schulz,Erythroxylum nobile O.E.Schulz,"Santana do São Francisco, floresta semidecidual",Brazil,-10.275799751282,-36.661399841309,42,Seasonally dry Semideciduous Broadleaved Forest,"HOLANDA, F.S.R.; SANTOS, L.G.C.; SANTOS, C.M.; CASADO, A.P.B.; PEDROTTI, A. & RIBEIRO, G.T. 2005 Riparian vegetation affected by bank erosion in the Lower São Francisco River, Northeastern Brazil. Revista Árvore 29 (2): 327-336.",
Cynophalla hastata (Jacq.) J.Presl,Cynophalla hastata (Jacq.) J.Presl,"Serra Negra, floresta decidual de brejo",Brazil,-8.6517000198364,-38.024200439453,1071,Seasonally dry Deciduous Broadleaved Forest,"OLIVEIRA-FILHO, A.T. 2015 NeoTropTree. Flora arbórea da Região Neotropical: Um banco de dados envolvendo biogeografia, diversidade e conservação. Universidade Federal de Minas Gerais.",
Blepharocalyx salicifolius (Kunth) O.Berg,Blepharocalyx salicifolius (Kunth) O.Berg,GO-ALTO PARAISO DE GOIAS Cerrado rupestre CR04,Brazil,-14.270000457764,-47.799999237061,,,"FELFILI, J. M.; SEVILHA, A. C. AND SILVA JÚNIOR, M.C. 2007 Comparação entre as unidades fisiográficas: Chapada Pratinha e Chapada dos Veadeiros. In: Felfili, J. M.; Rezende, A. V. & Silva Júnior, M. C. (eds.). Biogeografia do bioma cerrado-vegetação e solos da Chapada dos Veadeiros. Editora UnB. Brasília. Pp. 113-117.",
Myrcia guianensis (Aubl.) DC.,Myrcia guianensis (Aubl.) DC.,"Lavras, floresta semidecidual",Brazil,-21.228900909424,-44.971099853516,953,Seasonally dry Semideciduous Broadleaved Forest,"OLIVEIRA-FILHO, A.T. 2015 NeoTropTree. Flora arbórea da Região Neotropical: Um banco de dados envolvendo biogeografia, diversidade e conservação. Universidade Federal de Minas Gerais.",
Annona coriacea Mart.,Annona coriacea Mart.,GO-SAO DOMINGOS Cerrado rupestre CR12,Brazil,-13.689200401306,-46.30110168457,,,"FRANÇOSO, R. 2012 Unpubl.",
Tabernaemontana catharinensis A.DC.,Tabernaemontana catharinensis A.DC.,"Quedas do Iguaçu, floresta semidecidual",Brazil,-25.557800292969,-52.979400634766,487,Seasonally cold Semideciduous Broadleaved Forest,"INTERTECHNE; LEME; ENGEVIX & ESTEIO. 1993 Intertechne, Leme, Engevix e Esteio, Curitiba, PR, v. III. Estudo de Impacto Ambiental: Usina Hidrelétrica de Salto Caxias, rio Iguaçu, Paraná.",
Cedrela fissilis Vell.,Cedrela fissilis Vell.,"São Gonçalo do Rio Abaixo, floresta semidecidual",Brazil,-19.901899337769,-43.363300323486,775,Seasonally dry Semideciduous Broadleaved Forest,"PIFANO, D.S. & VALENTE, A.S.M. 2007 Composição florística e estrutura da comunidade arbórea de um fragmento florestal no município de Serro, MG. Relatório de pesquisa, Lavras, MG.",
