original_site_code,sitename,lat,long,country,species_name
AmzAC004,"Tarauacá, floresta pluvial de terra firme",-8.05083333333333,-71.2461111111111,Brasil,Buchenavia viridiflora
AtlSP182,"Campinas, floresta semidecídua",-22.8219444444444,-47.11,Brasil,Lacistema hasslerianum
AtlES054,"Colatina, floresta semidecídua",-19.5838888888889,-40.6430555555556,Brasil,Pouteria grandiflora
AtlES022,"Mussununga de Conceição da Barra, mosaico de areias brancas",-18.5872222222222,-39.8972222222222,Brasil,Vochysia tucanorum
AmzTO005,"Xambioá, floresta estacional de terra firme",-6.49027777777778,-48.5241666666667,Brasil,Eugenia flavescens
CerMG104,"Santa Fé de Minas, floresta decídua",-16.8819444444444,-45.3222222222222,Brasil,Dalbergia glaucescens
CaaMG023,"Jaíba, Serra de Verdelândia, caatinga arbórea",-15.4469444444444,-43.5311111111111,Brasil,Maytenus rigida
CerMG138,"Baldim, cerradão mesotrófico",-19.2722222222222,-44.0019444444444,Brasil,Stryphnodendron adstringens
CerTO123,"Porto Nacional, Ecodiesel, cerrado",-10.6413888888889,-48.3622222222222,Brasil,Leptolobium dasycarpum
AmzAM180,"Lábrea, Transamazônica, floresta pluvial de terra firme",-7.44305555555556,-64.6652777777778,Brasil,Cordia toqueve
AtlRS082,"Sinimbu, floresta semidecídua",-29.4063888888889,-52.5447222222222,Brasil,Dicksonia sellowiana
CaaPB031,"São João do Cariri, caatinga quartzosa árida",-7.39888888888889,-36.4919444444444,Brasil,Amburana cearensis
AtlMG140,"Joaíma, nanofloresta semidecídua",-16.6386111111111,-41.2205555555556,Brasil,Pera glabrata
AtlRJ086,"Agulhas Negras, nanofloresta rupícola",-22.4080555555556,-44.6513888888889,Brasil,Solanum latiflorum
AtlMG209,"Carangola, floresta semidecídua",-20.6741666666667,-41.9997222222222,Brasil,Guatteria campestris
AtlSP182,"Campinas, floresta semidecídua",-22.8219444444444,-47.11,Brasil,Virola bicuhyba
CerMS101,"Aparecida do Taboado, cerrado",-20.1113888888889,-51.2927777777778,Brasil,Siparuna guianensis
AtlSC097,"São Martinho, floresta pluvial",-28.08,-48.87,Brasil,Baccharis dentata
CerPA007,"Conceição do Araguaia, Serra Preta, cerradão mesotrófico",-8.58472222222222,-49.6766666666667,Brasil,Luehea grandiflora
CerGO011,"Pirenópolis, floresta ripícola",-15.765,-49.0675,Brasil,Myrcia multiflora
AtlMG204,"Rio Pomba, floresta semidecídua",-21.2730555555556,-43.1052777777778,Brasil,Cupania ludowigii
AmzAM032,"Manaus, Tarumã-Açu, floresta pluvial de terra firme",-2.89027777777778,-60.1475,Brasil,Gaulettia canomensis
CaaBA125,"Serra do Monte Alto, caatinga arbórea",-14.4216666666667,-43.0272222222222,Brasil,Myrcia guianensis
AtlRS008,"Maquiné, floresta pluvial",-29.6322222222222,-50.1980555555556,Brasil,Brosimum glaziovii
AtlSP027,"Cubatão, floresta pluvial",-23.8497222222222,-46.4322222222222,Brasil,Citronella paniculata
AtlES015,"Nova Almeida, mosaico flúvio-arenícola costeiro",-20.0386111111111,-40.2077777777778,Brasil,Rhizophora mangle
AtlSP181,"Pedreira, floresta semidecídua",-22.6988888888889,-46.8394444444444,Brasil,Psychotria hastisepala
AmzMT021,"Parque do Cristalino, floresta estacional de terra firme",-9.46083333333333,-55.7566666666667,Brasil,Cedrela odorata
AtlRS049,"Parque do Caracol, floresta estacional de araucária",-29.3166666666667,-50.845,Brasil,Baccharis microdonta
CaaBA052,"Jussiape, caatinga carbonática",-13.5,-41.6086111111111,Brasil,Croton tricolor
AmzAM218,"Uarini, Lago Mamirauá, floresta inundável de água negra",-3.00055555555556,-64.9458333333333,Brasil,Virola elongata
CerMG240,"Prata, cerrado",-19.2183333333333,-49.1463888888889,Brasil,Machaerium acutifolium
AmzAM031,"Manaus, Baixo Rio Cuieiras, floresta pluvial de terra firme",-2.74222222222222,-60.4252777777778,Brasil,Guarea carinata
AtlES068,"Mimoso do Sul, floresta semidecídua",-21.0130555555556,-41.3855555555556,Brasil,Chrysophyllum splendens
AtlSC089,"Presidente Nereu, floresta pluvial",-27.27,-49.41,Brasil,Trichilia elegans
AtlES043,"Santa Teresa, floresta pluvial",-19.9211111111111,-40.6152777777778,Brasil,Byrsonima stipulacea
AtlAL013,"Matriz de Camaragibe, floresta pluvial",-9.03222222222222,-35.5855555555556,Brasil,Alseis pickelii
AtlPB019,"Borborema, floresta semidecídua",-6.79416666666667,-35.6275,Brasil,Psidium guineense
AtlMG223,"Conquista, floresta semidecídua",-19.9927777777778,-47.6011111111111,Brasil,Centrolobium tomentosum
AtlRS116,"São Leopoldo, floresta semidecídua",-29.7808333333333,-51.1888888888889,Brasil,Myrceugenia myrtoides
AmzPA129,"Alenquer, Vale do Paraíso, floresta pluvial de terra firme",-1.44416666666667,-54.8308333333333,Brasil,Tachigali paniculata
CerBA018,"Alto Rio Preto, floresta ripícola",-11.1830555555556,-46.3177777777778,Brasil,Randia armata
AtlCE018,"Fortaleza, Parque do Cocó, floresta semidecídua",-3.75972222222222,-38.4969444444444,Brasil,Pterocarpus violaceus
AmzAM182,"Envira, floresta pluvial de terra firme",-7.66472222222222,-69.9352777777778,Brasil,Guarea guidonia
AtlRJ093,"Campos dos Goytacazes, floresta semidecídua de tabuleiro",-21.7158333333333,-41.2638888888889,Brasil,Pera heteranthera
AtlSP065,"Serra do Azeite, floresta pluvial",-24.9661111111111,-48.4447222222222,Brasil,Tibouchina sellowiana
AtlMG273,"Pouso Alegre, floresta semidecídua",-22.2225,-45.9872222222222,Brasil,Sloanea guianensis
AtlBA113,"Gerais da Fumaça, Lençóis, nanofloresta rupícola",-12.5963888888889,-41.4344444444444,Brasil,Miconia prasina
AmzAM009,"Ipanoré, Rio Uaupés, floresta pluvial de terra firme",0.316388888888889,-68.6430555555555,Brasil,Matayba inelegans
AtlSP153,"Ourinhos, floresta semidecídua",-22.8419444444444,-49.8875,Brasil,Zanthoxylum fagara
AtlSP086,"Campos do Jordão, floresta nebular de araucária",-22.7661111111111,-45.6216666666667,Brasil,Erythroxylum frangulifolium
AtlRS104,"Camaquã, floresta semidecídua",-30.6855555555556,-51.8783333333333,Brasil,Ficus adhatodifolia
CaaRN007,"Pendências, caatinga arenícola aluvional",-5.24166666666667,-36.7194444444444,Brasil,Senna trachypus
CerMG075,"Serra das Araras, floresta ripícola",-15.6463888888889,-45.505,Brasil,Acalypha diversifolia
AmzAM142,"Lago Amanã, Bom Jesus do Baré, floresta pluvial de terra firme",-2.47888888888889,-64.7038888888889,Brasil,Miconia chrysophylla
CerMS032,"Caracol, floresta decídua",-21.9372222222222,-56.9266666666667,Brasil,Syagrus oleracea
AtlMG124,"Serro, floresta semidecídua",-18.5488888888889,-43.3877777777778,Brasil,Trema micrantha
AtlRJ024,"Poço das Antas, floresta pluvial",-22.5413888888889,-42.2866666666667,Brasil,Croton floribundus
CerMT072,"Nobres, cerradão mesotrófico",-14.7358333333333,-56.3319444444444,Brasil,Psychotria carthagenensis
CerMG200,"Rio Paranaíba, floresta ripícola",-19.1766666666667,-46.3655555555556,Brasil,Miconia prasina
AtlSC100,"Praia Grande, floresta pluvial",-29.1827777777778,-50.0113888888889,Brasil,Ilex microdonta
AtlES052,"Rio Bananal, floresta semidecídua",-19.2541666666667,-40.3813888888889,Brasil,Myrcia guianensis
CerPI043,"Ipiranga do Piauí, cerrado",-6.77916666666667,-41.7327777777778,Brasil,Simarouba versicolor
CerMT003,"Sorriso, floresta ripícola",-12.2930555555556,-55.965,Brasil,Jacaranda copaia
CerMT114,"Barão de Melgaço, cerradão brejoso",-16.6238888888889,-56.2225,Brasil,Brosimum gaudichaudii
CaaCE010,"Jaguaribe, Rio Jaguaribe, caatinga arenícola aluvional",-5.80388888888889,-38.6555555555556,Brasil,Senna acuruensis
AmzPA051,"Santarém, Reserva do Palhão, floresta pluvial de terra firme",-2.83611111111111,-54.4433333333333,Brasil,Mezilaurus itauba
AtlRS117,"Santo Amaro do Sul, floresta semidecídua",-29.9047222222222,-52.0497222222222,Brasil,Mimosa incana
AtlSC085,"Indaial, floresta pluvial",-27.09,-49.23,Brasil,Byrsonima ligustrifolia
AtlBA080,"Serra das Lontras, Arataca, floresta pluvial",-15.1647222222222,-39.3313888888889,Brasil,Inga marginata
AtlSP023,"Ilha do Cardoso, Núcleo Marujá, floresta pluvial",-25.1694444444444,-47.9905555555556,Brasil,Spirotheca rivieri
ChaMS006,"Pão de Açúcar, floresta decídua rupícola",-21.4447222222222,-57.8925,Brasil,Dilodendron bipinnatum
AtlRJ007,"Praia de Grumari, mosaico arenícola costeiro",-23.0475,-43.5252777777778,Brasil,Symphonia globulifera
CerMA019,"Gerais de Balsas, floresta ripícola",-8.23277777777778,-46.175,Brasil,Astronium graveolens
CaaBA148,"Angüera, floresta decídua",-12.1625,-39.1858333333333,Brasil,Erythroxylum petrae-caballi
CerBA016,"Jacaraci, Morro do Chapéu, cerrado rupícola",-14.965,-42.4980555555556,Brasil,Tocoyena formosa
AtlES027,"Conceição da Barra, floresta pluvial",-18.4244444444444,-39.8377777777778,Brasil,Symplocos pycnobotrya
AtlSC113,"Serra do Rio do Rastro, nanofloresta rupícola",-28.4322222222222,-49.5880555555556,Brasil,Persea willdenovii
CerSP010,"Campos Novos Paulista, cerradão distrófico",-22.5463888888889,-50.0569444444444,Brasil,Ocotea corymbosa
CaaBA129,"Morpará, Rio São Francisco, floresta decídua inundável",-11.4816666666667,-43.2441666666667,Brasil,Cynophalla hastata
CerMG182,"Bom Despacho, cerrado",-19.6758333333333,-45.3669444444444,Brasil,Erythroxylum daphnites
AmzAM037,"Serra Pirapucu, sopés, floresta pluvial subserrana",0.711666666666667,-66.1233333333333,Brasil/Venezuela,Guapira neblinensis
CerMT048,"Coxipó da Ponte, floresta ripícola",-15.6225,-56.0194444444444,Brasil,Protium heptaphyllum
CerMG233,"Monte Carmelo, cerrado",-18.8688888888889,-47.3238888888889,Brasil,Himatanthus obovatus
AmzPA039,"Belém, Parque do Utinga, floresta pluvial de terra firme",-1.41944444444444,-48.4108333333333,Brasil,Myrcia paivae
AmzMT005,"Alta Floresta, Rio Teles Pires, floresta estacional inundável",-9.63861111111111,-55.9375,Brasil,Tachigali paniculata
CerMT154,"Vila Rica, cerrado",-9.94333333333333,-51.07,Brasil,Pterodon pubescens
AtlCE014,"Aracati, savana arenícola costeira",-4.63861111111111,-37.71,Brasil,Psidium guineense
AtlSC123,"Chapadão do Lajeado, floresta pluvial de araucária",-27.63,-49.59,Brasil,Ocotea pulchra
AmzRO032,"Porto Velho, Calama, savana arborizada brejosa",-8.13777777777778,-63.6194444444444,Brasil,Compsoneura ulei
AtlMG043,"Ladainha, floresta semidecídua",-17.6141666666667,-41.7780555555556,Brasil,Mollinedia marqueteana
AtlES047,"Domingos Martins, floresta pluvial",-20.3563888888889,-40.6752777777778,Brasil,Andira fraxinifolia
AtlPE019,"Escada, floresta pluvial",-8.335,-35.1958333333333,Brasil,Tachigali densiflora
AmzRR005,"Caicubi, floresta pluvial de terra firme",-1.02861111111111,-62.0894444444444,Brasil,Clarisia racemosa
AmzAP021,"Oiapoque e Saint Georges de l’Oyapock, floresta pluvial de terra firme",3.86722222222222,-51.8027777777778,Brasil/France,Bellucia egensis
AmzAM228,"Tefé, Lago Caiambé, floresta inundável de água negra",-3.61083333333333,-64.4736111111111,Brasil,Pouteria elegans
AmzAM034,"Manaus, Campus da UFAM, floresta pluvial de terra firme",-3.09111111111111,-59.9594444444444,Brasil,Protium spruceanum
AtlMG080,"Pico do Itambé, nanofloresta rupícola",-18.4319444444444,-43.3625,Brasil,Paralychnophora bicolor
AtlRJ022,"Rio das Ostras, Reserva União, floresta pluvial",-22.4372222222222,-42.0297222222222,Brasil,Myrcia tijucensis
CaaAL012,"Arapiraca, floresta decídua",-9.71166666666667,-36.6522222222222,Brasil,Urera baccifera
AmzAM145,"Itapiranga, floresta pluvial de terra firme",-2.71694444444444,-58.1247222222222,Brasil,Goupia glabra
AtlES015,"Nova Almeida, mosaico flúvio-arenícola costeiro",-20.0386111111111,-40.2077777777778,Brasil,Sorocea hilarii
AtlRJ031,"Seropédica, floresta pluvial",-22.7283333333333,-43.7097222222222,Brasil,Machaerium stipitatum
AtlMG011,"Marilac, floresta semidecídua",-18.4933333333333,-42.0708333333333,Brasil,Siparuna bifida
AtlAL019,"Maceió, Parque Florestal, floresta pluvial",-9.60194444444445,-35.7636111111111,Brasil,Psychotria jambosioides
CerTO001,"Araguacema, Rio Caiapó, floresta estacional inundável",-8.87222222222222,-49.6086111111111,Brasil,Eugenia inundata
AtlBA074,"Itamaraju, floresta pluvial",-17.0558333333333,-39.7197222222222,Brasil,Ceiba ventricosa
AtlAL018,"Rio Largo, floresta pluvial",-9.51055555555556,-35.9130555555556,Brasil,Cupania oblongifolia
AtlSP145,"Rosana, floresta semidecídua",-22.5683333333333,-53.0622222222222,Brasil,Platymiscium floribundum
AtlSP051,"Biritiba-Mirim, floresta pluvial",-23.7052777777778,-46.0405555555556,Brasil,Ilex paraguariensis
AtlES075,"Serra das Torres, floresta nebular",-21.0141666666667,-41.2402777777778,Brasil,Ocotea domatiata
CerMA011,"Santa Quitéria e Luzilândia, Rio Parnaíba, floresta ripícola",-3.4475,-42.5036111111111,Brasil,Trema micrantha
CaaPI001,"Paulistana, caatinga quartzosa",-8.0275,-41.0805555555556,Brasil,Mimosa tenuiflora
CerMG095,"Iguatama, floresta ripícola",-20.1438888888889,-45.6533333333333,Brasil,Anadenanthera peregrina
AmzAM121,"Manaus, Tarumã-Mirim, nanofloresta de areias brancas",-2.945,-60.2102777777778,Brasil,Tapirira guianensis
AtlPR116,"Bandeirantes do Paraná, floresta semidecídua",-23.1636111111111,-50.3402777777778,Brasil,Schinus terebinthifolius
AtlMG061,"Piranga, floresta semidecídua",-20.6286111111111,-43.3719444444444,Brasil,Astrocaryum aculeatissimum
AmzPA005,"Salinópolis, Praia do Atalaia, mosaico flúvio-arenícola costeiro",-0.611388888888889,-47.3172222222222,Brasil,Laguncularia racemosa
CerMG106,"Buritizeiro, floresta decídua",-17.2647222222222,-44.9402777777778,Brasil,Cordiera sessilis
AtlBA011,"Itacaré, Rio de Contas, mosaico arenícola costeiro",-14.2616666666667,-39.0066666666667,Brasil,Jacaranda obovata
AmzAM134,"Serra do Aracá, Maciço Sul, nanofloresta nebular",0.874722222222222,-63.2380555555556,Brasil,Bonyunia antoniifolia
AtlAL013,"Matriz de Camaragibe, floresta pluvial",-9.03222222222222,-35.5855555555556,Brasil,Hymenaea courbaril
AtlSC170,"Ponte Serrada, floresta estacional de araucária",-26.82,-52.0169444444444,Brasil,Citronella gongonha
AtlRJ008,"Ilha de Marambaia, mosaico arenícola costeiro",-23.0483333333333,-43.8694444444444,Brasil,Licania littoralis
AmzAP013,"Macapá, Rio Macacoari, floresta ripícola",0.473611111111111,-50.7447222222222,Brasil,Byrsonima japurensis
AtlPR025,"Serra da Prata, floresta nebular",-25.6177777777778,-48.695,Brasil,Ocotea odorifera
AmzPA033,"São Francisco do Pará, floresta pluvial de terra firme",-1.18166666666667,-47.8225,Brasil,Aspidosperma excelsum
AtlBA055,"Una, floresta pluvial",-15.1752777777778,-39.095,Brasil,Machaerium ovalifolium
CerTO022,"Alvorada, cerradão mesotrófico",-12.5144444444444,-49.1697222222222,Brasil,Zeyheria montana
AtlPR080,"Bituruna, floresta estacional de araucária",-26.0963888888889,-51.5188888888889,Brasil,Cedrela fissilis
AtlMG040,"Leme do Prado, floresta semidecídua",-17.0336111111111,-42.7033333333333,Brasil,Sorocea guilleminiana
AtlRS092,"Candelária, floresta semidecídua",-29.6330555555556,-52.8430555555556,Brasil,Strychnos brasiliensis
AmzAM274,"Terra Indígena Tenharim, floresta pluvial de terra firme",-7.90944444444444,-62.1836111111111,Brasil,Iryanthera hostmannii
AtlSC054,"Taió, floresta pluvial",-27.0919444444444,-50.0375,Brasil,Baccharis semiserrata
CerMS115,"Alto Aporé, floresta ripícola",-18.6605555555556,-52.8494444444444,Brasil,Simarouba amara
AmzRO003,"Candeias do Jamari, Usina de Samuel, floresta pluvial de terra firme",-8.75361111111111,-63.3622222222222,Brasil,Trichilia quadrijuga
CerCE009,"Camocim, cerrado",-2.98777777777778,-40.6869444444444,Brasil,Cordiera myrciifolia
CerPI027,"Monsenhor Gil, cerradão mesotrófico",-5.54138888888889,-42.6305555555556,Brasil,Vismia guianensis
AtlMG046,"Rio Vermelho, floresta semidecídua",-18.2422222222222,-42.9661111111111,Brasil,Miconia ligustroides
AtlMG049,"Açucena, floresta semidecídua",-19.0433333333333,-42.4338888888889,Brasil,Casearia sylvestris
AtlMG121,"Mariana, floresta semidecídua",-20.3688888888889,-43.3861111111111,Brasil,Sebastiania brasiliensis
AmzRO057,"Costa Marques, ICMBio, floresta estacional de terra firme",-12.5602777777778,-63.4419444444444,Brasil/Bolivia,Dendropanax cuneatus
AtlSP129,"Salmourão, floresta semidecídua",-21.5688888888889,-50.7397222222222,Brasil,Miconia chamissois
AmzTO002,"Araguatins, floresta estacional de terra firme",-5.30388888888889,-48.3677777777778,Brasil,Rinorea ovalifolia
AmzAM033,"Manaus, Lago Tupé, floresta pluvial de terra firme",-3.04833333333333,-60.2616666666667,Brasil,Pouteria macrophylla
CerDF015,"Jardim Botânico de Brasília, cerrado",-15.9022222222222,-47.8761111111111,Brasil,Zeyheria montana
AtlES065,"Afonso Cláudio, floresta semidecídua",-20.0777777777778,-41.1138888888889,Brasil,Campomanesia guaviroba
CerMT089,"Serra da Petrovina, cerrado",-16.8075,-54.1816666666667,Brasil,Plathymenia reticulata
AtlSC031,"Palhoça, floresta pluvial",-27.7130555555556,-48.6544444444444,Brasil,Eugenia beaurepairiana
AtlMG216,"Santa Rita de Jacutinga, floresta semidecídua",-22.1958333333333,-44.1827777777778,Brasil,Myrcia pubipetala
AtlMG135,"Ouro Branco, floresta semidecídua",-20.4972222222222,-43.7241666666667,Brasil,Humiria balsamifera
CerMG184,"Chapada dos Gerais, cerrado rupícola",-17.4558333333333,-45.1825,Brasil,Myrsine guianensis
CerMT066,"Itiquira, floresta ripícola",-17.2305555555556,-54.5741666666667,Brasil,Guarea guidonia
CaaBA129,"Morpará, Rio São Francisco, floresta decídua inundável",-11.4816666666667,-43.2441666666667,Brasil,Zygia latifolia
AtlMG146,"Serra do Cabral, campo rupícola",-17.625,-44.2563888888889,Brasil,Byrsonima verbascifolia
AtlMG250,"Baependi, floresta semidecídua",-21.8830555555556,-44.9208333333333,Brasil,Campomanesia guaviroba
AtlSP069,"Joanópolis, floresta nebular",-22.8952777777778,-46.2363888888889,Brasil,Daphnopsis brasiliensis
AtlBA064,"São Miguel das Matas, floresta pluvial",-12.9527777777778,-39.4525,Brasil,Sterculia curiosa
AtlPR133,"Quatiguá, floresta semidecídua",-23.5080555555556,-49.8086111111111,Brasil,Tapirira guianensis
AmzRO039,"Cabeceiras do Pacaás Novos, floresta pluvial subserrana",-10.9638888888889,-63.7222222222222,Brasil,Trema micrantha
CerTO044,"Rio Jaburu, cerrado de murundus",-12.0288888888889,-50.3936111111111,Brasil,Aspidosperma macrocarpon
AtlMG127,"Serra da Piedade, Penedia, floresta semidecídua",-19.8305555555556,-43.6486111111111,Brasil,Cyathea phalerata
AtlCE030,"Barbalha, floresta semidecídua",-7.36777777777778,-39.33,Brasil,Guapira nitida
AtlRJ059,"Santa Maria Madalena, floresta pluvial",-21.9775,-42.0044444444444,Brasil,Zollernia ilicifolia
AmzAM032,"Manaus, Tarumã-Açu, floresta pluvial de terra firme",-2.89027777777778,-60.1475,Brasil,Tabernaemontana macrocalyx
AtlPB016,"Sapé, floresta semidecídua",-7.03583333333333,-35.1594444444444,Brasil,Clusia nemorosa
AmzMT025,"Alta Floresta, floresta estacional de terra firme",-9.97277777777778,-56.3502777777778,Brasil,Ceiba pentandra
AmzAM215,"São Sebastião do Uatumã, Lago Uatumã, floresta inundável de água negra",-2.55277777777778,-58.1491666666667,Brasil,Licania longistyla
CaaPB036,"Monte Horebe, floresta decídua",-7.18972222222222,-38.5902777777778,Brasil,Styrax camporum
AtlSC159,"Rio Canoas, floresta estacional de araucária",-27.6333333333333,-51.1627777777778,Brasil,Myrsine coriacea
CerMG068,"João Pinheiro, floresta ripícola",-17.6558333333333,-46.3122222222222,Brasil,Cordia sellowiana
CerMA014,"Colinas do Maranhão, floresta ripícola",-6.01888888888889,-44.6044444444444,Brasil,Ceiba samauma
AtlMG007,"Nanuque, floresta semidecídua",-17.8322222222222,-40.2808333333333,Brasil,Piptadenia gonoacantha
AtlRS141,"Riozinho, floresta semidecídua",-29.6019444444444,-50.3661111111111,Brasil,Eugenia multicostata
AtlMG092,"Capanema, nanofloresta rupícola",-20.17,-43.6458333333333,Brasil,Ficus laureola
AmzRR060,"Amajari, Fazenda União, savana hipersazonal",3.51527777777778,-60.9105555555556,Brasil,Eugenia stictopetala
CerPA005,"Conceição do Araguaia, Rio Arraia, floresta ripícola",-8.18166666666667,-49.5847222222222,Brasil,Erythroxylum leptoneurum
AtlSP023,"Ilha do Cardoso, Núcleo Marujá, floresta pluvial",-25.1694444444444,-47.9905555555556,Brasil,Marlierea excoriata
AtlRS099,"Porto Alegre, floresta semidecídua",-30.0641666666667,-51.125,Brasil,Myrcia hartwegiana
AtlSC022,"São João do Itaperiú, floresta pluvial",-26.6413888888889,-48.7844444444444,Brasil,Quillaja brasiliensis
CerMG096,"Vargem Bonita, floresta ripícola",-20.3483333333333,-46.2925,Brasil,Diospyros hispida
AmzAM223,"Careiro da Várzea, Paraná do Autaz-Mirim, floresta inundável de água negra",-3.28388888888889,-59.4844444444444,Brasil,Myrciaria dubia
CerGO078,"Nova Crixás, floresta ripícola",-14.0547222222222,-50.4936111111111,Brasil,Mabea pohliana
AtlMG107,"Mendanha, Rio Jequitinhonha, floresta semidecídua",-18.2655555555556,-43.4494444444444,Brasil,Psidium rufum
CerMS045,"Bela Vista, cerradão mesotrófico",-21.7880555555556,-56.2405555555556,Brasil,Bauhinia ungulata
AtlSC190,"Guatambu, floresta semidecídua",-27.09,-52.83,Brasil,Inga marginata
AmzAM074,"Alto Rio Urubu, floresta inundável de água negra",-2.10194444444444,-60.0138888888889,Brasil,Matayba arborescens
CerGO121,"Alto Paranã, floresta ripícola",-14.605,-47.2161111111111,Brasil,Siparuna guianensis
CerBA040,"Tabocas do Brejo Velho, cerrado",-12.5330555555556,-44.1708333333333,Brasil,Eugenia stictopetala
AmzGF011,"Camopi et Vila Brasil, forêt pluvieuse de terre ferme",3.1625,-52.3466666666667,France/Brasil,Swartzia polyphylla
AtlPR035,"Serra do Araçatuba, nanofloresta rupícola",-25.8980555555556,-48.98,Brasil,Drimys angustifolia
AtlSC060,"Nova Trento, floresta pluvial",-27.3583333333333,-49.0497222222222,Brasil,Baccharis singularis
AtlMG264,"Piedade do Rio Grande, floresta semidecídua",-21.4877777777778,-44.1005555555556,Brasil,Ocotea corymbosa
AtlMG070,"Serra do Caraça, Carapuça, nanofloresta nebular",-20.0791666666667,-43.4575,Brasil,Chamaecrista cytisoides
AmzPA112,"Tucuruí, Novo Repartimento, floresta estacional de terra firme",-4.51277777777778,-49.8852777777778,Brasil,Caryocar glabrum
AtlSC072,"Lauro Muller, floresta pluvial",-28.35,-49.4997222222222,Brasil,Gymnanthes klotzschiana
AtlRJ086,"Agulhas Negras, nanofloresta rupícola",-22.4080555555556,-44.6513888888889,Brasil,Piper cernuum
CerSP034,"Itatinga, cerrado",-23.0313888888889,-48.5505555555556,Brasil,Eugenia klotzschiana
AtlBA085,"Feira de Santana a Coração de Maria, floresta semidecídua",-12.255,-38.8172222222222,Brasil,Plinia cauliflora
AmzAM010,"Pari-Cachoeira, Igarapé Umari, floresta pluvial de terra firme",0.281111111111111,-69.7552777777778,Brasil,Licania heteromorpha
AtlSP063,"Xitué, floresta pluvial",-24.2838888888889,-48.3319444444444,Brasil,Allophylus edulis
AtlMG019,"Parque do Rio Doce, Ipatinga, floresta semidecídua",-19.4986111111111,-42.5263888888889,Brasil,Miconia budlejoides
AmzPA048,"Tomé-Açu, floresta pluvial de terra firme",-2.45388888888889,-48.1216666666667,Brasil,Protium sagotianum
AtlMG165,"Serra da Gandarela, campo rupícola",-20.1105555555556,-43.6655555555556,Brasil,Guapira tomentosa
AtlAL032,"Igreja Nova, floresta semidecídua",-10.0877777777778,-36.5186111111111,Brasil,Ouratea salicifolia
CaaBA049,"Caturama, caatinga carbonática",-13.3016666666667,-42.2644444444444,Brasil,Pilosocereus pachycladus
CerGO135,"Niquelândia, nanofloresta rupícola",-14.3313888888889,-48.5325,Brasil,Heisteria ovata
CerMG198,"Uberlândia, Irara, floresta ripícola",-19.1591666666667,-48.1530555555556,Brasil,Pouteria torta
AtlPR105,"Cristo Rei, floresta semidecídua",-22.7511111111111,-52.4369444444444,Brasil,Ecclinusa ramiflora
AtlRJ066,"Maciço do Tinguá, floresta pluvial",-22.5511111111111,-43.4130555555556,Brasil,Meriania paniculata
AtlES055,"Castelo, Mata das Flores, floresta semidecídua",-20.61,-41.1713888888889,Brasil,Discophora guianensis
AmzAM308,"Alto Rio Juami, nanofloresta de areias brancas",-2.32027777777778,-68.4466666666667,Brasil,Guarea cristata
CerGO128,"Barro Alto, floresta ripícola",-15.0094444444444,-48.9658333333333,Brasil,Terminalia fagifolia
AmzPA113,"Itupiranga, Benfica, floresta estacional de terra firme",-5.25138888888889,-49.7727777777778,Brasil,Tapirira guianensis
CaaPI024,"Curimatá, caatinga arbórea",-10.1144444444444,-44.18,Brasil,Croton tricolor
AtlSC102,"Joinville, Serra Dona Francisca, floresta nebular",-26.2288888888889,-49.07,Brasil,Myrcia multiflora
AmzMT038,"Estação Ecológica de Iquê, floresta estacional subserrana",-11.9855555555556,-59.4205555555556,Brasil,Ecclinusa ramiflora
CaaBA059,"Manoel Vitorino, caatinga alcalina",-14.0958333333333,-40.2772222222222,Brasil,Libidibia ferrea
AtlSC197,"Coronel Freitas, floresta semidecídua",-26.955,-52.74,Brasil,Actinostemon concolor
CerGO015,"Silvânia, floresta ripícola",-16.6652777777778,-48.6322222222222,Brasil,Machaerium acutifolium
AtlSP041,"Parque Estadual do Jaraguá, floresta pluvial",-23.4680555555556,-46.7683333333333,Brasil,Esenbeckia grandiflora
CerMT073,"Santo Antônio do Leverger, cerradão mesotrófico",-15.7688888888889,-56.0797222222222,Brasil,Combretum leprosum
AtlPE022,"Tamandaré, Saltinho, floresta pluvial",-8.72444444444444,-35.1752777777778,Brasil,Amaioua guianensis
AmzPA046,"Cametá, floresta pluvial de terra firme",-2.17305555555556,-49.5308333333333,Brasil,Pouteria cuspidata
CerPI019,"Beneditinos, nanofloresta areno-rupícola",-5.39166666666667,-42.3416666666667,Brasil,Eugenia flavescens
AmzRO052,"Jaru, floresta estacional de terra firme",-10.5308333333333,-62.3797222222222,Brasil,Trichilia catigua
CerGO113,"Doverlândia, cerrado rupícola",-16.8752777777778,-52.3186111111111,Brasil,Jacaranda brasiliana
AmzAM034,"Manaus, Campus da UFAM, floresta pluvial de terra firme",-3.09111111111111,-59.9594444444444,Brasil,Siparuna poeppigii
AtlRJ076,"Petrópolis, floresta nebular",-22.5347222222222,-43.1580555555556,Brasil,Eugenia subavenia
AmzAM034,"Manaus, Campus da UFAM, floresta pluvial de terra firme",-3.09111111111111,-59.9594444444444,Brasil,Peritassa dulcis
AmzPA153,"Terra Santa, Entroncamento, floresta pluvial de terra firme",-1.95527777777778,-56.5011111111111,Brasil,Mezilaurus itauba
AmzAC033,"Rio Branco, floresta estacional de terra firme",-10.1694444444444,-68.2375,Brasil,Trichilia fasciculata
AtlSP010,"Ilha Comprida, mosaico flúvio-arenícola costeiro",-24.9061111111111,-47.7938888888889,Brasil,Casearia sylvestris
CerMT047,"Araputanga, floresta ripícola",-15.5252777777778,-58.3655555555556,Brasil,Eugenia flavescens
CerMG172,"Corinto, cerrado",-18.3533333333333,-44.4686111111111,Brasil,Erythroxylum daphnites
CerMA027,"Pé-de-Galinha, cerradão distrófico",-7.75972222222222,-45.7772222222222,Brasil,Antonia ovata
AmzPA198,"Parauapebas, Rio Itacaiúnas, floresta estacional inundável",-6.03944444444444,-49.9066666666667,Brasil,Duroia paraensis
CerTO066,"Paranã, floresta ripícola",-12.8419444444444,-47.8091666666667,Brasil,Croton matourensis
AtlSP126,"Guaiçara, floresta semidecídua",-21.4944444444444,-49.6838888888889,Brasil,Celtis iguanaea
AtlPR081,"Pato Branco, floresta estacional de araucária",-26.1930555555556,-52.6775,Brasil,Erythrina falcata
AtlPR060,"Tibagi, floresta estacional de araucária",-24.4780555555556,-50.4066666666667,Brasil,Cordia ecalyculata
CerMS081,"Paraíso das Águas, floresta ripícola",-19.2530555555556,-52.8083333333333,Brasil,Campomanesia velutina
AtlSP183,"Botucatu, floresta semidecídua",-22.8375,-48.4263888888889,Brasil,Lafoensia pacari
AtlSC050,"Ibirama, floresta pluvial",-27.0288888888889,-49.555,Brasil,Luetzelburgia guaissara
AtlMG230,"Sacramento, floresta semidecídua",-19.8855555555556,-47.4275,Brasil,Ficus eximia
AtlSC027,"Canelinhas, floresta pluvial",-27.2608333333333,-48.7427777777778,Brasil,Myrcia glabra
AmzRO063,"Cerejeiras, floresta estacional subserrana",-13.2441666666667,-60.8486111111111,Brasil,Virola elongata
CerMT172,"Santa Terezinha, cerrado de murundus",-10.1019444444444,-50.4869444444444,Brasil,Copaifera malmei
CaaCE027,"Boa Viagem, caatinga quartzosa",-5.1225,-39.79,Brasil,Guettarda angelica
AmzAM273,"Santo Antônio do Matupi, floresta pluvial de terra firme",-7.88305555555556,-61.3375,Brasil,Palicourea guianensis
AtlSE010,"Pacatuba, floresta semidecídua",-10.5511111111111,-36.735,Brasil,Stryphnodendron pulcherrimum
AmzMA030,"Açailândia, floresta estacional de terra firme",-4.73416666666667,-47.7366666666667,Brasil,Swartzia brachyrachis
CerSP025,"São Carlos, cerrado",-21.9816666666667,-47.8697222222222,Brasil,Byrsonima coccolobifolia
CaaMG035,"Taiobeiras, floresta decídua",-15.8702777777778,-42.0655555555556,Brasil,Cestrum axillare
AmzRO060,"Pimenta Bueno, floresta estacional subserrana",-12.0344444444444,-60.6080555555556,Brasil,Protium decandrum
AmzMT039,"Querência, floresta estacional subserrana",-12.1794444444444,-52.6711111111111,Brasil,Sacoglottis guianensis
AtlMG101,"Peixe Cru, floresta semidecídua",-17.1180555555556,-42.9486111111111,Brasil,Melanoxylon brauna
CaaRN018,"Jucurutu, caatinga quartzosa",-6.05472222222222,-37.0313888888889,Brasil,Rhamnidium molle
AmzRR016,"Furo de Maracá, Rio Uraricoera, floresta inundável de água branca",3.33388888888889,-61.6316666666667,Brasil,Ficus maxima
AmzPA214,"Sete Quedas do Teles Pires, floresta estacional de terra firme",-9.34333333333333,-56.7644444444444,Brasil,Tapirira obtusa
AmzAM144,"Manaus, Silvicultura Tropical, floresta pluvial de terra firme",-2.65305555555556,-60.0966666666667,Brasil,Simaba cedron
AtlRJ063,"Guapiaçu, floresta pluvial",-22.4125,-42.8205555555556,Brasil,Peltogyne discolor
AmzPA182,"Canaã dos Carajás, Serra do Sossego, floresta pluvial subserrana",-6.47388888888889,-50.0777777777778,Brasil,Protium unifoliolatum
AtlMG104,"Abadia, floresta semidecídua",-17.6769444444444,-43.1066666666667,Brasil,Campomanesia sessiliflora
CerTO051,"Filadélfia, Bielândia, floresta ripícola",-7.51027777777778,-47.8966666666667,Brasil,Licania heteromorpha
AtlPR132,"Londrina, floresta semidecídua",-23.4502777777778,-51.2541666666667,Brasil,Tabernaemontana catharinensis
CerDF001,"Rio São Bartolomeu, floresta ripícola",-15.8472222222222,-47.715,Brasil,Chionanthus trichotomus
AtlBA054,"Olivença, floresta pluvial",-14.9697222222222,-39.1158333333333,Brasil,Schoepfia brasiliensis
AtlSC072,"Lauro Muller, floresta pluvial",-28.35,-49.4997222222222,Brasil,Zanthoxylum kleinii
CerMT148,"Nova Xavantina, cerradão mesotrófico",-14.5336111111111,-52.4761111111111,Brasil,Eugenia aurata
CerMG118,"Baldim, floresta decídua",-19.2733333333333,-43.8408333333333,Brasil,Allophylus racemosus
AtlRS122,"Pantano Grande, floresta semidecídua",-30.1016666666667,-52.3966666666667,Brasil,Cupania vernalis
AmzAM290,"Estirão do Equador, floresta pluvial de terra firme",-4.53388888888889,-71.6266666666667,Brasil/Perú,Oxandra mediocris
CaaSE010,"Nossa Senhora das Dores, floresta decídua",-10.4144444444444,-37.1725,Brasil,Aspidosperma discolor
AmzRO056,"Seringueiras, floresta estacional de terra firme",-11.6936111111111,-63.2216666666667,Brasil,Ouratea castaneifolia
CerTO056,"Centenário, floresta ripícola",-8.97277777777778,-47.4386111111111,Brasil,Eugenia florida
AtlES004,"Linhares, Pontal do Ipiranga, mosaico arenícola costeiro",-19.2022222222222,-39.7277777777778,Brasil,Solanum caavurana
AtlBA052,"Itabuna, floresta pluvial",-14.7138888888889,-39.2727777777778,Brasil,Pachystroma longifolium
AtlSP027,"Cubatão, floresta pluvial",-23.8497222222222,-46.4322222222222,Brasil,Hieronyma alchorneoides
AtlPB009,"João Pessoa, floresta pluvial",-7.145,-34.8608333333333,Brasil,Casearia decandra
AtlRJ058,"Serra das Cinco Pontas, floresta pluvial",-21.7891666666667,-41.6780555555556,Brasil,Calyptranthes lucida
AtlSC034,"Imbituba, floresta pluvial",-28.1730555555556,-48.7636111111111,Brasil,Psychotria laciniata
AtlRJ023,"Guapimirim, Centro de Primatologia, floresta pluvial",-22.4883333333333,-42.9122222222222,Brasil,Piptadenia gonoacantha
AtlBA154,"Catolés, Serra da Tromba, campo rupícola",-13.2708333333333,-41.7886111111111,Brasil,Chamaecrista cytisoides
AtlMG205,"Cataguases, floresta semidecídua",-21.3738888888889,-42.7186111111111,Brasil,Myrcia laruotteana
AmzPA058,"Boca do Aramá, Rio Anajás, floresta inundável de água branca",-0.841666666666667,-50.1158333333333,Brasil,Chrysophyllum cuneifolium
AtlPR121,"Porto Camargo, floresta semidecídua",-23.3836111111111,-53.7630555555556,Brasil,Ocotea indecora
CerGO088,"Goiás Velho, floresta ripícola",-15.9258333333333,-50.0827777777778,Brasil,Cordiera concolor
CerMG192,"Monte Carmelo, floresta ripícola",-18.665,-47.4847222222222,Brasil,Pleroma candolleanum
AtlRJ075,"Teresópolis, floresta nebular",-22.4544444444444,-42.9502777777778,Brasil,Ocotea corymbosa
AtlBA066,"Ibirapitanga, floresta pluvial",-13.8897222222222,-39.4619444444444,Brasil,Manilkara salzmannii
AtlSP072,"Serra do Japi, floresta nebular",-23.2675,-46.9680555555556,Brasil,Myrcia guianensis
AmzAP023,"Oiapoque, Alto Rio Anotaié, floresta pluvial de terra firme",2.75861111111111,-51.9452777777778,Brasil,Pouteria caimito
AtlMG184,"Poços de Caldas, Alcoa, nanofloresta rupícola",-21.9280555555556,-46.6172222222222,Brasil,Ficus lagoensis
AtlRJ033,"Niterói, Serra da Tiririca, floresta pluvial",-22.9294444444444,-42.9794444444444,Brasil,Matayba intermedia
AtlPR089,"Prudentópolis, floresta estacional de araucária",-25.075,-51.2852777777778,Brasil,Pimenta pseudocaryophyllus
AmzAM174,"Itamarati, floresta pluvial de terra firme",-6.35416666666667,-68.2566666666667,Brasil,Licaria crassifolia
CerGO014,"Parque Altamiro de Moura, floresta ripícola",-16.5461111111111,-49.1347222222222,Brasil,Guadua magna
CerMT081,"Chapada dos Guimarães, cerrado",-15.2419444444444,-55.54,Brasil,Vochysia cinnamomea
CerMG031,"Santana do Riacho, Rio Cipó, floresta ripícola",-19.1133333333333,-43.7411111111111,Brasil,Amaioua guianensis
AmzAM279,"Parque dos Campos Amazônicos, savana hipersazonal",-8.32361111111111,-61.7247222222222,Brasil,Miconia stenostachya
AtlBA054,"Olivença, floresta pluvial",-14.9697222222222,-39.1158333333333,Brasil,Zollernia ilicifolia
AtlBA058,"Porto Seguro, floresta pluvial",-16.3530555555556,-39.1427777777778,Brasil,Ocotea glauca
AtlSP067,"Bananal, floresta nebular",-22.8252777777778,-44.3933333333333,Brasil,Weinmannia organensis
AmzAM022,"Balbina, Santo Antônio do Abonari, floresta pluvial de terra firme",-1.29305555555556,-60.3913888888889,Brasil,Mezilaurus itauba
AtlPB007,"Barra de Camaratuba, savana arenícola costeira",-6.54666666666667,-34.9883333333333,Brasil,Psidium guajava
AtlMG207,"Leopoldina, floresta semidecídua",-21.5663888888889,-42.6219444444444,Brasil,Eugenia uniflora
CerTO095,"Novo Acordo, cerradão mesotrófico",-9.94472222222222,-47.6558333333333,Brasil,Cordia trichotoma
AtlRJ105,"Três Rios, floresta semidecídua",-22.1955555555556,-43.1455555555556,Brasil,Piptocarpha axillaris
AtlSC036,"Morro da Fumaça, floresta pluvial",-28.6191666666667,-49.2322222222222,Brasil,Sapium glandulosum
AmzAM150,"Silves a Itacoatiara, floresta pluvial de terra firme",-2.88472222222222,-58.7066666666667,Brasil,Lacmellea arborescens
AmzAM176,"Tapauá, Aldeia Indígena Deni, floresta pluvial de terra firme",-6.80694444444444,-66.9380555555556,Brasil,Ficus insipida
CerGO123,"Ceres, floresta ripícola",-15.2355555555556,-49.4875,Brasil,Ocotea corymbosa
AtlSE002,"Praia do Saco, mosaico arenícola costeiro",-11.4119444444444,-37.3297222222222,Brasil,Brodriguesia santosii
CerMA026,"São Domingos do Azeitão, cerradão mesotrófico",-6.84388888888889,-44.3897222222222,Brasil,Solanum crinitum
AtlSP068,"São Francisco Xavier, floresta nebular",-22.8819444444444,-45.955,Brasil,Citronella paniculata
AtlMG055,"Alvinópolis, floresta semidecídua",-20.0641666666667,-43.0319444444444,Brasil,Ocotea dispersa
CerGO039,"Jataí, cerradão mesotrófico",-17.8919444444444,-51.4230555555556,Brasil,Aegiphila integrifolia
AmzAM143,"Manaus, EMBRAPA, floresta pluvial de terra firme",-2.53944444444444,-59.9983333333333,Brasil,Pseudolmedia laevigata
AtlSC086,"Rio do Sul, floresta pluvial",-27.18,-49.68,Brasil,Schinus engleri
CerMG206,"Santa Vitória, floresta decídua",-19.1794444444444,-50.6969444444444,Brasil,Bauhinia pentandra
AtlSC021,"Araquari, Inferninho, floresta pluvial",-26.4111111111111,-48.6983333333333,Brasil,Diospyros inconstans
AtlRS113,"São Sebastião do Caí, floresta semidecídua",-29.5552777777778,-51.2863888888889,Brasil,Mollinedia elegans
AtlRJ078,"Pico da Tijuca, floresta nebular",-22.9441666666667,-43.2872222222222,Brasil,Neomitranthes warmingiana
AtlBA053,"Ilhéus, floresta pluvial",-14.7808333333333,-39.0836111111111,Brasil,Picramnia bahiensis
CerMG058,"Gouveia, cerrado rupícola",-18.5730555555556,-43.8072222222222,Brasil,Lithrea molleoides
AtlMG130,"Serra da Calçada, floresta semidecídua",-20.1369444444444,-43.9966666666667,Brasil,Vochysia emarginata
CaaCE046,"Mauriti, floresta decídua",-7.43777777777778,-38.6019444444444,Brasil,Helicteres baruensis
AmzPA037,"Castanhal, floresta pluvial de terra firme",-1.31944444444444,-47.9894444444444,Brasil,Neoptychocarpus apodanthus
CerGO173,"Alto Paraíso de Goiás, cerrado rupícola",-14.1533333333333,-47.6027777777778,Brasil,Virola sebifera
CerMG120,"Doresópolis, floresta decídua",-20.2711111111111,-45.9702777777778,Brasil,Cedrela fissilis
AmzMT043,"Nova Lacerda, floresta estacional subserrana",-14.4094444444444,-59.7838888888889,Brasil,Ficus crocata
CaaBA022,"Senhor do Bonfim, caatinga quartzítica",-10.4055555555556,-40.215,Brasil,Solanum gardneri
AtlBA123,"Saúde, floresta semidecídua",-10.9316666666667,-40.4027777777778,Brasil,Eugenia candolleana
CaaPB041,"Cuité e Jaçanã, floresta decídua",-6.4325,-36.1422222222222,Brasil,Brasiliopuntia brasiliensis
AmzAM148,"Rio Preto da Eva, Reserva Egler, floresta pluvial de terra firme",-2.75777777777778,-59.7583333333333,Brasil,Chrysophyllum prieurii
AtlMG011,"Marilac, floresta semidecídua",-18.4933333333333,-42.0708333333333,Brasil,Miconia cinnamomifolia
AmzAM145,"Itapiranga, floresta pluvial de terra firme",-2.71694444444444,-58.1247222222222,Brasil,Guarea convergens
CaaCE034,"Lavras da Mangabeira, caatinga quartzosa",-6.72388888888889,-38.8369444444444,Brasil,Cenostigma pyramidale
AmzMA025,"Buriticupu, floresta estacional de terra firme",-3.88555555555556,-46.2597222222222,Brasil,Clarisia ilicifolia
AtlPR009,"Antonina, floresta pluvial",-25.4511111111111,-48.7011111111111,Brasil,Cinnamodendron dinisii
AtlSC146,"Irineópolis, floresta estacional de araucária",-26.3730555555556,-50.7658333333333,Brasil,Maytenus evonymoides
AmzAM141,"São Sebastião do Uatumã, floresta pluvial de terra firme",-2.47277777777778,-57.9247222222222,Brasil,Couma macrocarpa
AmzAC030,"Bujari, floresta estacional de terra firme",-9.76138888888889,-68.1522222222222,Brasil,Ocotea cernua
AtlMG272,"Santa Rita de Caldas, floresta semidecídua",-22.0805555555556,-46.3477777777778,Brasil,Ficus calyptroceras
AmzMT026,"Aripuanã, Dardanelos, floresta estacional de terra firme",-10.1555555555556,-59.4447222222222,Brasil,Lacunaria jenmanii
AmzRO051,"Vale do Anari, Rebio Jaru, floresta estacional de terra firme",-9.56583333333333,-61.7780555555556,Brasil,Tetragastris panamensis
AtlMG260,"Itamogi, floresta semidecídua",-21.1125,-46.975,Brasil,Trema micrantha
AtlSC121,"Mirim Doce, floresta pluvial de araucária",-27.1825,-50.2177777777778,Brasil,Ormosia arborea
CerCE005,"Missão Velha, cerradão mesotrófico",-7.27527777777778,-39.1088888888889,Brasil,Simarouba versicolor
AtlMG204,"Rio Pomba, floresta semidecídua",-21.2730555555556,-43.1052777777778,Brasil,Cupania oblongifolia
AtlMG135,"Ouro Branco, floresta semidecídua",-20.4972222222222,-43.7241666666667,Brasil,Remijia ferruginea
AtlSC158,"Correia Pinto, floresta estacional de araucária",-27.6308333333333,-50.22,Brasil,Moquiniastrum polymorphum
AmzPA197,"Altamira, Rio Xingu, floresta estacional inundável",-3.20611111111111,-52.1616666666667,Brasil,Cynometra longifolia
AtlSP062,"São Miguel Arcanjo, P.E. Carlos Botelho, floresta pluvial",-24.1394444444444,-47.9997222222222,Brasil,Cordia magnoliifolia
CerBA027,"Correntina, Rio das Éguas, floresta ripícola",-13.5030555555556,-45.5022222222222,Brasil,Copaifera luetzelburgii
AmzMA027,"Bacabal, floresta estacional de terra firme",-4.2875,-44.7161111111111,Brasil,Inga capitata
CaaBA158,"Planaltino, floresta decídua",-13.2316666666667,-40.3341666666667,Brasil,Anadenanthera colubrina
AtlSP079,"Piquete, floresta nebular",-22.5680555555556,-45.2191666666667,Brasil,Baccharis serrulata
AtlSC040,"Turvo, floresta pluvial",-28.9555555555556,-49.7261111111111,Brasil,Solanum pseudo-quina
AmzPA134,"Monte Dourado, Esec do Jari, floresta pluvial subserrana",-0.6425,-53.0461111111111,Brasil,Inga capitata
CerMS103,"Ribas do Rio Pardo, cerrado",-20.4594444444444,-53.7888888888889,Brasil,Bauhinia rufa
AmzAM164,"Borba, floresta pluvial de terra firme",-4.41972222222222,-59.5036111111111,Brasil,Hebepetalum humiriifolium
CerMG234,"Patrocínio, Aeroporto, cerrado",-18.8783333333333,-47.0058333333333,Brasil,Cybistax antisyphilitica
AtlMG125,"Congonhas do Norte, floresta semidecídua",-18.7819444444444,-43.6822222222222,Brasil,Ixora brevifolia
CerGO046,"Aparecida do Rio Doce, cerradão distrófico",-18.2475,-51.1733333333333,Brasil,Davilla grandiflora
AtlPR109,"Bela Vista do Paraíso, floresta semidecídua",-22.975,-51.1838888888889,Brasil,Esenbeckia febrifuga
AmzAM171,"Tapauá, Balsa do Rio Jutaí, floresta pluvial de terra firme",-5.44361111111111,-62.1022222222222,Brasil,Isertia hypoleuca
CaaBA025,"Pindobaçu, caatinga quartzítica",-10.8255555555556,-40.4608333333333,Brasil,Bauhinia pulchella
CaaCE016,"Santa Quitéria, caatinga quartzosa",-4.29361111111111,-40.0966666666667,Brasil,Manihot carthagenensis
AtlPR086,"Canyon Guartelá, floresta estacional de araucária",-24.6747222222222,-50.1588888888889,Brasil,Allophylus guaraniticus
CaaCE002,"Santana do Acaraú, caatinga arenícola aluvional",-3.33138888888889,-40.1611111111111,Brasil,Crateva tapia
AmzRO060,"Pimenta Bueno, floresta estacional subserrana",-12.0344444444444,-60.6080555555556,Brasil,Neea ovalifolia
AtlRS047,"Caxias do Sul, floresta estacional de araucária",-29.0225,-51.2013888888889,Brasil,Cedrela fissilis
CaaMG011,"Matias Cardoso, Cajueiro, caatinga arbórea",-15.0030555555556,-43.9002777777778,Brasil,Galipea ciliata
AtlSP154,"Águas de Santa Bárbara, floresta semidecídua",-22.8766666666667,-49.2627777777778,Brasil,Faramea latifolia
CerMG047,"Montezuma, cerrado",-15.1013888888889,-42.3533333333333,Brasil,Pouteria torta
PamRS014,"Marmeleiro, mosaico arenícola costeiro",-33.0494444444444,-53.0794444444444,Brasil,Erythroxylum argentinum
CerTO147,"Porto Nacional, Morro da Antena, cerrado rupícola",-10.7033333333333,-48.3075,Brasil,Vochysia rufa
CerTO057,"Miracema do Tocantins, floresta ripícola",-9.53222222222222,-48.4027777777778,Brasil,Xylosma benthamii
AtlRS069,"Santo Ângelo, floresta semidecídua",-28.1955555555556,-54.1719444444444,Brasil,Campomanesia xanthocarpa
AtlPR012,"Morro do Quitumbê, floresta pluvial",-25.2761111111111,-48.3025,Brasil,Rudgea jasminoides
CerMS096,"Santa Rita do Pardo, cerradão distrófico",-21.335,-52.9283333333333,Brasil,Pouteria torta
AtlSP187,"Itatinga, floresta semidecídua",-23.2658333333333,-48.5052777777778,Brasil,Manihot grahamii
AmzRO033,"Machadinho d’Oeste, Jatuarana, floresta pluvial de terra firme",-9.15861111111111,-62.2372222222222,Brasil,Tachigali chrysaloides
AmzPA119,"Alter do Chão, Morro da Piroca, cerradão distrófico",-2.48222222222222,-54.9625,Brasil,Phyllanthus acuminatus
CerBA029,"Grande Sertão Veredas, floresta ripícola",-14.7055555555556,-45.6180555555556,Brasil,Maytenus gonoclada
CerGO154,"Porangatu, cerrado",-12.8588888888889,-49.1047222222222,Brasil,Stryphnodendron rotundifolium
AtlBA001,"Conde, Barra do Itariri, mosaico arenícola costeiro",-11.8905555555556,-37.6016666666667,Brasil,Guatteria schomburgkiana
AtlSP155,"Bofete, floresta semidecídua",-22.9936111111111,-48.2316666666667,Brasil,Piper cernuum
CerTO115,"Palmeirante, cerrado",-7.81388888888889,-47.9430555555556,Brasil,Mabea fistulifera
AtlSP118,"Potirendaba, floresta semidecídua",-21.1266666666667,-49.3269444444444,Brasil,Siparuna guianensis
AmzAC028,"Santa Rosa do Purus, floresta estacional de terra firme",-9.52083333333333,-70.4219444444444,Brasil,Banara guianensis
CerGO061,"Serranópolis, cerrado",-18.14,-52.1002777777778,Brasil,Cordiera rigida
AtlBA132,"Seabra, floresta semidecídua",-12.3772222222222,-41.7777777777778,Brasil,Cordiera elliptica
CerBA021,"Correntina, Rio do Meio, floresta ripícola",-13.2430555555556,-44.5761111111111,Brasil,Guazuma ulmifolia
AtlBA101,"Cândido Sales, floresta semidecídua",-15.2216666666667,-41.1377777777778,Brasil,Erythroxylum deciduum
CerGO026,"Serranópolis, floresta ripícola",-18.2375,-51.9877777777778,Brasil,Ocotea diospyrifolia
AtlMG077,"Serra do Ambrósio, nanofloresta rupícola",-18.1025,-43.1033333333333,Brasil,Guapira hirsuta
AtlPR034,"Serra da Baitaca, nanofloresta rupícola",-25.3855555555556,-48.9997222222222,Brasil,Gaylussacia brasiliensis
CerMS050,"Rochedo, cerrado",-19.9325,-54.7869444444444,Brasil,Davilla grandiflora
AmzPA127,"Monte Dourado, Planalto de Bituba, floresta pluvial de terra firme",-1.18666666666667,-52.5797222222222,Brasil,Amaioua guianensis
CaaAL004,"Canapi, caatinga quartzosa",-9.13916666666667,-37.5558333333333,Brasil,Parapiptadenia zehntneri
AtlSC065,"Florianópolis, Morro do Ribeirão, floresta pluvial",-27.7169444444444,-48.5508333333333,Brasil,Ficus cestrifolia
CerMG204,"Patrocínio, Cratera, floresta semidecídua",-18.8788888888889,-46.8627777777778,Brasil,Geissanthus ambiguus
AmzPA041,"Capitão Poço, CPATU, floresta pluvial de terra firme",-1.74666666666667,-47.2097222222222,Brasil,Ocotea longifolia
CerMS081,"Paraíso das Águas, floresta ripícola",-19.2530555555556,-52.8083333333333,Brasil,Guettarda viburnoides
AtlPR018,"Parque Saint-Hilaire/Lange, floresta pluvial",-25.5875,-48.7561111111111,Brasil,Myrceugenia myrcioides
AtlMG218,"São Domingos da Bocaina, floresta semidecídua",-21.8038888888889,-43.9308333333333,Brasil,Casearia arborea
AtlBA068,"Serra do Conduru, Uruçuca, floresta pluvial",-14.49,-39.1066666666667,Brasil,Pera glabrata
AmzPA211,"São Félix do Xingu, Aldeia Asurini, floresta estacional de terra firme",-7.21888888888889,-52.5561111111111,Brasil,Pachira paraensis
CerGO008,"Cachoeira Alta, floresta ripícola",-18.7605555555556,-50.8916666666667,Brasil,Eugenia pyriformis
AtlSC038,"Morro Grande, floresta pluvial",-28.7997222222222,-49.68,Brasil,Myrcia brasiliensis
AmzAM131,"Inselbergs da Morraria do Abonari, nanofloresta rupícola",-1.37027777777778,-60.2713888888889,Brasil,Hymenolobium petraeum
AtlBA091,"Itapetinga, floresta semidecídua",-15.1688888888889,-40.1752777777778,Brasil,Inga marginata
AmzAM103,"Itacoatiara-Mirim, nanofloresta de areias brancas",-0.145833333333333,-66.9733333333333,Brasil,Pagamea coriacea
AmzPA216,"Serra do Cachimbo, Rio Ipiranga, floresta estacional subserrana",-9.26805555555556,-54.4855555555556,Brasil,Astrocaryum aculeatum
AmzAM220,"Lago Manacapuru, floresta inundável de água negra",-3.13305555555556,-60.8969444444444,Brasil,Nectandra amazonum
AtlMG236,"Coqueiral, floresta semidecídua",-21.1552777777778,-45.4727777777778,Brasil,Luehea divaricata
AtlBA099,"Barra do Choça, floresta semidecídua",-14.835,-40.5547222222222,Brasil,Solanum megalochiton
AmzAM122,"Manaus, Ponta Negra, nanofloresta de areias brancas",-3.05138888888889,-60.1113888888889,Brasil,Amanoa glaucophylla
AtlPR085,"Ventania, floresta estacional de araucária",-24.1747222222222,-50.2172222222222,Brasil,Banara tomentosa
AtlMG228,"Uberlândia, Miranda, floresta semidecídua",-18.9288888888889,-48.0633333333333,Brasil,Inga laurina
AtlSC029,"Florianópolis, Vargem do Bom Jesus, floresta pluvial",-27.4527777777778,-48.4222222222222,Brasil,Vernonanthura petiolaris
PamRS004,"Tapes, mosaico arenícola costeiro",-30.6344444444444,-51.3177777777778,Brasil,Myrsine umbellata
AmzAM198,"Codajás, Rio Solimões, floresta inundável de água branca",-3.79972222222222,-62.1716666666667,Brasil,Swartzia arborescens
CerTO010,"Bandeirantes do Tocantins, floresta ripícola",-7.74777777777778,-48.6005555555556,Brasil,Retiniphyllum kuhlmannii
CerPI024,"Sete Cidades, cerradão mesotrófico",-4.09583333333333,-41.625,Brasil,Himatanthus drasticus
AtlBA057,"Barrolândia, floresta pluvial",-16.095,-39.2008333333333,Brasil,Ocotea glauca
AtlSC103,"Rio dos Cedros, floresta nebular",-26.5497222222222,-49.41,Brasil,Ocotea nectandrifolia
AtlBA052,"Itabuna, floresta pluvial",-14.7138888888889,-39.2727777777778,Brasil,Casearia guianensis
AtlSP018,"Mongaguá, floresta pluvial",-24.0425,-46.7361111111111,Brasil,Hymenaea courbaril
CaaBA043,"Ibipeba, caatinga carbonática",-11.6497222222222,-42.0619444444444,Brasil,Senna acuruensis
CaaBA020,"Jaguarari, caatinga quartzítica",-10.1858333333333,-40.2591666666667,Brasil,Tabernaemontana solanifolia
AtlSP184,"Bragança Paulista, floresta semidecídua",-22.935,-46.7038888888889,Brasil,Aspidosperma ramiflorum
AtlSP002,"Caraguatatuba, mosaico arenícola costeiro",-23.6188888888889,-45.3633333333333,Brasil,Eugenia arenaria
AmzPA106,"Belterra, Aramanaí, floresta estacional de terra firme",-2.69555555555556,-54.9822222222222,Brasil,Clarisia ilicifolia
CerTO018,"Aragominas, nanofloresta areno-rupícola",-7.2025,-48.5272222222222,Brasil,Erythroxylum citrifolium
AmzAC027,"Serra do Divisor, Porto Walter, nanofloresta rupícola",-8.41305555555556,-73.3255555555556,Brasil,Ormosia nobilis
CerMT055,"Alto Paraguai, floresta ripícola",-14.4925,-56.4811111111111,Brasil,Siparuna guianensis
AtlMG171,"Wenceslau Brás, floresta nebular",-22.5438888888889,-45.3575,Brasil,Machaerium villosum
AmzRO043,"Ji-Paraná, Rio Machado, floresta estacional inundável",-10.8363888888889,-61.9061111111111,Brasil,Genipa americana
AmzAM125,"Serra do Aracá, Maciço Norte, floresta nebular",0.952222222222222,-63.3444444444444,Brasil,Minquartia guianensis
AmzPA112,"Tucuruí, Novo Repartimento, floresta estacional de terra firme",-4.51277777777778,-49.8852777777778,Brasil,Pseudima frutescens
AmzRR009,"Território Yanomami Maiyoobtedi e Botamatatedi, floresta pluvial subserrana",3.3475,-63.3997222222222,Brasil,Guarea velutina
CerGO013,"Luziânia, floresta ripícola",-16.2494444444444,-47.8533333333333,Brasil,Schefflera morototoni
CerGO126,"Posse, floresta ripícola",-14.0591666666667,-46.2766666666667,Brasil,Psidium guineense
AtlSC058,"Trombudo, floresta pluvial",-27.27,-49.7702777777778,Brasil,Eugenia beaurepairiana
CerTO052,"Goiatins, floresta ripícola",-7.98833333333333,-47.5563888888889,Brasil,Sparattanthelium borororum
AmzAM095,"Estrada de Cucuí, Perimetral Norte, nanofloresta de areias brancas",0.466944444444444,-66.5230555555556,Brasil,Hevea nitida
AmzPA216,"Serra do Cachimbo, Rio Ipiranga, floresta estacional subserrana",-9.26805555555556,-54.4855555555556,Brasil,Palicourea corymbifera
CaaRN001,"Touros, floresta decídua",-5.24888888888889,-35.6313888888889,Brasil,Clusia paralicola
AtlRS011,"Morro Azul, floresta pluvial",-29.4425,-50.0069444444444,Brasil,Trixis praestans
CerMT003,"Sorriso, floresta ripícola",-12.2930555555556,-55.965,Brasil,Miconia splendens
AmzRO033,"Machadinho d’Oeste, Jatuarana, floresta pluvial de terra firme",-9.15861111111111,-62.2372222222222,Brasil,Aspidosperma carapanauba
AtlSP095,"Riversul, floresta estacional de araucária",-23.8780555555556,-49.4575,Brasil,Esenbeckia grandiflora
AmzAM166,"Borba, Rio Preto do Igapó-Açu, floresta pluvial de terra firme",-4.57861111111111,-61.1963888888889,Brasil,Ormosia discolor
AtlSP169,"Araraquara, floresta semidecídua",-21.8225,-48.0319444444444,Brasil,Alchornea triplinervia
AtlSP036,"Taubaté, floresta pluvial",-23.0908333333333,-45.5063888888889,Brasil,Erythroxylum daphnites
CerMT066,"Itiquira, floresta ripícola",-17.2305555555556,-54.5741666666667,Brasil,Cecropia pachystachya
AtlCE021,"Baturité, floresta semidecídua",-4.30222222222222,-38.92,Brasil,Zanthoxylum acuminatum
CerDF011,"Águas Emendadas, cerrado",-15.5552777777778,-47.6272222222222,Brasil,Syagrus comosa
AtlRS101,"Caçapava do Sul, floresta semidecídua",-30.4308333333333,-53.3777777777778,Brasil,Myrcia splendens
AmzAP003,"Macapá, Arquipélago de Bailique, mosaico flúvio-arenícola costeiro",1.01,-49.9233333333333,Brasil,Diospyros vestita
AtlPE028,"Nazaré da Mata, floresta semidecídua",-7.72166666666667,-35.1952777777778,Brasil,Hymenolobium alagoanum
AmzAM124,"Iranduba, Paricatuba, nanofloresta de areias brancas",-3.10388888888889,-60.3061111111111,Brasil,Ficus americana
AtlSP131,"Matão, floresta semidecídua",-21.6155555555556,-48.5375,Brasil,Genipa americana
AtlSP060,"Capão Bonito, floresta pluvial",-23.9969444444444,-48.3158333333333,Brasil,Ilex theezans
AtlPR059,"Cândido de Abreu, floresta estacional de araucária",-24.4736111111111,-51.0883333333333,Brasil,Coutarea hexandra
AtlSC068,"Paulo Lopes, floresta pluvial",-27.99,-48.78,Brasil,Pausandra morisiana
AtlSC030,"Florianópolis, Lagoa da Conceição, floresta pluvial",-27.5338888888889,-48.4630555555556,Brasil,Geonoma schottiana
AmzPA068,"Baía do Portel, floresta inundável de água mista",-1.93416666666667,-50.7905555555556,Brasil,Macrolobium brevense
AmzAM032,"Manaus, Tarumã-Açu, floresta pluvial de terra firme",-2.89027777777778,-60.1475,Brasil,Acmanthera longifolia
AtlBA105,"Serra do Barbado, Rio do Pires, nanofloresta nebular",-13.2647222222222,-41.9163888888889,Brasil,Ilex psammophila
CerPA008,"Redenção, Fazenda Chocolate, cerrado",-8.33111111111111,-49.9891666666667,Brasil,Hancornia speciosa
AmzAM304,"Estirão do Equador, Rio Javari, floresta inundável de água branca",-4.46972222222222,-71.5277777777778,Brasil/Perú,Swartzia racemosa
CaaBA005,"Euclides da Cunha, caatinga quartzosa",-10.4116666666667,-39.1877777777778,Brasil,Pityrocarpa moniliformis
AtlES053,"Baixo Guandu, floresta semidecídua",-19.5011111111111,-40.9283333333333,Brasil,Trichilia pseudostipularis
AmzAM298,"Jutaí, Rio Solimões, floresta inundável de água branca",-2.76333333333333,-66.9163888888889,Brasil,Hevea benthamiana
AmzAC009,"Sena Madureira, floresta pluvial de terra firme",-9.21083333333333,-68.4986111111111,Brasil,Ocotea floribunda
AtlRJ060,"Trajano de Morais, floresta pluvial",-22.0677777777778,-42.0930555555556,Brasil,Platypodium elegans
AtlMG121,"Mariana, floresta semidecídua",-20.3688888888889,-43.3861111111111,Brasil,Alseis floribunda
AtlRS104,"Camaquã, floresta semidecídua",-30.6855555555556,-51.8783333333333,Brasil,Buddleja stachyoides
AtlBA060,"Prado, floresta pluvial",-17.0916666666667,-39.2655555555556,Brasil,Abarema cochliacarpos
AmzAM167,"Maués, Alto Parauari, floresta pluvial de terra firme",-4.60833333333333,-57.4805555555556,Brasil,Genipa americana
CerBA029,"Grande Sertão Veredas, floresta ripícola",-14.7055555555556,-45.6180555555556,Brasil,Xylopia sericea
AmzPA174,"Parque do Jamanxim, Igarapé Kazuo, floresta pluvial de terra firme",-5.93472222222222,-55.7072222222222,Brasil,Mabea piriri
AtlRS081,"Júlio de Castilhos, floresta semidecídua",-29.2283333333333,-53.6516666666667,Brasil,Eugenia uniflora
AmzAM283,"Fonte Boa, floresta pluvial de terra firme",-2.53638888888889,-66.035,Brasil,Caryocar glabrum
CerMS058,"Maciço do Urucum, sopés, floresta decídua",-19.1780555555556,-57.6363888888889,Brasil,Helietta puberula
AmzRR046,"Cantá, floresta estacional de terra firme",2.27916666666667,-60.6769444444444,Brasil,Siparuna poeppigii
AmzRR023,"Boa Vista, Rio Branco, floresta estacional inundável",2.77305555555556,-60.6908333333333,Brasil,Pterocarpus amazonum
AmzAM091,"Cucuí, Alto Rio Negro, nanofloresta de areias brancas",1.19833333333333,-66.8302777777778,Brasil/Venezuela,Taralea oppositifolia
AtlSC072,"Lauro Muller, floresta pluvial",-28.35,-49.4997222222222,Brasil,Aegiphila obducta
AtlBA100,"Vitória da Conquista, floresta semidecídua",-14.8597222222222,-40.9341666666667,Brasil,Cordiera elliptica
CaaPE021,"São Caetano, caatinga quartzosa",-8.31444444444444,-36.1588888888889,Brasil,Cenostigma pyramidale
AtlAL020,"Pilar, floresta pluvial",-9.61583333333333,-36.0244444444444,Brasil,Myrcia sylvatica
AmzMA030,"Açailândia, floresta estacional de terra firme",-4.73416666666667,-47.7366666666667,Brasil,Ocotea canaliculata
AtlMG129,"Serra da Gandarela, floresta semidecídua",-20.0722222222222,-43.6686111111111,Brasil,Anadenanthera peregrina
CerTO086,"Aparecida do Rio Negro, nanofloresta areno-rupícola",-9.86027777777778,-47.8208333333333,Brasil,Aspidosperma pyrifolium
CerPA003,"Serra das Andorinhas, nanofloresta rupícola",-6.26527777777778,-48.5386111111111,Brasil,Pleroma stenocarpa
AtlPR076,"São Mateus do Sul, floresta estacional de araucária",-25.8541666666667,-50.3255555555556,Brasil,Rhamnus sphaerosperma
AmzAC019,"Santa Rosa do Purus, Rio Purus, floresta inundável de água branca",-9.12083333333333,-70.1541666666667,Brasil,Inga yasuniana
AtlSP078,"Alto Ribeira, floresta nebular",-24.4808333333333,-48.7602777777778,Brasil,Campomanesia guaviroba
AmzAM129,"Inselberg da Serra Uanari, nanofloresta rupícola",-0.0927777777777778,-67.2097222222222,Brasil,Maytenus guyanensis
AtlCE021,"Baturité, floresta semidecídua",-4.30222222222222,-38.92,Brasil,Ouratea polygyna
AmzAC001,"Mâncio Lima, alto Rio Moa, floresta pluvial de terra firme",-7.45472222222222,-73.5063888888889,Brasil,Helicostylis tomentosa
AtlSP044,"Itapetininga, floresta pluvial",-23.5627777777778,-48.135,Brasil,Eugenia florida
CerMG218,"Araguari, cerradão mesotrófico",-18.5455555555556,-48.2730555555556,Brasil,Connarus suberosus
AtlAL013,"Matriz de Camaragibe, floresta pluvial",-9.03222222222222,-35.5855555555556,Brasil,Rauvolfia grandiflora
AmzAP035,"Mazagão, Cachoeira do Varador, floresta pluvial de terra firme",-0.179722222222222,-52.0352777777778,Brasil,Chrysophyllum argenteum
AtlMG120,"Brumadinho, floresta semidecídua",-20.1777777777778,-44.2647222222222,Brasil,Guatteria australis
CaaBA102,"Sobradinho, Serra do Mulato, caatinga arenícola",-9.74583333333333,-40.7233333333333,Brasil,Erythroxylum pungens
AtlSC137,"Urubici, floresta nebular de araucária",-28.1691666666667,-49.68,Brasil,Symplocos tetrandra
AmzAM167,"Maués, Alto Parauari, floresta pluvial de terra firme",-4.60833333333333,-57.4805555555556,Brasil,Tococa coronata
CaaBA061,"Palmas de Monte Alto, caatinga alcalina",-14.2113888888889,-43.1741666666667,Brasil,Colicodendron yco
AtlRS068,"Cerro Largo, floresta semidecídua",-28.1275,-54.7355555555556,Brasil,Gymnanthes schottiana
AtlRJ026,"Tamoios, Mico-Leão Dourado, floresta pluvial",-22.5994444444444,-42.0116666666667,Brasil,Miconia prasina
AtlES025,"Pedro Canário, Córrego Grande, floresta pluvial",-18.2691666666667,-39.8013888888889,Brasil,Margaritaria nobilis
CerMG067,"Pirapora, floresta ripícola",-17.2188888888889,-44.8447222222222,Brasil,Gymnanthes klotzschiana
AtlSE006,"Pirambu, savana arenícola costeira",-10.6436111111111,-36.8441666666667,Brasil,Coccoloba alnifolia
AtlBA053,"Ilhéus, floresta pluvial",-14.7808333333333,-39.0836111111111,Brasil,Solanum campaniforme
AtlSE004,"Pirambu, mosaico flúvio-arenícola costeiro",-10.6441666666667,-36.8355555555556,Brasil,Tapirira guianensis
AtlSP091,"Guaratinguetá, floresta semidecídua",-22.7719444444444,-45.2297222222222,Brasil,Psidium guineense
AmzAM185,"Canutama, Alto Rio Mucuim, floresta pluvial de terra firme",-8.18666666666667,-64.0961111111111,Brasil,Rinorea flavescens
PamRS016,"São Borja, floresta ripícola",-28.5488888888889,-55.7852777777778,Brasil,Prunus myrtifolia
CerMS010,"Anastácio, floresta ripícola",-20.7527777777778,-55.7886111111111,Brasil,Jacaranda puberula
CerGO169,"Mara Rosa, cerrado rupícola",-14.0316666666667,-49.0030555555556,Brasil,Couepia grandiflora
AtlBA054,"Olivença, floresta pluvial",-14.9697222222222,-39.1158333333333,Brasil,Stryphnodendron pulcherrimum
AtlMS002,"Três Lagoas, floresta semidecídua",-20.8141666666667,-51.6630555555556,Brasil,Terminalia glabrescens
AtlRJ030,"Rio Bonito, floresta pluvial",-22.7166666666667,-42.5441666666667,Brasil,Jacaranda puberula
AmzAP022,"Calçoene, Terra Indígena Uaçá, floresta pluvial de terra firme",2.86388888888889,-51.3819444444444,Brasil,Tabernaemontana sananho
AtlSP027,"Cubatão, floresta pluvial",-23.8497222222222,-46.4322222222222,Brasil,Myrcia brasiliensis
AtlMG131,"Serra de Itabirito, floresta semidecídua",-20.2466666666667,-43.8513888888889,Brasil,Solanum didymum
AmzPA215,"Altamira, Aldeia Ipixuna de Araweté, floresta estacional subserrana",-4.74694444444444,-52.5297222222222,Brasil,Pourouma tomentosa
AtlRJ036,"Vale do Mambucaba, floresta pluvial",-22.9544444444444,-44.5605555555556,Brasil,Ocotea brachybotrya
AtlSP044,"Itapetininga, floresta pluvial",-23.5627777777778,-48.135,Brasil,Colubrina glandulosa
AtlRS065,"Santa Rosa, floresta semidecídua",-27.8905555555556,-54.5522222222222,Brasil,Allophylus guaraniticus
AmzAC037,"Brasiléia, floresta estacional de terra firme",-10.7230555555556,-68.9383333333333,Brasil,Sloanea brevipes
AtlMG179,"Gonçalves, floresta nebular",-22.7469444444444,-45.9008333333333,Brasil,Ocotea diospyrifolia
AtlMG208,"Espera Feliz, Pedra Menina, floresta semidecídua",-20.5480555555556,-41.9113888888889,Brasil,Miconia budlejoides
AmzAM298,"Jutaí, Rio Solimões, floresta inundável de água branca",-2.76333333333333,-66.9163888888889,Brasil,Eschweilera juruensis
AtlSP055,"Buri, floresta pluvial",-23.8013888888889,-48.4375,Brasil,Ilex theezans
CerMT119,"Serra do Aguapeí, cerrado rupícola",-16.0313888888889,-59.225,Brasil,Diospyros hispida
AmzPA217,"Serra dos Carajás, Serra Norte, savana rupícola metalófila",-6.035,-50.2786111111111,Brasil,Connarus perrottetii
AmzMT020,"Colniza, Guariba, floresta estacional de terra firme",-9.3125,-60.1022222222222,Brasil,Metrodorea flavida
AtlSP040,"Guarulhos, floresta pluvial",-23.3963888888889,-46.4786111111111,Brasil,Myrsine loefgrenii
AtlSP050,"São Paulo, Ipiranga, floresta pluvial",-23.6558333333333,-46.6247222222222,Brasil,Tibouchina estrellensis
AtlRS089,"Araricá, floresta semidecídua",-29.5972222222222,-50.9386111111111,Brasil,Ocotea indecora
AmzAC008,"Marechal Thaumaturgo, floresta pluvial de terra firme",-9.03888888888889,-72.2669444444444,Brasil,Faramea anisocalyx
AmzAP045,"Vitória do Jari, Rio Jari, floresta inundável de água mista",-1.16805555555556,-52.0625,Brasil,Macrolobium pendulum
AtlSP180,"Amparo, floresta semidecídua",-22.6894444444444,-46.6675,Brasil,Gymnanthes multiramea
CerMA033,"Loreto, cerrado",-7.05083333333333,-45.2336111111111,Brasil,Terminalia fagifolia
AtlES069,"Itaguaçu, Cinco Pontões, floresta semidecídua",-19.7977777777778,-40.9416666666667,Brasil,Ceiba speciosa
AmzMT023,"Cotriguaçu, floresta estacional de terra firme",-9.75083333333333,-58.5013888888889,Brasil,Tapura amazonica
AtlMG023,"Parque do Rio Doce, Marliéria, floresta semidecídua",-19.6841666666667,-42.6183333333333,Brasil,Cupania ludowigii
AmzAM123,"Manaus, Lago do Aleixo, nanofloresta de areias brancas",-3.08138888888889,-59.8752777777778,Brasil,Mabea angustifolia
AmzRO029,"Fortaleza do Abunã, floresta estacional de terra firme",-9.77777777777778,-65.5222222222222,Brasil/Bolivia,Dendropanax arboreus
AmzAM030,"Manaus, Reserva Cuieiras, floresta pluvial de terra firme",-2.5825,-60.2405555555556,Brasil,Vismia cauliflora
AtlMG206,"Coronel Pacheco, floresta semidecídua",-21.5508333333333,-43.2519444444444,Brasil,Ossaea marginata
AmzAM141,"São Sebastião do Uatumã, floresta pluvial de terra firme",-2.47277777777778,-57.9247222222222,Brasil,Gaulettia canomensis
AmzAM262,"Novo Aripuanã, nanofloresta de areias brancas",-5.82888888888889,-60.1608333333333,Brasil,Pagamea capitata
AtlBA118,"Caraguataí, nanofloresta rupícola",-13.4716666666667,-41.6766666666667,Brasil,Eugenia cerasiflora
CaaMG036,"Pedra Azul, floresta decídua",-15.9544444444444,-41.3008333333333,Brasil,Ceiba pubiflora
AtlPR086,"Canyon Guartelá, floresta estacional de araucária",-24.6747222222222,-50.1588888888889,Brasil,Euplassa nebularis
AtlMG002,"Aimorés, floresta semidecídua",-19.4772222222222,-41.0736111111111,Brasil,Aspidosperma illustre
AtlSC192,"Itapiranga, floresta semidecídua",-27.19,-53.63,Brasil,Euterpe edulis
AtlMG039,"Virgem da Lapa, floresta semidecídua",-16.7516666666667,-42.2325,Brasil,Bauhinia forficata
AtlPR056,"Goioerê, floresta estacional de araucária",-24.2105555555556,-52.9188888888889,Brasil,Cedrela fissilis
AmzAC002,"Rodrigues Alves, alto Rio Azul, floresta pluvial de terra firme",-7.75916666666667,-73.3769444444444,Brasil,Psychotria carthagenensis
AtlSP016,"São Sebastião, floresta pluvial",-23.8136111111111,-45.4675,Brasil,Geonoma pohliana
CaaPI025,"Cristalândia do Piauí, caatinga arbórea",-10.7891666666667,-45.1527777777778,Brasil,Pseudobombax marginatum
AmzRO027,"Extrema, floresta estacional de terra firme",-9.73805555555556,-66.3288888888889,Brasil,Poeppigia procera
AtlSC069,"São Bonifácio, floresta pluvial",-27.9938888888889,-48.96,Brasil,Eugenia multicostata
CerGO017,"Cristalina, Rio Corumbá, floresta ripícola",-16.8752777777778,-47.8872222222222,Brasil,Callisthene major
AtlRS110,"Arroio do Padre, floresta semidecídua",-31.4480555555556,-52.4725,Brasil,Matayba elaeagnoides
CaaBA096,"Sento Sé, Rio Verde, caatinga arenícola",-10.455,-42.2711111111111,Brasil,Anadenanthera peregrina
AmzPA104,"Santarém, Serra de Piquiatuba, floresta estacional de terra firme",-2.47277777777778,-54.7677777777778,Brasil,Aniba parviflora
AtlSP091,"Guaratinguetá, floresta semidecídua",-22.7719444444444,-45.2297222222222,Brasil,Psychotria carthagenensis
CerMG046,"São Gonçalo do Rio Preto, cerrado",-18.0622222222222,-43.3569444444444,Brasil,Emmotum nitens
AtlSP043,"São Roque, floresta pluvial",-23.5194444444444,-47.0922222222222,Brasil,Coutarea hexandra
AmzAP023,"Oiapoque, Alto Rio Anotaié, floresta pluvial de terra firme",2.75861111111111,-51.9452777777778,Brasil,Connarus perrottetii
CerGO013,"Luziânia, floresta ripícola",-16.2494444444444,-47.8533333333333,Brasil,Erythrina dominguezii
AtlRJ006,"Mambucaba, mosaico arenícola costeiro",-23.0458333333333,-44.5744444444444,Brasil,Andira fraxinifolia
AmzAP035,"Mazagão, Cachoeira do Varador, floresta pluvial de terra firme",-0.179722222222222,-52.0352777777778,Brasil,Tococa coronata
AtlPE014,"Paulista, floresta pluvial",-7.92222222222222,-34.8788888888889,Brasil,Hirtella bicornis
CerMG117,"Gruta de Maquiné, floresta decídua",-19.1227777777778,-44.3519444444444,Brasil,Cestrum axillare
AmzAM181,"Canutama, Transamazônica, floresta pluvial de terra firme",-7.48027777777778,-63.8480555555556,Brasil,Licania elliptica
CerPI033,"Parnaguá, cerradão mesotrófico",-10.1322222222222,-44.7119444444444,Brasil,Copaifera coriacea
AtlSP180,"Amparo, floresta semidecídua",-22.6894444444444,-46.6675,Brasil,Cordiera concolor
AmzMA025,"Buriticupu, floresta estacional de terra firme",-3.88555555555556,-46.2597222222222,Brasil,Protium sagotianum
AtlPR154,"Telêmaco Borba, floresta semidecídua",-24.3344444444444,-50.5933333333333,Brasil,Eugenia subterminalis
AmzMA017,"São Luís, Reserva do Sacavém, floresta estacional de terra firme",-2.57444444444444,-44.2536111111111,Brasil,Duguetia echinophora
AmzAM291,"Jutaí, Boca do Rio Mutum, floresta terra firme",-4.66972222222222,-68.1536111111111,Brasil,Hevea benthamiana
AtlAL027,"Viçosa de Alagoas, floresta pluvial",-9.43138888888889,-36.2202777777778,Brasil,Duguetia gardneriana
CerDF003,"Rio São Bartolomeu, cerrado",-15.8111111111111,-47.525,Brasil,Lafoensia pacari
CaaMG011,"Matias Cardoso, Cajueiro, caatinga arbórea",-15.0030555555556,-43.9002777777778,Brasil,Guazuma ulmifolia
CerMG238,"Serra do Salitre, cerrado",-19.1588888888889,-46.6430555555556,Brasil,Kielmeyera coriacea
AmzAM039,"Pitinga, Mineração Taboca, floresta pluvial subserrana",-0.658611111111111,-59.9411111111111,Brasil,Miconia lasseri
AtlPR120,"São Manoel do Paraná, floresta semidecídua",-23.3719444444444,-52.6161111111111,Brasil,Dahlstedtia floribunda
AmzPA030,"Anajás, floresta pluvial de terra firme",-1.00166666666667,-49.9372222222222,Brasil,Licania minutiflora
AtlSP153,"Ourinhos, floresta semidecídua",-22.8419444444444,-49.8875,Brasil,Schefflera morototoni
AmzPA036,"Bragança, Arraial do Caeté, floresta pluvial de terra firme",-1.28861111111111,-46.9244444444444,Brasil,Parkia reticulata
AtlBA043,"Santo Antônio de Jesus, floresta pluvial",-12.9975,-39.1866666666667,Brasil,Allophylus racemosus
AmzAM171,"Tapauá, Balsa do Rio Jutaí, floresta pluvial de terra firme",-5.44361111111111,-62.1022222222222,Brasil,Virola obovata
AtlRJ029,"Magé, Paraíso, floresta pluvial",-22.6494444444444,-43.1361111111111,Brasil,Cryptocarya saligna
AtlMG265,"São Thomé das Letras, floresta semidecídua",-21.6863888888889,-44.945,Brasil,Croton celtidifolius
AmzPA130,"Oriximiná, floresta pluvial de terra firme",-1.71027777777778,-55.7527777777778,Brasil,Solanum schlechtendalianum
AtlRJ032,"Barra de Maricá, floresta pluvial",-22.9133333333333,-42.7888888888889,Brasil,Ocotea aniboides
CerMS011,"Camapuã, Rio Coxim, floresta ripícola",-19.2938888888889,-54.1855555555556,Brasil,Hirtella burchellii
AtlSP034,"Pindamonhangaba, floresta pluvial",-22.8405555555556,-45.5211111111111,Brasil,Croton salutaris
AtlSC153,"Joaçaba, floresta estacional de araucária",-27.1794444444444,-51.6125,Brasil,Vasconcellea quercifolia
AtlSC141,"Canoinhas, floresta estacional de araucária",-26.1905555555556,-50.4911111111111,Brasil,Myrsine umbellata
AtlMG191,"Camanducaia, floresta nebular de araucária",-22.7508333333333,-46.1002777777778,Brasil,Blepharocalyx salicifolius
CaaBA110,"Barreiras, caatinga arbórea",-12.0872222222222,-44.8608333333333,Brasil,Manihot caerulescens
CerMG132,"Varzelândia, cerradão mesotrófico",-15.7227777777778,-44.0755555555556,Brasil,Anacardium occidentale
CaaPE030,"Lagoa Grande, caatinga quartzosa",-9.03638888888889,-40.2775,Brasil,Lonchocarpus sericeus
AtlRS085,"Nova Palma, floresta semidecídua",-29.4483333333333,-53.3647222222222,Brasil,Leandra regnellii
AtlRS096,"Santa Cruz do Sul, floresta semidecídua",-29.7019444444444,-52.3652777777778,Brasil,Citharexylum solanaceum
AtlRS123,"Guaíba, floresta semidecídua",-30.1455555555556,-51.355,Brasil,Matayba elaeagnoides
AmzPA114,"Marabá, floresta estacional de terra firme",-5.53722222222222,-49.4219444444444,Brasil,Trichilia quadrijuga
AtlSE016,"Lagarto, floresta semidecídua",-10.8597222222222,-37.6286111111111,Brasil,Casearia arborea
CerMG052,"São João da Chapada, Macacos, cerrado rupícola",-17.9841666666667,-43.7488888888889,Brasil,Moquiniastrum polymorphum
AtlSP148,"Limeira, floresta semidecídua",-22.6102777777778,-47.3344444444444,Brasil,Piper mollicomum
AtlMG030,"Santa Cruz do Escalvado, floresta semidecídua",-20.22,-42.8461111111111,Brasil,Pera glabrata
AtlMG192,"Serra do Papagaio, oeste, floresta nebular de araucária",-22.1272222222222,-44.7722222222222,Brasil,Ouratea hexasperma
AtlSC003,"Balneário Camboriú, mosaico arenícola costeiro",-26.9991666666667,-48.5836111111111,Brasil,Trixis praestans
CerMG167,"Claro dos Poções, cerrado",-16.9647222222222,-44.2855555555556,Brasil,Byrsonima coccolobifolia
AmzAC011,"Serra do Moa, floresta pluvial subserrana",-7.61527777777778,-73.6969444444444,Brasil,Guarea macrophylla
AmzRO006,"Jirau, Nova Mutum Paraná, floresta pluvial de terra firme",-9.28694444444444,-64.6072222222222,Brasil,Protium carnosum
AmzAM035,"Iranduba, Cacau-Pirera, floresta pluvial de terra firme",-3.17861111111111,-60.1544444444444,Brasil,Ficus citrifolia
AtlMG073,"Pico do Boné, Serra do Brigadeiro, nanofloresta nebular",-20.6852777777778,-42.445,Brasil,Solanum campaniforme
CerMT129,"Vila Rica, floresta ripícola",-10.2705555555556,-51.6380555555556,Brasil,Physocalymma scaberrimum
AmzPA033,"São Francisco do Pará, floresta pluvial de terra firme",-1.18166666666667,-47.8225,Brasil,Eugenia belemitana
AmzMA008,"Viana, Rio Mearim, floresta inundável de maré",-3.22472222222222,-44.8022222222222,Brasil,Couepia paraensis
AtlSP057,"Juquitiba, floresta pluvial",-23.9347222222222,-47.1427777777778,Brasil,Lamanonia ternata
AtlMG170,"Bocaina de Minas, floresta nebular",-22.2166666666667,-44.54,Brasil,Pilocarpus pauciflorus
CaaBA089,"Carnaíba do Sertão, caatinga arenícola",-9.57,-40.4813888888889,Brasil,Cestrum obovatum
AmzMA028,"Codó, floresta estacional de terra firme",-4.58444444444444,-43.8141666666667,Brasil,Oxandra sessiliflora
CaaBA042,"Irecê, caatinga carbonática",-11.2522222222222,-41.9102777777778,Brasil,Colubrina cordifolia
CerMS100,"Água Clara, cerrado",-20.0316666666667,-52.5836111111111,Brasil,Terminalia glabrescens
AtlPR043,"Curitiba, floresta nebular de araucária",-25.4175,-49.3052777777778,Brasil,Solanum campaniforme
AtlMG111,"Cabeça de Boi, floresta semidecídua",-19.4061111111111,-43.4230555555556,Brasil,Pterocarpus violaceus
CerMG185,"São Roque de Minas, cerrado rupícola",-20.1825,-46.4261111111111,Brasil,Matayba guianensis
AtlMG090,"Serra da Pedra Grande, nanofloresta rupícola",-20.1230555555556,-44.3533333333333,Brasil,Cyathea gardneri
AtlSC153,"Joaçaba, floresta estacional de araucária",-27.1794444444444,-51.6125,Brasil,Phytolacca dioica
AmzMT021,"Parque do Cristalino, floresta estacional de terra firme",-9.46083333333333,-55.7566666666667,Brasil,Dulacia candida
AmzPA042,"Floresta Nacional de Caxiuanã, floresta pluvial de terra firme",-1.80277777777778,-51.4375,Brasil,Ocotea douradensis
AtlPR041,"Bocaiúva do Sul, floresta nebular de araucária",-25.1827777777778,-49.1283333333333,Brasil,Myrcia guianensis
AtlSP053,"Alto da Serra de Paranapiacaba, floresta pluvial",-23.7688888888889,-46.325,Brasil,Palicourea sessilis
AtlPR106,"Porecatu, floresta semidecídua",-22.8075,-51.3791666666667,Brasil,Croton floribundus
AtlRJ022,"Rio das Ostras, Reserva União, floresta pluvial",-22.4372222222222,-42.0297222222222,Brasil,Chrysophyllum lucentifolium
AtlPE007,"Carne de Vaca, mosaico flúvio-arenícola costeiro",-7.57416666666667,-34.8430555555556,Brasil,Myrsine guianensis
CaaBA065,"Caculé, caatinga alcalina",-14.5486111111111,-42.2616666666667,Brasil,Erythrina velutina
AmzRO007,"Jaci Paraná, floresta pluvial de terra firme",-9.3725,-64.2794444444445,Brasil,Diospyros artanthifolia
AtlSP033,"Cananéia, floresta pluvial",-24.9044444444444,-47.9469444444444,Brasil,Ocotea brachybotrya
AtlSC064,"Águas Mornas, floresta pluvial",-27.63,-48.87,Brasil,Myrceugenia myrcioides
AtlPE022,"Tamandaré, Saltinho, floresta pluvial",-8.72444444444444,-35.1752777777778,Brasil,Xylopia frutescens
AtlMG029,"Ipanema, floresta semidecídua",-19.8038888888889,-41.7075,Brasil,Daphnopsis racemosa
CaaBA051,"Paramirim, caatinga carbonática",-13.4747222222222,-42.2241666666667,Brasil,Sideroxylon obtusifolium
AtlSC122,"Otacílio Costa, floresta pluvial de araucária",-27.3613888888889,-50.0383333333333,Brasil,Cupania vernalis
AmzMT008,"Balsa Marcelândia-São José, Rio Xingu, floresta estacional inundável",-10.7777777777778,-53.1058333333333,Brasil,Macrolobium suaveolens
AmzRO040,"Serra dos Pacaás Novos, Meseta, floresta pluvial serrana",-10.8741666666667,-63.6608333333333,Brasil,Ladenbergia oblongifolia
CerGO137,"São Domingos, floresta decídua",-13.5197222222222,-46.4997222222222,Brasil,Vasconcellea glandulosa
AtlES050,"Dores do Rio Preto, floresta pluvial",-20.7119444444444,-41.8325,Brasil,Mouriri glazioviana
AmzAM020,"Usina de Pitinga, floresta pluvial de terra firme",-0.882777777777778,-59.6055555555556,Brasil,Virola guggenheimii
CaaBA039,"Piatã, caatinga quartzítica",-13.0222222222222,-41.7961111111111,Brasil,Platymiscium floribundum
AtlSP039,"Paraibuna, floresta pluvial",-23.3738888888889,-45.6441666666667,Brasil,Andira fraxinifolia
AtlSC070,"Santa Rosa de Lima, floresta pluvial",-28.0366666666667,-49.1094444444444,Brasil,Alchornea triplinervia
AtlSP182,"Campinas, floresta semidecídua",-22.8219444444444,-47.11,Brasil,Styrax pohlii
CaaMG005,"Juvenília, caatinga arbórea",-14.2852777777778,-44.1111111111111,Brasil,Guibourtia hymenaefolia
AmzCL097,"Tarapacá, Río Putumayo-Içá, bosque inundable de agua blanca",-2.90638888888889,-69.7197222222222,Colombia/Brasil,Machaerium inundatum
AtlRJ064,"Paty do Alferes, floresta pluvial",-22.4319444444444,-43.4777777777778,Brasil,Trichilia silvatica
CerPI041,"Nazaré do Piauí, cerrado",-6.94666666666667,-42.7525,Brasil,Anadenanthera peregrina
CerPI009,"Uruçuí, Rio Uruçuí Preto, floresta ripícola",-8.065,-44.8013888888889,Brasil,Piper tuberculatum
PamRS035,"Quaraí, floresta ripícola",-30.4538888888889,-56.3913888888889,Brasil,Colletia paradoxa
CerGO035,"Bom Jesus de Goiás, floresta decídua",-18.1366666666667,-49.7972222222222,Brasil,Hymenaea stigonocarpa
CerBO001,"Aeropista Flor de Oro, bosque estacional ribereño",-13.5472222222222,-61.0597222222222,Bolivia/Brasil,Inga laurina
AtlPR093,"Irati, floresta estacional de araucária",-25.4080555555556,-50.6863888888889,Brasil,Pimenta pseudocaryophyllus
AtlMG055,"Alvinópolis, floresta semidecídua",-20.0641666666667,-43.0319444444444,Brasil,Daphnopsis fasciculata
AtlBA131,"Serra do Orobó, Ruy Barbosa, floresta semidecídua",-12.3758333333333,-40.5186111111111,Brasil,Annona sylvatica
CerMG185,"São Roque de Minas, cerrado rupícola",-20.1825,-46.4261111111111,Brasil,Neea theifera
AtlPR002,"Pontal do Paraná, mosaico arenícola costeiro",-25.6602777777778,-48.4566666666667,Brasil,Hedyosmum brasiliense
AmzAM145,"Itapiranga, floresta pluvial de terra firme",-2.71694444444444,-58.1247222222222,Brasil,Cariniana micrantha
AtlSP003,"Barra do Una, mosaico arenícola costeiro",-23.76,-45.7677777777778,Brasil,Xylopia langsdorfiana
CaaBA058,"Ituaçu, Gruta da Mangabeira, caatinga alcalina",-13.8405555555556,-41.3180555555556,Brasil,Guazuma ulmifolia
AmzPA187,"Itaituba, Vila Pimental, Rio Tapajós, floresta inundável de água clara",-4.55777777777778,-56.2702777777778,Brasil,Vatairea guianensis
AtlSC090,"Aurora, floresta pluvial",-27.36,-49.68,Brasil,Allophylus edulis
AtlMS010,"Naviraí, floresta semidecídua",-23.1294444444444,-54.3713888888889,Brasil,Ocotea minarum
CerMG068,"João Pinheiro, floresta ripícola",-17.6558333333333,-46.3122222222222,Brasil,Cabralea canjerana
CerMT055,"Alto Paraguai, floresta ripícola",-14.4925,-56.4811111111111,Brasil,Calyptranthes amoena
CerMG042,"Turmalina, Veredinha, cerrado",-17.4,-42.8222222222222,Brasil,Qualea grandiflora
AtlSC161,"Florestal Gateados, floresta estacional de araucária",-28.035,-50.8497222222222,Brasil,Bernardia pulchella
CerMA025,"Chapadinha, cerradão mesotrófico",-3.83833333333333,-43.4488888888889,Brasil,Erythroxylum suberosum
AmzAM185,"Canutama, Alto Rio Mucuim, floresta pluvial de terra firme",-8.18666666666667,-64.0961111111111,Brasil,Vouarana guianensis
CerBA036,"Gerais de Riachão das Neves, cerrado",-11.6483333333333,-45.3644444444444,Brasil,Byrsonima cydoniifolia
CerBA028,"Jaborandi, Rio Formoso, floresta ripícola",-13.9527777777778,-45.1805555555556,Brasil,Vochysia tucanorum
AtlBA062,"Caravelas, floresta pluvial",-17.7186111111111,-39.6288888888889,Brasil,Swartzia simplex
AmzAM163,"Coari, floresta pluvial de terra firme",-4.22111111111111,-63.1722222222222,Brasil,Miconia gratissima
AmzPA170,"Trairão, Bela Vista do Caracol, floresta pluvial de terra firme",-5.06027777777778,-56.2027777777778,Brasil,Ficus paraensis
AtlRN008,"Alcaçus, savana arenícola costeira",-6.02138888888889,-35.135,Brasil,Hirtella racemosa
AtlMG083,"Serra do Cipó, Lapinha, nanofloresta rupícola",-19.1605555555556,-43.6513888888889,Brasil,Ilex lundii
CerGO157,"Cavalcante, cerrado",-13.7486111111111,-47.4147222222222,Brasil,Aspidosperma nobile
AtlSP182,"Campinas, floresta semidecídua",-22.8219444444444,-47.11,Brasil,Urera caracasana
AtlES052,"Rio Bananal, floresta semidecídua",-19.2541666666667,-40.3813888888889,Brasil,Maytenus schumanniana
AtlSP170,"Porto Ferreira, floresta semidecídua",-21.8511111111111,-47.4255555555556,Brasil,Machaerium brasiliense
CaaAL011,"Estrela de Alagoas, floresta decídua",-9.40222222222222,-36.7769444444444,Brasil,Zollernia ilicifolia
AmzTO005,"Xambioá, floresta estacional de terra firme",-6.49027777777778,-48.5241666666667,Brasil,Brosimum lactescens
CerMG234,"Patrocínio, Aeroporto, cerrado",-18.8783333333333,-47.0058333333333,Brasil,Moquiniastrum polymorphum
CerSP014,"Brotas, cerradão distrófico",-22.2661111111111,-48.0397222222222,Brasil,Erythroxylum suberosum
AmzPA175,"Jacareacanga, floresta pluvial de terra firme",-6.23166666666667,-57.8302777777778,Brasil,Guatteria discolor
CerMA013,"Caxias, floresta ripícola",-4.90305555555556,-43.5430555555556,Brasil,Aniba citrifolia
AtlCE027,"Baturité, Aratuba, floresta semidecídua",-4.41361111111111,-39.0375,Brasil,Agonandra brasiliensis
AtlES061,"Águia Branca, floresta semidecídua",-18.9669444444444,-40.7347222222222,Brasil,Miconia ruschiana
AtlRJ028,"Nova Iguaçu, floresta pluvial",-22.6338888888889,-43.5208333333333,Brasil,Picramnia ramiflora
AmzAM210,"Envira, Rios Envira e Tarauacá, floresta inundável de água branca",-7.51055555555556,-70.0733333333333,Brasil,Bactris riparia
AtlPB013,"Guarabira, floresta semidecídua",-6.87666666666667,-35.5261111111111,Brasil,Vismia guianensis
CerMG069,"Lassance, floresta ripícola",-17.9338888888889,-44.5683333333333,Brasil,Garcinia gardneriana
AtlAL010,"Piaçabuçu, mosaico flúvio-arenícola costeiro",-10.4208333333333,-36.3752777777778,Brasil,Ocotea canaliculata
AtlMS005,"Anaurilândia, floresta semidecídua",-21.0958333333333,-52.7891666666667,Brasil,Machaerium hirtum
AtlMG102,"Acauã, floresta semidecídua",-17.1427777777778,-42.7416666666667,Brasil,Dulacia pauciflora
CerMG184,"Chapada dos Gerais, cerrado rupícola",-17.4558333333333,-45.1825,Brasil,Antonia ovata
AtlSC095,"Angelina, floresta pluvial",-27.54,-49.0497222222222,Brasil,Ocotea catharinensis
CerMT167,"Alto Garças, cerrado",-16.7052777777778,-53.5183333333333,Brasil,Stryphnodendron rotundifolium
AmzPA106,"Belterra, Aramanaí, floresta estacional de terra firme",-2.69555555555556,-54.9822222222222,Brasil,Vismia cayennensis
AtlMG246,"Luminárias, floresta semidecídua",-21.4847222222222,-44.9061111111111,Brasil,Randia armata
AtlRJ105,"Três Rios, floresta semidecídua",-22.1955555555556,-43.1455555555556,Brasil,Tapirira guianensis
AtlSP136,"Rancharia, floresta semidecídua",-22.0861111111111,-50.9461111111111,Brasil,Guarea macrophylla
CerMG025,"São Sebastião da Vitória, cerrado rupícola",-21.2263888888889,-44.4147222222222,Brasil,Myrcia tomentosa
CaaBA131,"Sítio do Mato, Rio São Francisco, floresta decídua inundável",-12.9808333333333,-43.4113888888889,Brasil,Mimosa exalbescens
CerGO051,"Luziânia, cerrado",-16.3338888888889,-48.1991666666667,Brasil,Erythroxylum tortuosum
AtlMG027,"Parque do Rio Doce, Vinhático, floresta semidecídua",-19.7647222222222,-42.6244444444444,Brasil,Syagrus macrocarpa
AtlPR091,"Nova Laranjeiras, floresta estacional de araucária",-25.2411111111111,-52.4063888888889,Brasil,Callianthe amoena
AtlAL029,"São Miguel dos Campos, floresta semidecídua",-9.74111111111111,-36.1813888888889,Brasil,Erythroxylum nobile
AtlSP156,"Indaiatuba, floresta semidecídua",-23.1686111111111,-47.3591666666667,Brasil,Miconia paucidens
AmzAM161,"Careiro, Tupana, floresta pluvial de terra firme",-4.07888888888889,-60.6663888888889,Brasil,Iryanthera coriacea
AtlBA109,"Morro do Chapéu, nanofloresta rupícola",-11.5777777777778,-41.1830555555556,Brasil,Chamaecrista brachystachya
AmzPA192,"Jacareacanga, Aldeia Crepuri, Rio Crepuri, floresta inundável de água clara",-6.38666666666667,-56.7872222222222,Brasil,Clusia panapanari
CaaBA033,"Palmeiras, caatinga quartzítica",-12.5644444444444,-41.62,Brasil,Parapiptadenia zehntneri
AtlSP034,"Pindamonhangaba, floresta pluvial",-22.8405555555556,-45.5211111111111,Brasil,Kaunia rufescens
AmzAC032,"Plácido de Castro, Vila Campinas, floresta estacional de terra firme",-10.1180555555556,-67.2955555555556,Brasil,Brosimum alicastrum
CerMG067,"Pirapora, floresta ripícola",-17.2188888888889,-44.8447222222222,Brasil,Micropholis venulosa
AtlSP100,"Vila Alves, floresta semidecídua",-20.1633333333333,-49.9369444444444,Brasil,Trichilia catigua
AmzAC027,"Serra do Divisor, Porto Walter, nanofloresta rupícola",-8.41305555555556,-73.3255555555556,Brasil,Remijia firmula
AtlBA062,"Caravelas, floresta pluvial",-17.7186111111111,-39.6288888888889,Brasil,Calophyllum brasiliense
CerGO025,"Catalão, floresta ripícola",-18.0980555555556,-47.9133333333333,Brasil,Sloanea guianensis
CerTO040,"Marianópolis do Tocantins, cerrado",-9.79083333333333,-49.6091666666667,Brasil,Protium heptaphyllum
AmzRR051,"Amajari, Rio Amajari, floresta ripícola",3.65694444444444,-61.3569444444444,Brasil,Guarea guidonia
AtlES048,"Ibitirama, floresta pluvial",-20.5361111111111,-41.6736111111111,Brasil,Miconia lepidota
AmzAM292,"Atalaia do Norte, Alto Curuçá, floresta pluvial de terra firme",-5.35611111111111,-72.1027777777778,Brasil,Byrsonima stipulacea
AtlES047,"Domingos Martins, floresta pluvial",-20.3563888888889,-40.6752777777778,Brasil,Vitex megapotamica
AtlSP137,"Tupã, floresta semidecídua",-22.1047222222222,-50.5827777777778,Brasil,Miconia paucidens
AtlRS007,"Morrinhos do Sul, floresta pluvial",-29.3647222222222,-49.9825,Brasil,Ocotea teleiandra
CerBA035,"Gerais de Formosa do Rio Preto, cerrado",-11.17,-45.9161111111111,Brasil,Miconia ferruginata
AmzAC009,"Sena Madureira, floresta pluvial de terra firme",-9.21083333333333,-68.4986111111111,Brasil,Celtis schippii
AtlPR067,"Ponta Grossa, floresta estacional de araucária",-25.2205555555556,-50.0325,Brasil,Myrciaria delicatula
AtlSP103,"Palestina, floresta semidecídua",-20.3238888888889,-49.5080555555556,Brasil,Protium spruceanum
AtlPR023,"Campina Grande do Sul, Capivari, floresta nebular",-25.17,-48.8530555555556,Brasil,Eugenia mosenii
AmzAC033,"Rio Branco, floresta estacional de terra firme",-10.1694444444444,-68.2375,Brasil,Leonia cymosa
AtlRJ066,"Maciço do Tinguá, floresta pluvial",-22.5511111111111,-43.4130555555556,Brasil,Handroanthus umbellatus
AtlES020,"Praia das Neves, mosaico arenícola costeiro estacional",-21.2486111111111,-40.9658333333333,Brasil,Machaerium robsonnianum
AmzRR028,"Caicubi, Baixo Rio Jufari, floresta inundável de água negra",-1.16305555555556,-61.9852777777778,Brasil,Macrolobium multijugum
AmzAM285,"Tonantins, floresta pluvial de terra firme",-2.82833333333333,-67.7961111111111,Brasil,Iriartea deltoidea
AtlMG178,"Camanducaia, floresta nebular",-22.7230555555556,-45.9438888888889,Brasil,Meliosma itatiaiae
AmzAM136,"Nhamundá e Faro, floresta pluvial de terra firme",-2.04638888888889,-56.7525,Brasil,Duguetia surinamensis
AmzPA034,"Peixe-Boi e Nova Timboteua, floresta pluvial de terra firme",-1.18277777777778,-47.3677777777778,Brasil,Cupania scrobiculata
AtlBA115,"Gerais do Rio Preto, Mucugê, nanofloresta rupícola",-12.9186111111111,-41.4175,Brasil,Ocotea notata
AtlPE018,"Cabo de Santo Agostinho, floresta pluvial",-8.27138888888889,-34.96,Brasil,Citronella paniculata
AmzPA054,"Santarém, Boim, Resex Tapajós Arapiuns, floresta pluvial de terra firme",-3.12194444444444,-55.2905555555556,Brasil,Protium paniculatum
AmzPA103,"Viseu, Curupati, floresta estacional de terra firme",-1.39444444444444,-46.4475,Brasil,Capirona decorticans
AmzAM277,"Alto Rio Sucunduri, nanofloresta de areias brancas",-7.77222222222222,-58.8452777777778,Brasil,Combretum rotundifolium
CerMG004,"Guapé, floresta semidecídua",-20.7663888888889,-45.8619444444444,Brasil,Nectandra oppositifolia
CerDF019,"Brasília, FERCAL, floresta decídua",-15.5769444444444,-47.8894444444444,Brasil,Anadenanthera colubrina
CerMS007,"Rio Negro de Mato Grosso, floresta ripícola",-19.3313888888889,-55.1141666666667,Brasil,Platypodium elegans
AmzMA005,"Alcântara, Praia de Itatinga, mosaico flúvio-arenícola costeiro",-2.41055555555556,-44.3997222222222,Brasil,Conocarpus erectus
CerGO029,"Alexânia, floresta ripícola",-16.0991666666667,-48.4944444444444,Brasil,Terminalia argentea
AmzPA148,"Inselbergs do Pedral do Erepecuru, nanofloresta rupícola",0.573611111111111,-55.8005555555556,Brasil,Vochysia tomentosa
AtlRJ072,"Paraty e Picinguaba, Encosta, floresta pluvial",-23.2972222222222,-44.7919444444444,Brasil,Beilschmiedia emarginata
AtlSC020,"Joinville, floresta pluvial",-26.28,-48.9619444444444,Brasil,Myrceugenia ovalifolia
AtlES065,"Afonso Cláudio, floresta semidecídua",-20.0777777777778,-41.1138888888889,Brasil,Huberia espiritosantensis
AtlSE024,"Umbaúba, floresta pluvial",-11.4241666666667,-37.6030555555556,Brasil,Pradosia lactescens
AmzAM178,"Guajará, floresta pluvial de terra firme",-7.31055555555556,-72.7561111111111,Brasil,Ocotea argyrophylla
AmzAM307,"Japurá, Lago Acanauê, floresta inundável de água negra",-1.84916666666667,-66.6208333333333,Brasil,Posoqueria longiflora
AmzAM168,"Carauari, Poço Juruá 1, floresta pluvial de terra firme",-4.85388888888889,-66.9369444444444,Brasil,Jacaranda copaia
AtlSP168,"Casa Branca, floresta semidecídua",-21.7708333333333,-47.0730555555556,Brasil,Miconia albicans
AtlES069,"Itaguaçu, Cinco Pontões, floresta semidecídua",-19.7977777777778,-40.9416666666667,Brasil,Inga flagelliformis
AmzMT006,"Alto Rio Aripuanã, floresta estacional inundável",-9.78138888888889,-59.3986111111111,Brasil,Anaxagorea manausensis
AtlES052,"Rio Bananal, floresta semidecídua",-19.2541666666667,-40.3813888888889,Brasil,Pogonophora schomburgkiana
AtlMG017,"Resplendor, floresta semidecídua",-19.3461111111111,-41.2583333333333,Brasil,Aspidosperma olivaceum
AtlSC172,"Salto Veloso, floresta estacional de araucária",-26.9072222222222,-51.3883333333333,Brasil,Symphyopappus lymansmithii
CaaPE004,"Bodocó, caatinga quartzosa",-7.73777777777778,-39.7997222222222,Brasil,Senegalia piauhiensis
AmzAM034,"Manaus, Campus da UFAM, floresta pluvial de terra firme",-3.09111111111111,-59.9594444444444,Brasil,Annona sericea
AtlMG111,"Cabeça de Boi, floresta semidecídua",-19.4061111111111,-43.4230555555556,Brasil,Inga ynga
AmzAC023,"Plácido de Castro, Rio Abunã, floresta estacional inundável",-10.3283333333333,-67.1555555555556,Brasil/Bolivia,Ficus ypsilophlebia
CerMS018,"Bonito, Rio Formoso, floresta ripícola",-21.1594444444444,-56.4255555555556,Brasil,Esenbeckia febrifuga
AtlSP056,"Cratera de Colônia, floresta pluvial",-23.8780555555556,-46.7069444444444,Brasil,Myrciaria delicatula
AtlRS049,"Parque do Caracol, floresta estacional de araucária",-29.3166666666667,-50.845,Brasil,Myrceugenia oxysepala
CerTO095,"Novo Acordo, cerradão mesotrófico",-9.94472222222222,-47.6558333333333,Brasil,Curatella americana
AtlBA118,"Caraguataí, nanofloresta rupícola",-13.4716666666667,-41.6766666666667,Brasil,Blepharocalyx salicifolius
AmzPA027,"Martins Pinheiro, savana hipersazonal",-0.785277777777778,-47.5536111111111,Brasil,Eugenia stictopetala
AtlMG075,"Itacambira, nanofloresta rupícola",-16.9388888888889,-43.3638888888889,Brasil,Rhamnus sphaerosperma
CerMS101,"Aparecida do Taboado, cerrado",-20.1113888888889,-51.2927777777778,Brasil,Qualea parviflora
AtlMG035,"Bandeira e Macarani, floresta semidecídua",-15.7802777777778,-40.5197222222222,Brasil,Pterogyne nitens
AtlMG084,"Serra do Cipó, Juquinha, nanofloresta rupícola",-19.2613888888889,-43.5466666666667,Brasil,Guapira hirsuta
AtlRJ042,"Magé, Santo Aleixo, floresta pluvial",-22.5380555555556,-43.0658333333333,Brasil,Sparattosperma leucanthum
AmzPA053,"Flona do Tapajós, Belterra-Km 83, floresta pluvial de terra firme",-3.0475,-54.9519444444444,Brasil,Allophylus glabratus
CerGO008,"Cachoeira Alta, floresta ripícola",-18.7605555555556,-50.8916666666667,Brasil,Aspidosperma spruceanum
AtlES071,"Venda Nova do Imigrante, floresta nebular",-20.3027777777778,-41.1736111111111,Brasil,Euterpe edulis
AtlSP069,"Joanópolis, floresta nebular",-22.8952777777778,-46.2363888888889,Brasil,Coutarea hexandra
CerMS001,"Pedro Gomes, floresta ripícola",-17.9580555555556,-54.7413888888889,Brasil,Endlicheria paniculata
AtlRJ035,"Mangaratiba, floresta pluvial",-22.9461111111111,-44.0338888888889,Brasil,Aegiphila riedeliana
CaaBA057,"Contendas do Sincorá, caatinga alcalina",-13.7638888888889,-41.0077777777778,Brasil,Combretum monetaria
CerMS038,"Dois Irmãos do Buriti, cerradão mesotrófico",-20.5216666666667,-55.3941666666667,Brasil,Mezilaurus vanderwerffii
AtlSP016,"São Sebastião, floresta pluvial",-23.8136111111111,-45.4675,Brasil,Macrotorus utriculatus
AmzAM089,"Alto Rio Xié, nanofloresta de areias brancas",1.45333333333333,-67.2111111111111,Brasil,Combretum rotundifolium
AtlSP172,"São Carlos, floresta semidecídua",-21.9683333333333,-47.8416666666667,Brasil,Hamelia patens
AtlPR101,"União da Vitória, floresta estacional de araucária",-26.2658333333333,-51.3344444444444,Brasil,Myrsine gardneriana
AtlSC167,"Água Doce, floresta estacional de araucária",-26.6416666666667,-51.5727777777778,Brasil,Ilex paraguariensis
AmzRO007,"Jaci Paraná, floresta pluvial de terra firme",-9.3725,-64.2794444444445,Brasil,Inga ynga
AmzPA039,"Belém, Parque do Utinga, floresta pluvial de terra firme",-1.41944444444444,-48.4108333333333,Brasil,Tovomita schomburgkii
AtlBA045,"Valença, Guerém, floresta pluvial",-13.3102777777778,-39.2255555555556,Brasil,Syagrus botryophora
CerMT138,"Torixoréu, floresta ripícola",-16.3844444444444,-52.8922222222222,Brasil,Myrcia laruotteana
AtlSP030,"Eldorado, floresta pluvial",-24.4294444444444,-48.1897222222222,Brasil,Pouteria venosa
AtlBA068,"Serra do Conduru, Uruçuca, floresta pluvial",-14.49,-39.1066666666667,Brasil,Eugenia rostrata
AmzPA123,"Três Ilhas, Alto Rio Mapuera, floresta pluvial de terra firme",-0.378611111111111,-58.0911111111111,Brasil,Lindackeria paludosa
CerGO053,"Silvânia, cerrado",-16.6397222222222,-48.4952777777778,Brasil,Styrax camporum
AtlMG045,"Frei Gaspar, floresta semidecídua",-18.0725,-41.4661111111111,Brasil,Piptadenia gonoacantha
CaaCE009,"Russas, caatinga arenícola",-4.89611111111111,-38.1744444444444,Brasil,Ziziphus joazeiro
AmzPA213,"Ourilândia do Norte, Aldeia Pinkaití, floresta estacional de terra firme",-7.77166666666667,-51.9616666666667,Brasil,Erythroxylum macrophyllum
AmzAM137,"Manaus, Fazenda Dimona, floresta pluvial de terra firme",-2.29722222222222,-60.0888888888889,Brasil,Cupania hispida
CerMS017,"Nioaque, floresta ripícola",-21.1419444444444,-55.6916666666667,Brasil,Trema micrantha
CerMG083,"São Gonçalo do Abaeté, floresta ripícola",-18.3705555555556,-45.8327777777778,Brasil,Tapirira obtusa
CerMT134,"Nova Xavantina, Retiro Pau-Brasil, floresta ripícola",-14.8533333333333,-52.0969444444444,Brasil,Bauhinia cupulata
AtlRJ096,"Armação dos Búzios, Emerenças, floresta semidecídua",-22.815,-41.9580555555556,Brasil,Cenostigma pluviosum
CerPI046,"Gerais da Serra da Capivara, cerrado",-8.68833333333333,-43.0119444444444,Brasil,Bowdichia virgilioides
AtlMG154,"Serra do Cipó, Ermo dos Gerais, campo rupícola",-19.0475,-43.7091666666667,Brasil,Vantanea obovata
CerMT096,"Serra das Araras, Porto Estrela, cerrado rupícola",-15.7052777777778,-57.2147222222222,Brasil,Abuta grandifolia
AmzAM065,"Alto Rio Curicuriari, floresta inundável de água negra",-0.519166666666667,-67.7772222222222,Brasil,Hevea pauciflora
CerMG069,"Lassance, floresta ripícola",-17.9338888888889,-44.5683333333333,Brasil,Guarea macrophylla
CaaPI013,"Padre Marcos, caatinga arenícola",-7.35,-40.8933333333333,Brasil,Piptadenia viridiflora
CaaCE027,"Boa Viagem, caatinga quartzosa",-5.1225,-39.79,Brasil,Cynophalla hastata
CerPR005,"Jaguariaíva, Parque Estadual do cerrado",-24.17,-49.6580555555556,Brasil,Kielmeyera coriacea
AtlSP053,"Alto da Serra de Paranapiacaba, floresta pluvial",-23.7688888888889,-46.325,Brasil,Rustia formosa
AtlMG241,"Alfenas, floresta semidecídua",-21.3313888888889,-45.8475,Brasil,Chomelia pohliana
AmzPA053,"Flona do Tapajós, Belterra-Km 83, floresta pluvial de terra firme",-3.0475,-54.9519444444444,Brasil,Bellucia spruceana
CerTO059,"Novo Acordo, floresta ripícola",-9.94972222222222,-47.5761111111111,Brasil,Psychotria anceps
AtlRJ028,"Nova Iguaçu, floresta pluvial",-22.6338888888889,-43.5208333333333,Brasil,Cestrum axillare
AtlBA026,"Canavieiras, mosaico flúvio-arenícola costeiro",-15.7436111111111,-38.9138888888889,Brasil,Pouteria grandiflora
AtlMG024,"Caratinga, Feliciano Abdala, floresta semidecídua",-19.7213888888889,-41.8227777777778,Brasil,Sloanea hirsuta
AtlRJ035,"Mangaratiba, floresta pluvial",-22.9461111111111,-44.0338888888889,Brasil,Solanum argenteum
AtlSC124,"São Bonifácio, floresta pluvial de araucária",-27.8983333333333,-48.8719444444444,Brasil,Ocotea puberula
CaaBA019,"Andorinha, caatinga quartzítica",-10.1394444444444,-39.83,Brasil,Byrsonima blanchetiana
CerMT108,"Rio Cassange, floresta decídua inundável",-16.9661111111111,-56.9202777777778,Brasil,Cupania vernalis
CerMG066,"Brasilândia de Minas, floresta ripícola",-17.0561111111111,-45.9752777777778,Brasil,Cecropia pachystachya
AtlRS022,"Farroupilha, floresta estacional de araucária",-29.2819444444444,-51.3766666666667,Brasil,Celtis iguanaea
AtlBA082,"Serra Bonita, Camacan, floresta pluvial",-15.3925,-39.57,Brasil,Salacia grandifolia
AmzAM020,"Usina de Pitinga, floresta pluvial de terra firme",-0.882777777777778,-59.6055555555556,Brasil,Pouteria engleri
AmzPA216,"Serra do Cachimbo, Rio Ipiranga, floresta estacional subserrana",-9.26805555555556,-54.4855555555556,Brasil,Vochysia pyramidalis
AtlMG015,"Braúnas, floresta semidecídua",-19.1402777777778,-42.7633333333333,Brasil,Ocotea odorifera
AtlSP161,"Gruta do Itambé, floresta semidecídua",-21.07,-47.4361111111111,Brasil,Dahlstedtia muehlbergiana
AtlMG185,"Serra Negra, nanofloresta rupícola",-21.9647222222222,-43.8641666666667,Brasil,Ilex theezans
AmzRO018,"Confluência Rios Abunã e Madeira, floresta estacional inundável",-9.65861111111111,-65.4430555555556,Brasil/Bolivia,Himatanthus articulatus
AtlMG170,"Bocaina de Minas, floresta nebular",-22.2166666666667,-44.54,Brasil,Weinmannia paulliniifolia
AtlSP031,"Juréia-Itatins, floresta pluvial",-24.5211111111111,-47.2491666666667,Brasil,Ocotea diospyrifolia
AmzAM301,"São Paulo de Olivença, Rio Jandiatuba, floresta inundável de água branca",-4.06055555555556,-69.0322222222222,Brasil,Himatanthus articulatus
CerMT141,"Alto Garças, floresta ripícola",-16.9091666666667,-53.4952777777778,Brasil,Zanthoxylum rhoifolium
PamRS019,"São Francisco de Assis, floresta ripícola",-29.6372222222222,-54.8152777777778,Brasil,Nectandra megapotamica
AmzAM253,"Manacapuru, Lagos Paracuuba e do Jacaré, nanofloresta de areias brancas",-3.65555555555556,-60.7919444444444,Brasil,Potalia amara
AtlSC093,"Ituporanga, floresta pluvial",-27.4847222222222,-49.5013888888889,Brasil,Casearia sylvestris
AtlPE015,"Recife e Camaragibe, floresta pluvial",-7.99916666666667,-34.9463888888889,Brasil,Bixa orellana
AtlMG029,"Ipanema, floresta semidecídua",-19.8038888888889,-41.7075,Brasil,Cordia trachyphylla
AtlSC069,"São Bonifácio, floresta pluvial",-27.9938888888889,-48.96,Brasil,Ossaea marginata
AtlBA024,"Camamu, mosaico flúvio-arenícola costeiro",-13.95,-39.0955555555556,Brasil,Myrciaria floribunda
CerMT038,"Jauru, floresta semidecídua",-15.3602777777778,-58.9216666666667,Brasil,Andira inermis
AmzAM101,"Santa Isabel, Campinas do Rio Preto, nanofloresta de areias brancas",0.0716666666666667,-64.3316666666667,Brasil,Clusia lopezii
AmzRR033,"Mucajaí, Vila Apiaú, nanofloresta de areias brancas",2.55722222222222,-61.2538888888889,Brasil,Humiria balsamifera
AtlMG061,"Piranga, floresta semidecídua",-20.6286111111111,-43.3719444444444,Brasil,Ixora brevifolia
AmzAC008,"Marechal Thaumaturgo, floresta pluvial de terra firme",-9.03888888888889,-72.2669444444444,Brasil,Drypetes amazonica
AtlRJ076,"Petrópolis, floresta nebular",-22.5347222222222,-43.1580555555556,Brasil,Rudgea recurva
CaaMG016,"Pai Pedro, caatinga arbórea",-15.5611111111111,-43.2241666666667,Brasil,Handroanthus impetiginosus
CerRO001,"Chupinguaia, Rio Pimenta, floresta ripícola",-12.405,-61.055,Brasil,Solanum endopogon
AtlAL019,"Maceió, Parque Florestal, floresta pluvial",-9.60194444444445,-35.7636111111111,Brasil,Richeria grandis
AmzRR026,"Alto Rio Xeriuini, floresta inundável de água negra",0.00138888888888889,-62.0875,Brasil,Clusia panapanari
AmzAC007,"Manoel Urbano, floresta pluvial de terra firme",-8.74916666666667,-69.2594444444444,Brasil,Pseudomalmea diclina
AtlRJ057,"Paraty, Sete Degraus, floresta pluvial",-23.1836111111111,-44.7797222222222,Brasil,Bathysa nicholsonii
CerMS090,"Três Lagoas, cerradão mesotrófico",-20.5730555555556,-52.3177777777778,Brasil,Byrsonima verbascifolia
CerSP003,"Patrocínio Paulista, floresta semidecídua",-20.6105555555556,-47.1502777777778,Brasil,Campomanesia xanthocarpa
AmzAM149,"Rio Preto da Eva, Ramal do Banco, floresta pluvial de terra firme",-2.80722222222222,-59.4011111111111,Brasil,Licania parviflora
CerMS087,"Batayporã, floresta ripícola",-22.1419444444444,-53.1894444444444,Brasil,Sloanea hirsuta
AtlRS087,"Venâncio Aires, floresta semidecídua",-29.5008333333333,-52.2833333333333,Brasil,Celtis iguanaea
AtlMG250,"Baependi, floresta semidecídua",-21.8830555555556,-44.9208333333333,Brasil,Myrciaria floribunda
AtlGO002,"Itumbiara, floresta semidecídua",-18.3491666666667,-49.0763888888889,Brasil,Zanthoxylum riedelianum
AtlMG214,"Além Paraíba, Alto D'Ouro, floresta semidecídua",-21.9116666666667,-42.8905555555556,Brasil,Myrcia splendens
